{
    "type": "FeatureCollection",
    "features": [
        {
            "type": "Feature",
            "properties": {
                "shop": "展愛社會企業有限公司",
                "category": "餐飲",
                "area": "中寮鄉",
                "market_address": "南投縣中寮鄉永平村０１３鄰永平路３１４―７號１樓",
                "pay_list": "台灣pay"
            },
            "geometry": {
                "type": "Point",
                "coordinates": [
                    120.768736,
                    23.878464
                ]
            }
        },
        {
            "type": "Feature",
            "properties": {
                "shop": "惠蓀林場",
                "category": "餐飲\/糕餅",
                "area": "仁愛鄉",
                "market_address": "南投縣仁愛鄉新生村山林巷１號",
                "pay_list": "信用卡"
            },
            "geometry": {
                "type": "Point",
                "coordinates": [
                    121.015611,
                    24.082431
                ]
            }
        },
        {
            "type": "Feature",
            "properties": {
                "shop": "張姐清境青青草原館",
                "category": "糕餅",
                "area": "仁愛鄉",
                "market_address": "南投縣仁愛鄉大同村仁和路１８６－１附２號",
                "pay_list": "信用卡\/一卡通MONEY(原LINE Pay Money)"
            },
            "geometry": {
                "type": "Point",
                "coordinates": [
                    121.161311,
                    24.054705
                ]
            }
        },
        {
            "type": "Feature",
            "properties": {
                "shop": "龍莊民宿",
                "category": "餐飲",
                "area": "仁愛鄉",
                "market_address": "南投縣仁愛鄉大同村壽亭巷３０號",
                "pay_list": "台灣pay\/信用卡"
            },
            "geometry": {
                "type": "Point",
                "coordinates": [
                    121.156977,
                    24.037748
                ]
            }
        },
        {
            "type": "Feature",
            "properties": {
                "shop": "黃山會館",
                "category": "餐飲",
                "area": "仁愛鄉",
                "market_address": "南投縣仁愛鄉大同村信義巷５０號",
                "pay_list": "信用卡"
            },
            "geometry": {
                "type": "Point",
                "coordinates": [
                    121.143165,
                    24.030923
                ]
            }
        },
        {
            "type": "Feature",
            "properties": {
                "shop": "香格里拉空中花園",
                "category": "餐飲",
                "area": "仁愛鄉",
                "market_address": "南投縣仁愛鄉大同村榮光巷８號",
                "pay_list": "台灣pay\/信用卡"
            },
            "geometry": {
                "type": "Point",
                "coordinates": [
                    121.155073,
                    24.041613
                ]
            }
        },
        {
            "type": "Feature",
            "properties": {
                "shop": "青天樂活休閒事業有限公司",
                "category": "餐飲",
                "area": "仁愛鄉",
                "market_address": "南投縣仁愛鄉法治村界山巷６－１號",
                "pay_list": "信用卡"
            },
            "geometry": {
                "type": "Point",
                "coordinates": [
                    121.047657,
                    23.917211
                ]
            }
        },
        {
            "type": "Feature",
            "properties": {
                "shop": "霞飛音樂城堡",
                "category": "餐飲",
                "area": "仁愛鄉",
                "market_address": "南投縣仁愛鄉大同村榮光巷３４－１號",
                "pay_list": "台灣pay\/信用卡"
            },
            "geometry": {
                "type": "Point",
                "coordinates": [
                    121.152522,
                    24.036384
                ]
            }
        },
        {
            "type": "Feature",
            "properties": {
                "shop": "雲舞樓",
                "category": "餐飲",
                "area": "仁愛鄉",
                "market_address": "南投縣仁愛鄉大同村定遠新村３２―１號",
                "pay_list": "台灣pay\/信用卡"
            },
            "geometry": {
                "type": "Point",
                "coordinates": [
                    121.134776,
                    24.025303
                ]
            }
        },
        {
            "type": "Feature",
            "properties": {
                "shop": "雲南風情",
                "category": "餐飲",
                "area": "仁愛鄉",
                "market_address": "南投縣仁愛鄉大同村榮光巷５０－１號",
                "pay_list": "信用卡"
            },
            "geometry": {
                "type": "Point",
                "coordinates": [
                    121.154321,
                    24.036615
                ]
            }
        },
        {
            "type": "Feature",
            "properties": {
                "shop": "蜜月館大飯店",
                "category": "餐飲",
                "area": "仁愛鄉",
                "market_address": "南投縣仁愛鄉精英村榮華巷４６號",
                "pay_list": "信用卡"
            },
            "geometry": {
                "type": "Point",
                "coordinates": [
                    121.189102,
                    24.024363
                ]
            }
        },
        {
            "type": "Feature",
            "properties": {
                "shop": "華崗高海拔避暑渡假村",
                "category": "餐飲",
                "area": "仁愛鄉",
                "market_address": "南投縣仁愛鄉翠華村華崗９７－２號",
                "pay_list": "信用卡"
            },
            "geometry": {
                "type": "Point",
                "coordinates": [
                    121.228601,
                    24.195285
                ]
            }
        },
        {
            "type": "Feature",
            "properties": {
                "shop": "華太旅館管理顧問有限公司翠峰分公司",
                "category": "餐飲",
                "area": "仁愛鄉",
                "market_address": "南投縣仁愛鄉大同村仁和路２３５號",
                "pay_list": "信用卡"
            },
            "geometry": {
                "type": "Point",
                "coordinates": [
                    121.194574,
                    24.103396
                ]
            }
        },
        {
            "type": "Feature",
            "properties": {
                "shop": "花沐星境莊園",
                "category": "餐飲",
                "area": "仁愛鄉",
                "market_address": "南投縣仁愛鄉大同村仁和路２１２之２附１號",
                "pay_list": "台灣pay\/信用卡"
            },
            "geometry": {
                "type": "Point",
                "coordinates": [
                    121.169219,
                    24.073067
                ]
            }
        },
        {
            "type": "Feature",
            "properties": {
                "shop": "芙克來小吃店",
                "category": "餐飲",
                "area": "仁愛鄉",
                "market_address": "南投縣仁愛鄉大同村定遠新村１８―７號２樓",
                "pay_list": "台灣pay\/信用卡"
            },
            "geometry": {
                "type": "Point",
                "coordinates": [
                    121.15871870723,
                    24.045951336536
                ]
            }
        },
        {
            "type": "Feature",
            "properties": {
                "shop": "老英格蘭莊園",
                "category": "餐飲",
                "area": "仁愛鄉",
                "market_address": "南投縣仁愛鄉大同村壽亭巷２０―３號",
                "pay_list": "台灣pay\/信用卡"
            },
            "geometry": {
                "type": "Point",
                "coordinates": [
                    121.13293,
                    24.021
                ]
            }
        },
        {
            "type": "Feature",
            "properties": {
                "shop": "義錦的家民宿",
                "category": "餐飲",
                "area": "仁愛鄉",
                "market_address": "南投縣仁愛鄉大同村榮光巷９―２號",
                "pay_list": "信用卡"
            },
            "geometry": {
                "type": "Point",
                "coordinates": [
                    121.132897,
                    24.021076
                ]
            }
        },
        {
            "type": "Feature",
            "properties": {
                "shop": "美斯樂傣味店",
                "category": "餐飲",
                "area": "仁愛鄉",
                "market_address": "南投縣仁愛鄉大同村１９鄰博望巷２３號",
                "pay_list": "信用卡"
            },
            "geometry": {
                "type": "Point",
                "coordinates": [
                    121.170654,
                    24.074888
                ]
            }
        },
        {
            "type": "Feature",
            "properties": {
                "shop": "竣悅股份有限公司清境營業所",
                "category": "餐飲",
                "area": "仁愛鄉",
                "market_address": "南投縣仁愛鄉大同村仁和路２２８號",
                "pay_list": "台灣pay\/信用卡"
            },
            "geometry": {
                "type": "Point",
                "coordinates": [
                    121.167614,
                    24.070868
                ]
            }
        },
        {
            "type": "Feature",
            "properties": {
                "shop": "福爾摩莎民宿時尚會館",
                "category": "餐飲",
                "area": "仁愛鄉",
                "market_address": "南投縣仁愛鄉大同村仁和路２２３－１號",
                "pay_list": "台灣pay\/信用卡"
            },
            "geometry": {
                "type": "Point",
                "coordinates": [
                    121.167006,
                    24.066828
                ]
            }
        },
        {
            "type": "Feature",
            "properties": {
                "shop": "瑪格麗特花園",
                "category": "餐飲",
                "area": "仁愛鄉",
                "market_address": "南投縣仁愛鄉大同村信義巷３９－１號",
                "pay_list": "信用卡\/一卡通MONEY(原LINE Pay Money)"
            },
            "geometry": {
                "type": "Point",
                "coordinates": [
                    121.153976,
                    24.032924
                ]
            }
        },
        {
            "type": "Feature",
            "properties": {
                "shop": "清境露意絲莊園",
                "category": "餐飲",
                "area": "仁愛鄉",
                "market_address": "南投縣仁愛鄉大同村榮光巷４３號",
                "pay_list": "信用卡"
            },
            "geometry": {
                "type": "Point",
                "coordinates": [
                    121.150599,
                    24.037122
                ]
            }
        },
        {
            "type": "Feature",
            "properties": {
                "shop": "清境西雅圖山莊",
                "category": "餐飲",
                "area": "仁愛鄉",
                "market_address": "南投縣仁愛鄉大同村榮光巷３９號",
                "pay_list": "信用卡"
            },
            "geometry": {
                "type": "Point",
                "coordinates": [
                    121.149274,
                    24.037154
                ]
            }
        },
        {
            "type": "Feature",
            "properties": {
                "shop": "清境茲心園山莊",
                "category": "餐飲",
                "area": "仁愛鄉",
                "market_address": "南投縣仁愛鄉大同村榮光巷３６－１號",
                "pay_list": "台灣pay\/信用卡\/一卡通MONEY(原LINE Pay Money)"
            },
            "geometry": {
                "type": "Point",
                "coordinates": [
                    121.148957,
                    24.03854
                ]
            }
        },
        {
            "type": "Feature",
            "properties": {
                "shop": "清境英國下午茶館",
                "category": "餐飲",
                "area": "仁愛鄉",
                "market_address": "南投縣仁愛鄉大同村１６鄰壽亭巷２０―２號",
                "pay_list": "台灣pay\/信用卡"
            },
            "geometry": {
                "type": "Point",
                "coordinates": [
                    121.132897,
                    24.021076
                ]
            }
        },
        {
            "type": "Feature",
            "properties": {
                "shop": "清境白雲渡假山莊",
                "category": "餐飲",
                "area": "仁愛鄉",
                "market_address": "南投縣仁愛鄉大同村榮光巷８－２號",
                "pay_list": "信用卡"
            },
            "geometry": {
                "type": "Point",
                "coordinates": [
                    121.155216,
                    24.041927
                ]
            }
        },
        {
            "type": "Feature",
            "properties": {
                "shop": "清境珂之幄山莊",
                "category": "餐飲",
                "area": "仁愛鄉",
                "market_address": "南投縣仁愛鄉大同村仁和路２０６―１１號",
                "pay_list": "台灣pay\/信用卡"
            },
            "geometry": {
                "type": "Point",
                "coordinates": [
                    121.130454,
                    24.018381
                ]
            }
        },
        {
            "type": "Feature",
            "properties": {
                "shop": "清境楓丹白露民宿",
                "category": "餐飲",
                "area": "仁愛鄉",
                "market_address": "南投縣仁愛鄉大同村仁和路１７９－７號",
                "pay_list": "一卡通MONEY(原LINE Pay Money)"
            },
            "geometry": {
                "type": "Point",
                "coordinates": [
                    121.167602,
                    24.061077
                ]
            }
        },
        {
            "type": "Feature",
            "properties": {
                "shop": "清境家園景觀山莊",
                "category": "餐飲",
                "area": "仁愛鄉",
                "market_address": "南投縣仁愛鄉大同村仁和路２０６－２號",
                "pay_list": "信用卡"
            },
            "geometry": {
                "type": "Point",
                "coordinates": [
                    121.168682,
                    24.06595
                ]
            }
        },
        {
            "type": "Feature",
            "properties": {
                "shop": "清境天星山莊",
                "category": "餐飲",
                "area": "仁愛鄉",
                "market_address": "南投縣仁愛鄉大同村仁和路１８２－３號",
                "pay_list": "台灣pay\/信用卡\/一卡通MONEY(原LINE Pay Money)"
            },
            "geometry": {
                "type": "Point",
                "coordinates": [
                    121.155874,
                    24.049468
                ]
            }
        },
        {
            "type": "Feature",
            "properties": {
                "shop": "清境夏都夢幻山林渡假山莊",
                "category": "餐飲",
                "area": "仁愛鄉",
                "market_address": "南投縣仁愛鄉大同村定遠新村３２號",
                "pay_list": "信用卡"
            },
            "geometry": {
                "type": "Point",
                "coordinates": [
                    121.157127,
                    24.039898
                ]
            }
        },
        {
            "type": "Feature",
            "properties": {
                "shop": "清境君士坦丁堡花卉莊園",
                "category": "餐飲",
                "area": "仁愛鄉",
                "market_address": "南投縣仁愛鄉大同村榮光巷８－４號",
                "pay_list": "台灣pay\/信用卡"
            },
            "geometry": {
                "type": "Point",
                "coordinates": [
                    121.153471,
                    24.038212
                ]
            }
        },
        {
            "type": "Feature",
            "properties": {
                "shop": "清境佛羅倫斯",
                "category": "餐飲",
                "area": "仁愛鄉",
                "market_address": "南投縣仁愛鄉大同村榮光巷８－３號",
                "pay_list": "台灣pay\/信用卡"
            },
            "geometry": {
                "type": "Point",
                "coordinates": [
                    121.153003,
                    24.038561
                ]
            }
        },
        {
            "type": "Feature",
            "properties": {
                "shop": "淳境景觀休閒山莊",
                "category": "餐飲",
                "area": "仁愛鄉",
                "market_address": "南投縣仁愛鄉大同村仁和路２２１－２號",
                "pay_list": "信用卡\/一卡通MONEY(原LINE Pay Money)"
            },
            "geometry": {
                "type": "Point",
                "coordinates": [
                    121.167018,
                    24.068442
                ]
            }
        },
        {
            "type": "Feature",
            "properties": {
                "shop": "泰雅渡假村股份有限公司",
                "category": "餐飲",
                "area": "仁愛鄉",
                "market_address": "南投縣仁愛鄉互助村清風路４５號",
                "pay_list": "一卡通MONEY(原LINE Pay Money)"
            },
            "geometry": {
                "type": "Point",
                "coordinates": [
                    120.952909,
                    24.068738
                ]
            }
        },
        {
            "type": "Feature",
            "properties": {
                "shop": "水悅休閒會館",
                "category": "餐飲",
                "area": "仁愛鄉",
                "market_address": "南投縣仁愛鄉精英村５鄰榮華巷６８號",
                "pay_list": "信用卡"
            },
            "geometry": {
                "type": "Point",
                "coordinates": [
                    121.181715,
                    24.020814
                ]
            }
        },
        {
            "type": "Feature",
            "properties": {
                "shop": "民生果園山莊",
                "category": "餐飲",
                "area": "仁愛鄉",
                "market_address": "南投縣仁愛鄉大同村仁和路１８２號",
                "pay_list": "信用卡"
            },
            "geometry": {
                "type": "Point",
                "coordinates": [
                    121.155407,
                    24.047326
                ]
            }
        },
        {
            "type": "Feature",
            "properties": {
                "shop": "正揚實業社",
                "category": "餐飲",
                "area": "仁愛鄉",
                "market_address": "南投縣仁愛鄉精英村榮華巷４３附１號",
                "pay_list": "信用卡"
            },
            "geometry": {
                "type": "Point",
                "coordinates": [
                    121.188064,
                    24.022261
                ]
            }
        },
        {
            "type": "Feature",
            "properties": {
                "shop": "歐風小鎮企業有限公司",
                "category": "餐飲",
                "area": "仁愛鄉",
                "market_address": "南投縣仁愛鄉大同村壽亭巷３５號",
                "pay_list": "台灣pay\/信用卡"
            },
            "geometry": {
                "type": "Point",
                "coordinates": [
                    121.158914,
                    24.04054
                ]
            }
        },
        {
            "type": "Feature",
            "properties": {
                "shop": "榮高育樂股份有限公司",
                "category": "餐飲",
                "area": "仁愛鄉",
                "market_address": "南投縣仁愛鄉互助村清風路４５號",
                "pay_list": "台灣pay\/信用卡\/一卡通MONEY(原LINE Pay Money)"
            },
            "geometry": {
                "type": "Point",
                "coordinates": [
                    120.952909,
                    24.068738
                ]
            }
        },
        {
            "type": "Feature",
            "properties": {
                "shop": "楓葉山莊",
                "category": "餐飲",
                "area": "仁愛鄉",
                "market_address": "南投縣仁愛鄉大同村仁和路２２６－９號",
                "pay_list": "信用卡"
            },
            "geometry": {
                "type": "Point",
                "coordinates": [
                    121.167084,
                    24.060935
                ]
            }
        },
        {
            "type": "Feature",
            "properties": {
                "shop": "曉雲南竹屋餐廳",
                "category": "餐飲",
                "area": "仁愛鄉",
                "market_address": "南投縣仁愛鄉大同村信義巷４２附１號",
                "pay_list": "信用卡\/一卡通MONEY(原LINE Pay Money)"
            },
            "geometry": {
                "type": "Point",
                "coordinates": [
                    121.150567,
                    24.034237
                ]
            }
        },
        {
            "type": "Feature",
            "properties": {
                "shop": "春天花園城堡民宿",
                "category": "餐飲",
                "area": "仁愛鄉",
                "market_address": "南投縣仁愛鄉大同村榮光巷８－８號",
                "pay_list": "信用卡"
            },
            "geometry": {
                "type": "Point",
                "coordinates": [
                    121.153235,
                    24.036379
                ]
            }
        },
        {
            "type": "Feature",
            "properties": {
                "shop": "春大地民宿",
                "category": "餐飲",
                "area": "仁愛鄉",
                "market_address": "南投縣仁愛鄉大同村壽亭巷２０－１號",
                "pay_list": "台灣pay\/信用卡"
            },
            "geometry": {
                "type": "Point",
                "coordinates": [
                    121.158372,
                    24.038208
                ]
            }
        },
        {
            "type": "Feature",
            "properties": {
                "shop": "明琴清境山莊",
                "category": "餐飲",
                "area": "仁愛鄉",
                "market_address": "南投縣仁愛鄉大同村榮光巷４３―１號",
                "pay_list": "台灣pay\/信用卡"
            },
            "geometry": {
                "type": "Point",
                "coordinates": [
                    121.168149,
                    24.068847
                ]
            }
        },
        {
            "type": "Feature",
            "properties": {
                "shop": "新洱海休閒渡假村",
                "category": "餐飲",
                "area": "仁愛鄉",
                "market_address": "南投縣仁愛鄉大同村信義巷７９號",
                "pay_list": "台灣pay\/信用卡"
            },
            "geometry": {
                "type": "Point",
                "coordinates": [
                    121.149238,
                    24.042937
                ]
            }
        },
        {
            "type": "Feature",
            "properties": {
                "shop": "摘星花園山莊",
                "category": "餐飲",
                "area": "仁愛鄉",
                "market_address": "南投縣仁愛鄉大同村榮光巷５１號",
                "pay_list": "台灣pay\/信用卡"
            },
            "geometry": {
                "type": "Point",
                "coordinates": [
                    121.154314,
                    24.035375
                ]
            }
        },
        {
            "type": "Feature",
            "properties": {
                "shop": "挪威森林民宿",
                "category": "餐飲",
                "area": "仁愛鄉",
                "market_address": "南投縣仁愛鄉大同村仁和路２１０―５號",
                "pay_list": "信用卡"
            },
            "geometry": {
                "type": "Point",
                "coordinates": [
                    121.130483,
                    24.018139
                ]
            }
        },
        {
            "type": "Feature",
            "properties": {
                "shop": "愛力家民宿",
                "category": "餐飲",
                "area": "仁愛鄉",
                "market_address": "南投縣仁愛鄉大同村榮光巷９之１之２號",
                "pay_list": "台灣pay\/信用卡"
            },
            "geometry": {
                "type": "Point",
                "coordinates": [
                    121.155135,
                    24.041217
                ]
            }
        },
        {
            "type": "Feature",
            "properties": {
                "shop": "惠蓀林場",
                "category": "餐飲\/糕餅",
                "area": "仁愛鄉",
                "market_address": "南投縣仁愛鄉新生村山林巷１號",
                "pay_list": "信用卡"
            },
            "geometry": {
                "type": "Point",
                "coordinates": [
                    121.015611,
                    24.082431
                ]
            }
        },
        {
            "type": "Feature",
            "properties": {
                "shop": "廬山園游泳池大飯店",
                "category": "餐飲",
                "area": "仁愛鄉",
                "market_address": "南投縣仁愛鄉精英村榮華巷１０號",
                "pay_list": "信用卡"
            },
            "geometry": {
                "type": "Point",
                "coordinates": [
                    121.186126,
                    24.022577
                ]
            }
        },
        {
            "type": "Feature",
            "properties": {
                "shop": "嶺仙花園渡假山莊民宿",
                "category": "餐飲",
                "area": "仁愛鄉",
                "market_address": "南投縣仁愛鄉大同村仁和路２１７號",
                "pay_list": "台灣pay\/信用卡"
            },
            "geometry": {
                "type": "Point",
                "coordinates": [
                    121.167314,
                    24.064692
                ]
            }
        },
        {
            "type": "Feature",
            "properties": {
                "shop": "嵐山小鎮",
                "category": "餐飲",
                "area": "仁愛鄉",
                "market_address": "南投縣仁愛鄉大同村仁和路２１０－１號",
                "pay_list": "台灣pay\/信用卡"
            },
            "geometry": {
                "type": "Point",
                "coordinates": [
                    121.167956,
                    24.069825
                ]
            }
        },
        {
            "type": "Feature",
            "properties": {
                "shop": "富嘉休閒奧萬大餐廳",
                "category": "餐飲",
                "area": "仁愛鄉",
                "market_address": "南投縣仁愛鄉親愛村大安路１５０號",
                "pay_list": "台灣pay\/信用卡"
            },
            "geometry": {
                "type": "Point",
                "coordinates": [
                    121.130059,
                    23.960111
                ]
            }
        },
        {
            "type": "Feature",
            "properties": {
                "shop": "定緣居工作坊",
                "category": "餐飲",
                "area": "仁愛鄉",
                "market_address": "南投縣仁愛鄉新生村山林巷１３－１號",
                "pay_list": "台灣pay"
            },
            "geometry": {
                "type": "Point",
                "coordinates": [
                    120.987033,
                    24.07799
                ]
            }
        },
        {
            "type": "Feature",
            "properties": {
                "shop": "娜嚕彎渡假景觀木屋民宿",
                "category": "餐飲",
                "area": "仁愛鄉",
                "market_address": "南投縣仁愛鄉大同村仁和路２０６號",
                "pay_list": "台灣pay\/信用卡"
            },
            "geometry": {
                "type": "Point",
                "coordinates": [
                    121.168311,
                    24.062595
                ]
            }
        },
        {
            "type": "Feature",
            "properties": {
                "shop": "好雞婆土雞城",
                "category": "餐飲",
                "area": "仁愛鄉",
                "market_address": "南投縣仁愛鄉大同村博望巷３６－３號",
                "pay_list": "街口"
            },
            "geometry": {
                "type": "Point",
                "coordinates": [
                    121.169302,
                    24.074303
                ]
            }
        },
        {
            "type": "Feature",
            "properties": {
                "shop": "天祥茶行",
                "category": "餐飲",
                "area": "仁愛鄉",
                "market_address": "南投縣仁愛鄉大同村信義巷３６－１號",
                "pay_list": "信用卡"
            },
            "geometry": {
                "type": "Point",
                "coordinates": [
                    121.145467,
                    24.036555
                ]
            }
        },
        {
            "type": "Feature",
            "properties": {
                "shop": "夏都大飯店之分店",
                "category": "餐飲",
                "area": "仁愛鄉",
                "market_address": "南投縣仁愛鄉精英村榮華巷２２號",
                "pay_list": "信用卡"
            },
            "geometry": {
                "type": "Point",
                "coordinates": [
                    121.186843,
                    24.022973
                ]
            }
        },
        {
            "type": "Feature",
            "properties": {
                "shop": "國軍退除役官兵輔導委員會清境農場",
                "category": "餐飲",
                "area": "仁愛鄉",
                "market_address": "南投縣仁愛鄉大同村定遠新村２５號",
                "pay_list": "信用卡\/悠遊卡"
            },
            "geometry": {
                "type": "Point",
                "coordinates": [
                    121.158548,
                    24.045005
                ]
            }
        },
        {
            "type": "Feature",
            "properties": {
                "shop": "名蘆假期大飯店",
                "category": "餐飲",
                "area": "仁愛鄉",
                "market_address": "南投縣仁愛鄉精英村榮華巷９號",
                "pay_list": "信用卡"
            },
            "geometry": {
                "type": "Point",
                "coordinates": [
                    121.185609,
                    24.02257
                ]
            }
        },
        {
            "type": "Feature",
            "properties": {
                "shop": "原之鄉食堂",
                "category": "餐飲",
                "area": "仁愛鄉",
                "market_address": "南投縣仁愛鄉大同村仁和路１９６號",
                "pay_list": "街口"
            },
            "geometry": {
                "type": "Point",
                "coordinates": [
                    121.156642,
                    24.048186
                ]
            }
        },
        {
            "type": "Feature",
            "properties": {
                "shop": "北歐小舖",
                "category": "餐飲",
                "area": "仁愛鄉",
                "market_address": "南投縣仁愛鄉大同村榮光巷９―９號",
                "pay_list": "信用卡"
            },
            "geometry": {
                "type": "Point",
                "coordinates": [
                    121.135592,
                    24.025741
                ]
            }
        },
        {
            "type": "Feature",
            "properties": {
                "shop": "億巨國際股份有限公司清境小瑞士門市",
                "category": "餐飲",
                "area": "仁愛鄉",
                "market_address": "南投縣仁愛鄉定遠新村28號(小瑞士商場)",
                "pay_list": "悠遊付"
            },
            "geometry": {
                "type": "Point",
                "coordinates": [
                    121.156369,
                    24.04397
                ]
            }
        },
        {
            "type": "Feature",
            "properties": {
                "shop": "依默民宿",
                "category": "餐飲",
                "area": "仁愛鄉",
                "market_address": "南投縣仁愛鄉大同村榮光巷３５－２號",
                "pay_list": "信用卡"
            },
            "geometry": {
                "type": "Point",
                "coordinates": [
                    121.153749,
                    24.037423
                ]
            }
        },
        {
            "type": "Feature",
            "properties": {
                "shop": "佳美休閒山莊",
                "category": "餐飲",
                "area": "仁愛鄉",
                "market_address": "南投縣仁愛鄉大同村信義巷８０號",
                "pay_list": "信用卡"
            },
            "geometry": {
                "type": "Point",
                "coordinates": [
                    121.143591,
                    24.034734
                ]
            }
        },
        {
            "type": "Feature",
            "properties": {
                "shop": "伊拿谷景觀咖啡餐坊",
                "category": "餐飲",
                "area": "仁愛鄉",
                "market_address": "南投縣仁愛鄉大同村信義巷３６－１附１號",
                "pay_list": "信用卡"
            },
            "geometry": {
                "type": "Point",
                "coordinates": [
                    121.145142,
                    24.036593
                ]
            }
        },
        {
            "type": "Feature",
            "properties": {
                "shop": "振洋商行",
                "category": "糕餅",
                "area": "信義鄉",
                "market_address": "南投縣信義鄉東埔村開高巷１３１號",
                "pay_list": "台灣pay"
            },
            "geometry": {
                "type": "Point",
                "coordinates": [
                    120.917154,
                    23.565313
                ]
            }
        },
        {
            "type": "Feature",
            "properties": {
                "shop": "雲豹休閒有限公司排雲塔塔加餐飲部",
                "category": "餐飲",
                "area": "信義鄉",
                "market_address": "南投縣信義鄉同富村太平巷１１８號",
                "pay_list": "街口\/一卡通MONEY(原LINE Pay Money)"
            },
            "geometry": {
                "type": "Point",
                "coordinates": [
                    120.891585,
                    23.487559
                ]
            }
        },
        {
            "type": "Feature",
            "properties": {
                "shop": "達谷蘭溫泉渡假村",
                "category": "餐飲",
                "area": "信義鄉",
                "market_address": "南投縣信義鄉東埔村３鄰開高巷１１０－３號",
                "pay_list": "信用卡"
            },
            "geometry": {
                "type": "Point",
                "coordinates": [
                    120.921364,
                    23.565847
                ]
            }
        },
        {
            "type": "Feature",
            "properties": {
                "shop": "達芭凱花園民宿望鄉營業所",
                "category": "餐飲",
                "area": "信義鄉",
                "market_address": "南投縣信義鄉望美村望和巷１５－８號",
                "pay_list": "信用卡"
            },
            "geometry": {
                "type": "Point",
                "coordinates": [
                    120.886039,
                    23.600415
                ]
            }
        },
        {
            "type": "Feature",
            "properties": {
                "shop": "觀瀑樓股份有限公司",
                "category": "餐飲",
                "area": "信義鄉",
                "market_address": "南投縣信義鄉東埔村開高巷１５３號",
                "pay_list": "信用卡"
            },
            "geometry": {
                "type": "Point",
                "coordinates": [
                    120.927873,
                    23.561737
                ]
            }
        },
        {
            "type": "Feature",
            "properties": {
                "shop": "蟬說雅築有限公司東埔分公司",
                "category": "餐飲",
                "area": "信義鄉",
                "market_address": "南投縣信義鄉東埔村００１鄰開高巷３０號",
                "pay_list": "一卡通MONEY(原LINE Pay Money)"
            },
            "geometry": {
                "type": "Point",
                "coordinates": [
                    120.922599,
                    23.557586
                ]
            }
        },
        {
            "type": "Feature",
            "properties": {
                "shop": "沙里仙渡假飯店",
                "category": "餐飲",
                "area": "信義鄉",
                "market_address": "南投縣信義鄉東埔村開高巷７４號",
                "pay_list": "台灣pay\/信用卡"
            },
            "geometry": {
                "type": "Point",
                "coordinates": [
                    120.927459,
                    23.56127
                ]
            }
        },
        {
            "type": "Feature",
            "properties": {
                "shop": "沙里仙民宿",
                "category": "餐飲",
                "area": "信義鄉",
                "market_address": "南投縣信義鄉東埔村４鄰開高巷１３６－１號",
                "pay_list": "信用卡"
            },
            "geometry": {
                "type": "Point",
                "coordinates": [
                    120.918705,
                    23.567302
                ]
            }
        },
        {
            "type": "Feature",
            "properties": {
                "shop": "東埔大飯店",
                "category": "餐飲",
                "area": "信義鄉",
                "market_address": "南投縣信義鄉東埔村開高巷７０之２號",
                "pay_list": "信用卡"
            },
            "geometry": {
                "type": "Point",
                "coordinates": [
                    120.927311,
                    23.561292
                ]
            }
        },
        {
            "type": "Feature",
            "properties": {
                "shop": "東光小吃部",
                "category": "餐飲",
                "area": "信義鄉",
                "market_address": "南投縣信義鄉東埔村開高巷７２－１號",
                "pay_list": "信用卡"
            },
            "geometry": {
                "type": "Point",
                "coordinates": [
                    120.92787,
                    23.561388
                ]
            }
        },
        {
            "type": "Feature",
            "properties": {
                "shop": "慢午野食有限公司",
                "category": "餐飲",
                "area": "信義鄉",
                "market_address": "南投縣信義鄉望美村００２鄰望和巷３１―１號",
                "pay_list": "台灣pay\/信用卡\/一卡通MONEY(原LINE Pay Money)"
            },
            "geometry": {
                "type": "Point",
                "coordinates": [
                    120.88411812115,
                    23.598862704451
                ]
            }
        },
        {
            "type": "Feature",
            "properties": {
                "shop": "帝綸有限公司",
                "category": "餐飲",
                "area": "信義鄉",
                "market_address": "南投縣信義鄉東埔村開高巷８６，８６之１號",
                "pay_list": "台灣pay\/信用卡"
            },
            "geometry": {
                "type": "Point",
                "coordinates": [
                    120.904681,
                    23.57721
                ]
            }
        },
        {
            "type": "Feature",
            "properties": {
                "shop": "山城小吃部",
                "category": "餐飲",
                "area": "信義鄉",
                "market_address": "南投縣信義鄉東埔村５鄰開高巷６０－３號",
                "pay_list": "歐付寶"
            },
            "geometry": {
                "type": "Point",
                "coordinates": [
                    120.929212,
                    23.560724
                ]
            }
        },
        {
            "type": "Feature",
            "properties": {
                "shop": "喜喀喀小吃部",
                "category": "餐飲",
                "area": "信義鄉",
                "market_address": "南投縣信義鄉地利村開信巷７之５號對面",
                "pay_list": "街口"
            },
            "geometry": {
                "type": "Point",
                "coordinates": [
                    120.9417,
                    23.792878
                ]
            }
        },
        {
            "type": "Feature",
            "properties": {
                "shop": "勝華大飯店股份有限公司",
                "category": "餐飲",
                "area": "信義鄉",
                "market_address": "南投縣信義鄉東埔村開高巷６０號",
                "pay_list": "信用卡"
            },
            "geometry": {
                "type": "Point",
                "coordinates": [
                    120.929389,
                    23.562691
                ]
            }
        },
        {
            "type": "Feature",
            "properties": {
                "shop": "信義鄉農會梅子夢工廠",
                "category": "餐飲",
                "area": "信義鄉",
                "market_address": "南投縣信義鄉明德村新開巷１１號",
                "pay_list": "信用卡"
            },
            "geometry": {
                "type": "Point",
                "coordinates": [
                    120.861403,
                    23.688469
                ]
            }
        },
        {
            "type": "Feature",
            "properties": {
                "shop": "興大新商行",
                "category": "夜市\/市場攤販",
                "area": "南投市",
                "market_address": "南投縣南投市三和里００４鄰彰南路一段９６０號一樓",
                "pay_list": "一卡通MONEY(原LINE Pay Money)"
            },
            "geometry": {
                "type": "Point",
                "coordinates": [
                    120.686204,
                    23.903531
                ]
            }
        },
        {
            "type": "Feature",
            "properties": {
                "shop": "榕樹下麵攤",
                "category": "夜市\/市場攤販",
                "area": "南投市",
                "market_address": "南投縣南投市永豐里彰南路３段６１０巷２號之１",
                "pay_list": "一卡通MONEY(原LINE Pay Money)"
            },
            "geometry": {
                "type": "Point",
                "coordinates": [
                    120.669981,
                    23.937331
                ]
            }
        },
        {
            "type": "Feature",
            "properties": {
                "shop": "哺哺商行",
                "category": "夜市\/市場攤販",
                "area": "南投市",
                "market_address": "南投縣南投市三和里三和三路２１號",
                "pay_list": "台灣pay"
            },
            "geometry": {
                "type": "Point",
                "coordinates": [
                    120.689057,
                    23.905685
                ]
            }
        },
        {
            "type": "Feature",
            "properties": {
                "shop": "中興新村第三市場-眼鏡行",
                "category": "夜市\/市場攤販",
                "area": "南投市",
                "market_address": "南投縣南投市光榮西路13號",
                "pay_list": "一卡通MONEY(原LINE Pay Money)\/台灣Pay"
            },
            "geometry": {
                "type": "Point",
                "coordinates": [
                    120.69632,
                    23.944458
                ]
            }
        },
        {
            "type": "Feature",
            "properties": {
                "shop": "中興新村第三市場-北方麵食",
                "category": "夜市\/市場攤販",
                "area": "南投市",
                "market_address": "南投縣南投市光榮西路13號",
                "pay_list": "信用卡"
            },
            "geometry": {
                "type": "Point",
                "coordinates": [
                    120.69632,
                    23.944458
                ]
            }
        },
        {
            "type": "Feature",
            "properties": {
                "shop": "中興新村第一市場-老山羊素食麵",
                "category": "夜市\/市場攤販",
                "area": "南投市",
                "market_address": "南投縣南投市光華二路13號",
                "pay_list": "一卡通MONEY(原LINE Pay Money)"
            },
            "geometry": {
                "type": "Point",
                "coordinates": [
                    120.689927,
                    23.953842
                ]
            }
        },
        {
            "type": "Feature",
            "properties": {
                "shop": "馨記羊糖舖",
                "category": "糕餅",
                "area": "南投市",
                "market_address": "南投縣南投市軍功里０２０鄰中興路４０５號",
                "pay_list": "一卡通MONEY(原LINE Pay Money)"
            },
            "geometry": {
                "type": "Point",
                "coordinates": [
                    120.697559,
                    23.915654
                ]
            }
        },
        {
            "type": "Feature",
            "properties": {
                "shop": "雅麒行",
                "category": "糕餅",
                "area": "南投市",
                "market_address": "南投縣南投市嘉和里８鄰大庄路２３９號",
                "pay_list": "台灣pay\/街口\/一卡通MONEY(原LINE Pay Money)"
            },
            "geometry": {
                "type": "Point",
                "coordinates": [
                    120.68368,
                    23.899463
                ]
            }
        },
        {
            "type": "Feature",
            "properties": {
                "shop": "阿東麵包屋",
                "category": "糕餅",
                "area": "南投市",
                "market_address": "南投縣南投市三民里民生街６０―５號１樓",
                "pay_list": "台灣pay\/信用卡\/一卡通MONEY(原LINE Pay Money)"
            },
            "geometry": {
                "type": "Point",
                "coordinates": [
                    120.68340935903,
                    23.909638511776
                ]
            }
        },
        {
            "type": "Feature",
            "properties": {
                "shop": "衛蕾原味攻坊",
                "category": "餐飲\/糕餅",
                "area": "南投市",
                "market_address": "南投縣南投市營北里０２５鄰仁德路２３９號",
                "pay_list": "一卡通MONEY(原LINE Pay Money)"
            },
            "geometry": {
                "type": "Point",
                "coordinates": [
                    120.689457,
                    23.943674
                ]
            }
        },
        {
            "type": "Feature",
            "properties": {
                "shop": "萊緹蛋糕坊",
                "category": "糕餅",
                "area": "南投市",
                "market_address": "南投縣南投市內興里光明一路４５５號一樓",
                "pay_list": "台灣pay\/街口\/一卡通MONEY(原LINE Pay Money)"
            },
            "geometry": {
                "type": "Point",
                "coordinates": [
                    120.699181,
                    23.931431
                ]
            }
        },
        {
            "type": "Feature",
            "properties": {
                "shop": "芬堤思烘焙屋",
                "category": "糕餅",
                "area": "南投市",
                "market_address": "南投縣南投市營北里仁德路１３３號一樓",
                "pay_list": "台灣pay\/一卡通MONEY(原LINE Pay Money)"
            },
            "geometry": {
                "type": "Point",
                "coordinates": [
                    120.692517,
                    23.942246
                ]
            }
        },
        {
            "type": "Feature",
            "properties": {
                "shop": "良食食品行",
                "category": "糕餅",
                "area": "南投市",
                "market_address": "南投縣南投市鳳山里八卦路１０７７號",
                "pay_list": "一卡通MONEY(原LINE Pay Money)"
            },
            "geometry": {
                "type": "Point",
                "coordinates": [
                    120.637787,
                    23.934252
                ]
            }
        },
        {
            "type": "Feature",
            "properties": {
                "shop": "甜心巫婆工房",
                "category": "糕餅",
                "area": "南投市",
                "market_address": "南投縣南投市營北里２０鄰仁政街６２號１樓",
                "pay_list": "台灣pay\/一卡通MONEY(原LINE Pay Money)"
            },
            "geometry": {
                "type": "Point",
                "coordinates": [
                    120.692691,
                    23.946417
                ]
            }
        },
        {
            "type": "Feature",
            "properties": {
                "shop": "木黃山烘焙坊",
                "category": "糕餅",
                "area": "南投市",
                "market_address": "南投縣南投市永興里八卦路５８巷２９弄３１號",
                "pay_list": "台灣pay\/悠遊卡\/歐付寶\/一卡通MONEY(原LINE Pay Money)"
            },
            "geometry": {
                "type": "Point",
                "coordinates": [
                    120.639048,
                    23.894045
                ]
            }
        },
        {
            "type": "Feature",
            "properties": {
                "shop": "日億誠食品行",
                "category": "糕餅",
                "area": "南投市",
                "market_address": "南投縣南投市嘉和里０１８鄰忠孝路２３號１樓",
                "pay_list": "台灣pay\/信用卡\/街口\/一卡通MONEY(原LINE Pay Money)"
            },
            "geometry": {
                "type": "Point",
                "coordinates": [
                    120.690029,
                    23.897079
                ]
            }
        },
        {
            "type": "Feature",
            "properties": {
                "shop": "日億誠商業有限公司",
                "category": "糕餅",
                "area": "南投市",
                "market_address": "南投縣南投市嘉和里０１８鄰忠孝路２３號１樓",
                "pay_list": "一卡通MONEY(原LINE Pay Money)"
            },
            "geometry": {
                "type": "Point",
                "coordinates": [
                    120.690029,
                    23.897079
                ]
            }
        },
        {
            "type": "Feature",
            "properties": {
                "shop": "微光森林有限公司",
                "category": "糕餅",
                "area": "南投市",
                "market_address": "南投縣南投市福山里１鄰八卦路７０３巷３２―２號",
                "pay_list": "台灣pay\/信用卡"
            },
            "geometry": {
                "type": "Point",
                "coordinates": [
                    120.63550794604,
                    23.919483089081
                ]
            }
        },
        {
            "type": "Feature",
            "properties": {
                "shop": "弘達事業有限公司",
                "category": "糕餅",
                "area": "南投市",
                "market_address": "南投縣南投市營南里１５鄰南營路６３６號１樓",
                "pay_list": "一卡通MONEY(原LINE Pay Money)"
            },
            "geometry": {
                "type": "Point",
                "coordinates": [
                    120.679236,
                    23.940989
                ]
            }
        },
        {
            "type": "Feature",
            "properties": {
                "shop": "尚品烘焙屋",
                "category": "糕餅",
                "area": "南投市",
                "market_address": "南投縣南投市平和里信義街１８５號１樓",
                "pay_list": "台灣pay"
            },
            "geometry": {
                "type": "Point",
                "coordinates": [
                    120.689674,
                    23.914156
                ]
            }
        },
        {
            "type": "Feature",
            "properties": {
                "shop": "寶田股份有限公司宏光門市",
                "category": "糕餅",
                "area": "南投市",
                "market_address": "南投縣南投市三和里０２１鄰公園南街３７號",
                "pay_list": "信用卡\/一卡通MONEY(原LINE Pay Money)"
            },
            "geometry": {
                "type": "Point",
                "coordinates": [
                    120.689804,
                    23.905208
                ]
            }
        },
        {
            "type": "Feature",
            "properties": {
                "shop": "寶田股份有限公司南投門市",
                "category": "糕餅",
                "area": "南投市",
                "market_address": "南投縣南投市鳳山里八卦路１１００巷２號",
                "pay_list": "信用卡\/一卡通MONEY(原LINE Pay Money)"
            },
            "geometry": {
                "type": "Point",
                "coordinates": [
                    120.638191,
                    23.933684
                ]
            }
        },
        {
            "type": "Feature",
            "properties": {
                "shop": "寶田股份有限公司",
                "category": "糕餅",
                "area": "南投市",
                "market_address": "南投縣南投市福興里１６鄰永興路１３號４樓",
                "pay_list": "信用卡\/一卡通MONEY(原LINE Pay Money)"
            },
            "geometry": {
                "type": "Point",
                "coordinates": [
                    120.662302,
                    23.935734
                ]
            }
        },
        {
            "type": "Feature",
            "properties": {
                "shop": "元聖食品行",
                "category": "糕餅",
                "area": "南投市",
                "market_address": "南投縣南投市仁和里００６鄰民生街４３號１樓",
                "pay_list": "台灣pay"
            },
            "geometry": {
                "type": "Point",
                "coordinates": [
                    120.684853,
                    23.909794
                ]
            }
        },
        {
            "type": "Feature",
            "properties": {
                "shop": "什勝堂企業社",
                "category": "糕餅",
                "area": "南投市",
                "market_address": "南投縣南投市光明里光明一路５５號",
                "pay_list": "一卡通MONEY(原LINE Pay Money)"
            },
            "geometry": {
                "type": "Point",
                "coordinates": [
                    120.700755,
                    23.941737
                ]
            }
        },
        {
            "type": "Feature",
            "properties": {
                "shop": "什一堂有限公司",
                "category": "糕餅",
                "area": "南投市",
                "market_address": "南投縣南投市彰仁里００７鄰民族路３１９號１樓",
                "pay_list": "台灣pay\/信用卡\/一卡通MONEY(原LINE Pay Money)"
            },
            "geometry": {
                "type": "Point",
                "coordinates": [
                    120.685162,
                    23.908007
                ]
            }
        },
        {
            "type": "Feature",
            "properties": {
                "shop": "中農粉絲有限公司",
                "category": "糕餅",
                "area": "南投市",
                "market_address": "南投縣南投市福興里彰南路三段９９９號",
                "pay_list": "台灣pay\/信用卡"
            },
            "geometry": {
                "type": "Point",
                "coordinates": [
                    120.66473,
                    23.944503
                ]
            }
        },
        {
            "type": "Feature",
            "properties": {
                "shop": "85度C 南投大同店",
                "category": "糕餅",
                "area": "南投市",
                "market_address": "南投縣南投市三和里１３鄰大同南街１０９號１樓",
                "pay_list": "Pi 拍錢包\/台灣pay\/信用卡\/悠遊付\/一卡通MONEY(原LINE Pay Money)"
            },
            "geometry": {
                "type": "Point",
                "coordinates": [
                    120.688389,
                    23.905531
                ]
            }
        },
        {
            "type": "Feature",
            "properties": {
                "shop": "香里活力豬品牌文化館",
                "category": "觀光工廠",
                "area": "南投市",
                "market_address": "南投縣南投市南崗工業區仁和路3號",
                "pay_list": "台灣pay\/信用卡"
            },
            "geometry": {
                "type": "Point",
                "coordinates": [
                    120.67529913058,
                    23.924303693804
                ]
            }
        },
        {
            "type": "Feature",
            "properties": {
                "shop": "臺灣菸酒股份有限公司南投觀光酒廠販售部",
                "category": "觀光工廠",
                "area": "南投市",
                "market_address": "南投縣南投市軍功里東山路82號",
                "pay_list": "台灣pay\/信用卡\/悠遊付\/悠遊卡"
            },
            "geometry": {
                "type": "Point",
                "coordinates": [
                    120.705507,
                    23.919468
                ]
            }
        },
        {
            "type": "Feature",
            "properties": {
                "shop": "麥當勞南投南崗分公司",
                "category": "餐飲",
                "area": "南投市",
                "market_address": "南投縣南投市漳和里南崗二路３１３，３１５號１、２樓",
                "pay_list": "信用卡\/一卡通MONEY(原LINE Pay Money)"
            },
            "geometry": {
                "type": "Point",
                "coordinates": [
                    120.678603,
                    23.911163
                ]
            }
        },
        {
            "type": "Feature",
            "properties": {
                "shop": "鮮道美食平價料理",
                "category": "餐飲",
                "area": "南投市",
                "market_address": "南投縣南投市龍泉里文昌街２－８號",
                "pay_list": "台灣pay"
            },
            "geometry": {
                "type": "Point",
                "coordinates": [
                    120.689651,
                    23.907719
                ]
            }
        },
        {
            "type": "Feature",
            "properties": {
                "shop": "鮮茶道Presotea 南投彰南店",
                "category": "餐飲",
                "area": "南投市",
                "market_address": "南投縣南投市崇文里００７鄰彰南路一段１１１２號",
                "pay_list": "台灣pay\/悠遊付\/悠遊卡\/街口\/一卡通MONEY(原LINE Pay Money)"
            },
            "geometry": {
                "type": "Point",
                "coordinates": [
                    120.685411,
                    23.906582
                ]
            }
        },
        {
            "type": "Feature",
            "properties": {
                "shop": "鮮味日式料理",
                "category": "餐飲",
                "area": "南投市",
                "market_address": "南投縣南投市平和里育樂一街２５號一樓、二樓",
                "pay_list": "台灣pay"
            },
            "geometry": {
                "type": "Point",
                "coordinates": [
                    120.690048,
                    23.910409
                ]
            }
        },
        {
            "type": "Feature",
            "properties": {
                "shop": "馥嘉餐飲社",
                "category": "餐飲",
                "area": "南投市",
                "market_address": "南投縣南投市嘉和里００６鄰彰南路一段７２６號１樓",
                "pay_list": "台灣pay\/一卡通MONEY(原LINE Pay Money)"
            },
            "geometry": {
                "type": "Point",
                "coordinates": [
                    120.686255,
                    23.898447
                ]
            }
        },
        {
            "type": "Feature",
            "properties": {
                "shop": "香玉飲料店",
                "category": "餐飲",
                "area": "南投市",
                "market_address": "南投縣南投市崇文里００１鄰文昌街８３號１樓",
                "pay_list": "台灣pay"
            },
            "geometry": {
                "type": "Point",
                "coordinates": [
                    120.686519,
                    23.907215
                ]
            }
        },
        {
            "type": "Feature",
            "properties": {
                "shop": "香堤園",
                "category": "餐飲",
                "area": "南投市",
                "market_address": "南投縣南投市嘉和里忠孝路９３號",
                "pay_list": "台灣pay"
            },
            "geometry": {
                "type": "Point",
                "coordinates": [
                    120.689406,
                    23.899311
                ]
            }
        },
        {
            "type": "Feature",
            "properties": {
                "shop": "飴豐小吃店",
                "category": "餐飲",
                "area": "南投市",
                "market_address": "南投縣南投市平和里００２鄰南陽路６７號",
                "pay_list": "台灣pay\/一卡通MONEY(原LINE Pay Money)"
            },
            "geometry": {
                "type": "Point",
                "coordinates": [
                    120.689471,
                    23.908937
                ]
            }
        },
        {
            "type": "Feature",
            "properties": {
                "shop": "頂盛茶行",
                "category": "餐飲",
                "area": "南投市",
                "market_address": "南投縣南投市平和里０２２鄰育樂路９７號１樓",
                "pay_list": "街口\/一卡通MONEY(原LINE Pay Money)"
            },
            "geometry": {
                "type": "Point",
                "coordinates": [
                    120.691405,
                    23.91215
                ]
            }
        },
        {
            "type": "Feature",
            "properties": {
                "shop": "雙寶炒堂",
                "category": "餐飲",
                "area": "南投市",
                "market_address": "南投縣南投市內興里０２９鄰中興路２２９―２７號１樓",
                "pay_list": "台灣pay\/一卡通MONEY(原LINE Pay Money)"
            },
            "geometry": {
                "type": "Point",
                "coordinates": [
                    120.69219594803,
                    23.927905143754
                ]
            }
        },
        {
            "type": "Feature",
            "properties": {
                "shop": "雅荷坊品饌美食館",
                "category": "餐飲",
                "area": "南投市",
                "market_address": "南投縣南投市光輝里省府路１７１－６號１樓前",
                "pay_list": "台灣pay"
            },
            "geometry": {
                "type": "Point",
                "coordinates": [
                    120.680922,
                    23.954718
                ]
            }
        },
        {
            "type": "Feature",
            "properties": {
                "shop": "阿牧家茶舖",
                "category": "餐飲",
                "area": "南投市",
                "market_address": "南投縣南投市龍泉里大同街９４號１樓",
                "pay_list": "一卡通MONEY(原LINE Pay Money)"
            },
            "geometry": {
                "type": "Point",
                "coordinates": [
                    120.688255,
                    23.908041
                ]
            }
        },
        {
            "type": "Feature",
            "properties": {
                "shop": "金時代書香咖啡",
                "category": "餐飲",
                "area": "南投市",
                "market_address": "南投縣南投市平和里２鄰南陽路６７號",
                "pay_list": "歐付寶"
            },
            "geometry": {
                "type": "Point",
                "coordinates": [
                    120.689471,
                    23.908937
                ]
            }
        },
        {
            "type": "Feature",
            "properties": {
                "shop": "醇品菸酒有限公司",
                "category": "餐飲",
                "area": "南投市",
                "market_address": "南投縣南投市振興里芳美路２４３號",
                "pay_list": "台灣pay\/信用卡"
            },
            "geometry": {
                "type": "Point",
                "coordinates": [
                    120.693511,
                    23.907826
                ]
            }
        },
        {
            "type": "Feature",
            "properties": {
                "shop": "迷客夏 南投南投店",
                "category": "餐飲",
                "area": "南投市",
                "market_address": "南投縣南投市南投里００９鄰民族路３５８號１樓",
                "pay_list": "台灣pay\/信用卡\/悠遊卡\/街口\/一卡通MONEY(原LINE Pay Money)"
            },
            "geometry": {
                "type": "Point",
                "coordinates": [
                    120.684503,
                    23.908132
                ]
            }
        },
        {
            "type": "Feature",
            "properties": {
                "shop": "趙媽媽紅燒麵",
                "category": "餐飲",
                "area": "南投市",
                "market_address": "南投縣南投市崇文里大同街２１號",
                "pay_list": "台灣pay"
            },
            "geometry": {
                "type": "Point",
                "coordinates": [
                    120.68819,
                    23.906506
                ]
            }
        },
        {
            "type": "Feature",
            "properties": {
                "shop": "貝拉甜品專賣店",
                "category": "餐飲",
                "area": "南投市",
                "market_address": "南投縣南投市內興里０２４鄰中興路１８２巷３２號６樓之５",
                "pay_list": "台灣pay"
            },
            "geometry": {
                "type": "Point",
                "coordinates": [
                    120.693499,
                    23.937479
                ]
            }
        },
        {
            "type": "Feature",
            "properties": {
                "shop": "裕芳小吃店",
                "category": "餐飲",
                "area": "南投市",
                "market_address": "南投縣南投市漳和里彰南路２段３７０號１樓",
                "pay_list": "一卡通MONEY(原LINE Pay Money)"
            },
            "geometry": {
                "type": "Point",
                "coordinates": [
                    120.679666,
                    23.915398
                ]
            }
        },
        {
            "type": "Feature",
            "properties": {
                "shop": "衛蕾原味攻坊",
                "category": "餐飲\/糕餅",
                "area": "南投市",
                "market_address": "南投縣南投市營北里０２５鄰仁德路２３９號",
                "pay_list": "一卡通MONEY(原LINE Pay Money)"
            },
            "geometry": {
                "type": "Point",
                "coordinates": [
                    120.689457,
                    23.943674
                ]
            }
        },
        {
            "type": "Feature",
            "properties": {
                "shop": "菓風食品實業有限公司",
                "category": "餐飲",
                "area": "南投市",
                "market_address": "南投縣南投市福興里南崗三路１０７號",
                "pay_list": "信用卡\/一卡通MONEY(原LINE Pay Money)"
            },
            "geometry": {
                "type": "Point",
                "coordinates": [
                    120.663099,
                    23.943221
                ]
            }
        },
        {
            "type": "Feature",
            "properties": {
                "shop": "荷林飲料店",
                "category": "餐飲",
                "area": "南投市",
                "market_address": "南投縣南投市三和里三和三路６７號１樓",
                "pay_list": "一卡通MONEY(原LINE Pay Money)"
            },
            "geometry": {
                "type": "Point",
                "coordinates": [
                    120.685916,
                    23.904893
                ]
            }
        },
        {
            "type": "Feature",
            "properties": {
                "shop": "茶湯會 南投彰南店(品健商行)",
                "category": "餐飲",
                "area": "南投市",
                "market_address": "南投縣南投市南投里彰南路２段２號",
                "pay_list": "Pi 拍錢包\/台灣pay\/信用卡\/悠遊卡\/街口\/橘子支付\/一卡通MONEY(原LINE Pay Money)"
            },
            "geometry": {
                "type": "Point",
                "coordinates": [
                    120.685053,
                    23.908242
                ]
            }
        },
        {
            "type": "Feature",
            "properties": {
                "shop": "芋頭城豆花冰品專賣",
                "category": "餐飲",
                "area": "南投市",
                "market_address": "南投縣南投市三和里復興路９８―２號１樓",
                "pay_list": "台灣pay"
            },
            "geometry": {
                "type": "Point",
                "coordinates": [
                    120.68795974626,
                    23.90435646915
                ]
            }
        },
        {
            "type": "Feature",
            "properties": {
                "shop": "芊槿企業社",
                "category": "餐飲",
                "area": "南投市",
                "market_address": "南投縣南投市三和里三和三路４７號１樓",
                "pay_list": "一卡通MONEY(原LINE Pay Money)"
            },
            "geometry": {
                "type": "Point",
                "coordinates": [
                    120.686554,
                    23.904886
                ]
            }
        },
        {
            "type": "Feature",
            "properties": {
                "shop": "艾木雅舍",
                "category": "餐飲",
                "area": "南投市",
                "market_address": "南投縣南投市營北里２１鄰中學西路８７號",
                "pay_list": "台灣pay\/信用卡"
            },
            "geometry": {
                "type": "Point",
                "coordinates": [
                    120.691308,
                    23.945934
                ]
            }
        },
        {
            "type": "Feature",
            "properties": {
                "shop": "艾斯里親子響食餐館",
                "category": "餐飲",
                "area": "南投市",
                "market_address": "南投縣南投市三和里００８鄰中山南街１７號一樓",
                "pay_list": "一卡通MONEY(原LINE Pay Money)"
            },
            "geometry": {
                "type": "Point",
                "coordinates": [
                    120.687406,
                    23.90133
                ]
            }
        },
        {
            "type": "Feature",
            "properties": {
                "shop": "胖老爹美式炸雞 南投店",
                "category": "餐飲",
                "area": "南投市",
                "market_address": "南投縣南投市三和里三和二路１１７號",
                "pay_list": "台灣pay"
            },
            "geometry": {
                "type": "Point",
                "coordinates": [
                    120.686498,
                    23.903703
                ]
            }
        },
        {
            "type": "Feature",
            "properties": {
                "shop": "肯德基KFC-南投南崗店",
                "category": "餐飲",
                "area": "南投市",
                "market_address": "南投縣南投市漳和里０２５鄰南崗二路２１２號１樓",
                "pay_list": "信用卡"
            },
            "geometry": {
                "type": "Point",
                "coordinates": [
                    120.678916,
                    23.911697
                ]
            }
        },
        {
            "type": "Feature",
            "properties": {
                "shop": "聚芳園小吃部",
                "category": "餐飲",
                "area": "南投市",
                "market_address": "南投縣南投市振興里芳美路３０８號",
                "pay_list": "一卡通MONEY(原LINE Pay Money)\/悠遊付"
            },
            "geometry": {
                "type": "Point",
                "coordinates": [
                    120.693505,
                    23.90537
                ]
            }
        },
        {
            "type": "Feature",
            "properties": {
                "shop": "羿芃食品行",
                "category": "餐飲",
                "area": "南投市",
                "market_address": "南投縣南投市三興里集賢路４１號１樓",
                "pay_list": "台灣pay\/信用卡"
            },
            "geometry": {
                "type": "Point",
                "coordinates": [
                    120.684325,
                    23.904584
                ]
            }
        },
        {
            "type": "Feature",
            "properties": {
                "shop": "羽榮商行",
                "category": "餐飲",
                "area": "南投市",
                "market_address": "南投縣南投市仁和里中山街２１３號１樓",
                "pay_list": "台灣pay"
            },
            "geometry": {
                "type": "Point",
                "coordinates": [
                    120.685255,
                    23.909949
                ]
            }
        },
        {
            "type": "Feature",
            "properties": {
                "shop": "義間麵店",
                "category": "餐飲",
                "area": "南投市",
                "market_address": "南投縣南投市南投里００９鄰彰南路二段３４號１樓",
                "pay_list": "歐付寶"
            },
            "geometry": {
                "type": "Point",
                "coordinates": [
                    120.684845,
                    23.908829
                ]
            }
        },
        {
            "type": "Feature",
            "properties": {
                "shop": "紘田小吃",
                "category": "餐飲",
                "area": "南投市",
                "market_address": "南投縣南投市南投里００５鄰復興路２７１號１樓",
                "pay_list": "台灣pay"
            },
            "geometry": {
                "type": "Point",
                "coordinates": [
                    120.68621,
                    23.909202
                ]
            }
        },
        {
            "type": "Feature",
            "properties": {
                "shop": "米克Ｑ南投店",
                "category": "餐飲",
                "area": "南投市",
                "market_address": "南投縣南投市漳和里彰南路２段３８９號",
                "pay_list": "台灣pay"
            },
            "geometry": {
                "type": "Point",
                "coordinates": [
                    120.679275,
                    23.915866
                ]
            }
        },
        {
            "type": "Feature",
            "properties": {
                "shop": "築間幸福鍋物 南投彰南店",
                "category": "餐飲",
                "area": "南投市",
                "market_address": "南投縣南投市三和里彰南路一段１０４６號１樓",
                "pay_list": "台灣pay\/信用卡\/一卡通MONEY(原LINE Pay Money)"
            },
            "geometry": {
                "type": "Point",
                "coordinates": [
                    120.685393,
                    23.905304
                ]
            }
        },
        {
            "type": "Feature",
            "properties": {
                "shop": "竑軒飲料店",
                "category": "餐飲",
                "area": "南投市",
                "market_address": "南投縣南投市三和里三和三路１８號１樓",
                "pay_list": "街口"
            },
            "geometry": {
                "type": "Point",
                "coordinates": [
                    120.68621,
                    23.904976
                ]
            }
        },
        {
            "type": "Feature",
            "properties": {
                "shop": "禾田舍商行",
                "category": "餐飲",
                "area": "南投市",
                "market_address": "南投縣南投市營北里５鄰中正路１５２－６號",
                "pay_list": "台灣pay\/信用卡"
            },
            "geometry": {
                "type": "Point",
                "coordinates": [
                    120.688364,
                    23.952007
                ]
            }
        },
        {
            "type": "Feature",
            "properties": {
                "shop": "福勝亭 南投店",
                "category": "餐飲",
                "area": "南投市",
                "market_address": "南投縣南投市三和里三和三路２１號",
                "pay_list": "一卡通MONEY(原LINE Pay Money)\/悠遊卡\/信用卡\/街口\/台灣pay"
            },
            "geometry": {
                "type": "Point",
                "coordinates": [
                    120.689057,
                    23.905685
                ]
            }
        },
        {
            "type": "Feature",
            "properties": {
                "shop": "福來順滷担",
                "category": "餐飲",
                "area": "南投市",
                "market_address": "南投縣南投市龍泉里００６鄰玉井街３４號一樓",
                "pay_list": "台灣pay"
            },
            "geometry": {
                "type": "Point",
                "coordinates": [
                    120.68694,
                    23.911785
                ]
            }
        },
        {
            "type": "Feature",
            "properties": {
                "shop": "皓克手調飲",
                "category": "餐飲",
                "area": "南投市",
                "market_address": "南投縣南投市營北里中學西路４２之１號",
                "pay_list": "一卡通MONEY(原LINE Pay Money)"
            },
            "geometry": {
                "type": "Point",
                "coordinates": [
                    120.691601,
                    23.946884
                ]
            }
        },
        {
            "type": "Feature",
            "properties": {
                "shop": "百首商行",
                "category": "餐飲",
                "area": "南投市",
                "market_address": "南投縣南投市南投里彰南路二段７號１樓",
                "pay_list": "一卡通MONEY(原LINE Pay Money)"
            },
            "geometry": {
                "type": "Point",
                "coordinates": [
                    120.684749,
                    23.908187
                ]
            }
        },
        {
            "type": "Feature",
            "properties": {
                "shop": "白巷子 南投民族店",
                "category": "餐飲",
                "area": "南投市",
                "market_address": "南投縣南投市南投里００８鄰民族路３３６號１樓",
                "pay_list": "一卡通MONEY(原LINE Pay Money)"
            },
            "geometry": {
                "type": "Point",
                "coordinates": [
                    120.685259,
                    23.908297
                ]
            }
        },
        {
            "type": "Feature",
            "properties": {
                "shop": "瑪度食品國際有限公司",
                "category": "餐飲",
                "area": "南投市",
                "market_address": "南投縣南投市營北里向上路２４９號１樓",
                "pay_list": "台灣pay"
            },
            "geometry": {
                "type": "Point",
                "coordinates": [
                    120.682872,
                    23.952645
                ]
            }
        },
        {
            "type": "Feature",
            "properties": {
                "shop": "王師父牛肉炒麵",
                "category": "餐飲",
                "area": "南投市",
                "market_address": "南投縣南投市仁和里００５鄰中山街１９８號",
                "pay_list": "台灣pay"
            },
            "geometry": {
                "type": "Point",
                "coordinates": [
                    120.68557,
                    23.909787
                ]
            }
        },
        {
            "type": "Feature",
            "properties": {
                "shop": "王品餐飲股份有限公司陶板屋南投家樂福店",
                "category": "餐飲",
                "area": "南投市",
                "market_address": "南投縣南投市三和里三和三路２１號",
                "pay_list": "信用卡\/一卡通MONEY(原LINE Pay Money)"
            },
            "geometry": {
                "type": "Point",
                "coordinates": [
                    120.689057,
                    23.905685
                ]
            }
        },
        {
            "type": "Feature",
            "properties": {
                "shop": "玉張擔仔麵",
                "category": "餐飲",
                "area": "南投市",
                "market_address": "南投縣南投市三和里三和三路６３號",
                "pay_list": "台灣pay"
            },
            "geometry": {
                "type": "Point",
                "coordinates": [
                    120.686142,
                    23.90475
                ]
            }
        },
        {
            "type": "Feature",
            "properties": {
                "shop": "爭鮮股份有限公司南投家分公司",
                "category": "餐飲",
                "area": "南投市",
                "market_address": "南投縣南投市三和里三和三路２１號",
                "pay_list": "信用卡\/一卡通MONEY(原LINE Pay Money)"
            },
            "geometry": {
                "type": "Point",
                "coordinates": [
                    120.689057,
                    23.905685
                ]
            }
        },
        {
            "type": "Feature",
            "properties": {
                "shop": "熊飽食堂",
                "category": "餐飲",
                "area": "南投市",
                "market_address": "南投縣南投市新興里０１３鄰彰南路三段３９８巷９―１號１樓",
                "pay_list": "一卡通MONEY(原LINE Pay Money)"
            },
            "geometry": {
                "type": "Point",
                "coordinates": [
                    120.673156,
                    23.932986
                ]
            }
        },
        {
            "type": "Feature",
            "properties": {
                "shop": "熊愛呷冰",
                "category": "餐飲",
                "area": "南投市",
                "market_address": "南投縣南投市營北里００１鄰仁德路２００號",
                "pay_list": "台灣pay\/一卡通MONEY(原LINE Pay Money)"
            },
            "geometry": {
                "type": "Point",
                "coordinates": [
                    120.690787,
                    23.942782
                ]
            }
        },
        {
            "type": "Feature",
            "properties": {
                "shop": "無毒的家有機生活館",
                "category": "餐飲",
                "area": "南投市",
                "market_address": "南投縣南投市三興里１６鄰建國路１２９－１號１樓",
                "pay_list": "信用卡"
            },
            "geometry": {
                "type": "Point",
                "coordinates": [
                    120.682559,
                    23.907077
                ]
            }
        },
        {
            "type": "Feature",
            "properties": {
                "shop": "澐錡茶飲",
                "category": "餐飲",
                "area": "南投市",
                "market_address": "南投縣南投市南投里民族路３４０號１樓",
                "pay_list": "台灣pay"
            },
            "geometry": {
                "type": "Point",
                "coordinates": [
                    120.685181,
                    23.90827
                ]
            }
        },
        {
            "type": "Feature",
            "properties": {
                "shop": "清玉手調原味茶 南投民族店",
                "category": "餐飲",
                "area": "南投市",
                "market_address": "南投縣南投市平和里民族路１８３號",
                "pay_list": "街口"
            },
            "geometry": {
                "type": "Point",
                "coordinates": [
                    120.689224,
                    23.909244
                ]
            }
        },
        {
            "type": "Feature",
            "properties": {
                "shop": "清水臭臭鍋南投店",
                "category": "餐飲",
                "area": "南投市",
                "market_address": "南投縣南投市平和里００５鄰平和街１３５號",
                "pay_list": "一卡通MONEY(原LINE Pay Money)"
            },
            "geometry": {
                "type": "Point",
                "coordinates": [
                    120.689106,
                    23.909659
                ]
            }
        },
        {
            "type": "Feature",
            "properties": {
                "shop": "清水臭臭鍋",
                "category": "餐飲",
                "area": "南投市",
                "market_address": "南投縣南投市平和里００６鄰南陽路８９號",
                "pay_list": "台灣pay\/一卡通MONEY(原LINE Pay Money)"
            },
            "geometry": {
                "type": "Point",
                "coordinates": [
                    120.689173,
                    23.909813
                ]
            }
        },
        {
            "type": "Feature",
            "properties": {
                "shop": "清水小吃部",
                "category": "餐飲",
                "area": "南投市",
                "market_address": "南投縣南投市平和里民族路２００號",
                "pay_list": "台灣pay\/信用卡\/一卡通MONEY(原LINE Pay Money)"
            },
            "geometry": {
                "type": "Point",
                "coordinates": [
                    120.688772,
                    23.909694
                ]
            }
        },
        {
            "type": "Feature",
            "properties": {
                "shop": "清心福全 南投彰南店(大頭目茶飲專賣店)",
                "category": "餐飲",
                "area": "南投市",
                "market_address": "南投縣南投市三興里０３８鄰集賢路４２號",
                "pay_list": "街口\/悠遊付\/橘子支付"
            },
            "geometry": {
                "type": "Point",
                "coordinates": [
                    120.684147,
                    23.904917
                ]
            }
        },
        {
            "type": "Feature",
            "properties": {
                "shop": "清心福全 南投南陽店(南陽冷飲站)",
                "category": "餐飲",
                "area": "南投市",
                "market_address": "南投縣南投市平和里６鄰南陽路８２號１樓",
                "pay_list": "街口\/悠遊付\/橘子支付"
            },
            "geometry": {
                "type": "Point",
                "coordinates": [
                    120.689508,
                    23.909867
                ]
            }
        },
        {
            "type": "Feature",
            "properties": {
                "shop": "清心福全 南投南崗店(中成冷飲站)",
                "category": "餐飲",
                "area": "南投市",
                "market_address": "南投縣南投市漳和里０２５鄰南崗２路３２２號",
                "pay_list": "街口\/悠遊付\/橘子支付"
            },
            "geometry": {
                "type": "Point",
                "coordinates": [
                    120.678006,
                    23.913699
                ]
            }
        },
        {
            "type": "Feature",
            "properties": {
                "shop": "清心福全 南投中興店(上泳冷飲店)",
                "category": "餐飲",
                "area": "南投市",
                "market_address": "南投縣南投市嘉和里７鄰南崗一路１３號１樓",
                "pay_list": "Pi 拍錢包\/街口\/一卡通MONEY(原LINE Pay Money)\/悠遊付\/橘子支付"
            },
            "geometry": {
                "type": "Point",
                "coordinates": [
                    120.684622,
                    23.899799
                ]
            }
        },
        {
            "type": "Feature",
            "properties": {
                "shop": "清心福全 南投中正店(中興冷飲站)",
                "category": "餐飲",
                "area": "南投市",
                "market_address": "南投縣南投市營北里２７鄰中正路２２２―１號",
                "pay_list": "街口\/悠遊付\/橘子支付"
            },
            "geometry": {
                "type": "Point",
                "coordinates": [
                    120.69382370279,
                    23.945795964505
                ]
            }
        },
        {
            "type": "Feature",
            "properties": {
                "shop": "清心福全 南投中山店(月琴冷飲站)",
                "category": "餐飲",
                "area": "南投市",
                "market_address": "南投縣南投市康壽里中山街２２８號",
                "pay_list": "街口\/一卡通MONEY(原LINE Pay Money)\/悠遊付\/橘子支付"
            },
            "geometry": {
                "type": "Point",
                "coordinates": [
                    120.685018,
                    23.910409
                ]
            }
        },
        {
            "type": "Feature",
            "properties": {
                "shop": "清原芋圓 南投縣南投店",
                "category": "餐飲",
                "area": "南投市",
                "market_address": "南投縣南投市彰仁里民族路３１１號",
                "pay_list": "台灣pay\/悠遊卡\/街口\/一卡通MONEY(原LINE Pay Money)"
            },
            "geometry": {
                "type": "Point",
                "coordinates": [
                    120.685378,
                    23.908017
                ]
            }
        },
        {
            "type": "Feature",
            "properties": {
                "shop": "海龍洪鹿美食部",
                "category": "餐飲",
                "area": "南投市",
                "market_address": "南投縣南投市軍功里中興路２３５號",
                "pay_list": "台灣pay\/信用卡\/一卡通MONEY(原LINE Pay Money)"
            },
            "geometry": {
                "type": "Point",
                "coordinates": [
                    120.694196,
                    23.921327
                ]
            }
        },
        {
            "type": "Feature",
            "properties": {
                "shop": "法蘭斯食品有限公司",
                "category": "餐飲",
                "area": "南投市",
                "market_address": "南投縣南投市平和里民族路１３７號１樓",
                "pay_list": "台灣pay"
            },
            "geometry": {
                "type": "Point",
                "coordinates": [
                    120.690535,
                    23.909867
                ]
            }
        },
        {
            "type": "Feature",
            "properties": {
                "shop": "河松商行",
                "category": "餐飲",
                "area": "南投市",
                "market_address": "南投縣南投市漳興里３鄰祖祠路１４２巷１７號１樓",
                "pay_list": "台灣pay\/信用卡\/一卡通MONEY(原LINE Pay Money)"
            },
            "geometry": {
                "type": "Point",
                "coordinates": [
                    120.680408,
                    23.915914
                ]
            }
        },
        {
            "type": "Feature",
            "properties": {
                "shop": "沁品製麵廠",
                "category": "餐飲",
                "area": "南投市",
                "market_address": "南投縣南投市南投里００９鄰民權街１４３巷６號",
                "pay_list": "台灣pay"
            },
            "geometry": {
                "type": "Point",
                "coordinates": [
                    120.685042,
                    23.908757
                ]
            }
        },
        {
            "type": "Feature",
            "properties": {
                "shop": "水果籃子果汁小舖",
                "category": "餐飲",
                "area": "南投市",
                "market_address": "南投縣南投市平和里００６鄰南陽路８９號",
                "pay_list": "台灣pay"
            },
            "geometry": {
                "type": "Point",
                "coordinates": [
                    120.689173,
                    23.909813
                ]
            }
        },
        {
            "type": "Feature",
            "properties": {
                "shop": "正宸商行",
                "category": "餐飲",
                "area": "南投市",
                "market_address": "南投縣南投市崇文里復興路１５５號一樓",
                "pay_list": "icash\/悠遊卡"
            },
            "geometry": {
                "type": "Point",
                "coordinates": [
                    120.687104,
                    23.906199
                ]
            }
        },
        {
            "type": "Feature",
            "properties": {
                "shop": "正宸商行",
                "category": "餐飲",
                "area": "南投市",
                "market_address": "南投縣南投市崇文里復興路１５５號一樓",
                "pay_list": "一卡通MONEY(原LINE Pay Money)"
            },
            "geometry": {
                "type": "Point",
                "coordinates": [
                    120.687104,
                    23.906199
                ]
            }
        },
        {
            "type": "Feature",
            "properties": {
                "shop": "歡樂冰菓店",
                "category": "餐飲",
                "area": "南投市",
                "market_address": "南投縣南投市龍泉里１鄰大同街１２４號１樓",
                "pay_list": "台灣pay\/一卡通MONEY(原LINE Pay Money)"
            },
            "geometry": {
                "type": "Point",
                "coordinates": [
                    120.687989,
                    23.908718
                ]
            }
        },
        {
            "type": "Feature",
            "properties": {
                "shop": "樂冰小屋雪花冰專賣店",
                "category": "餐飲",
                "area": "南投市",
                "market_address": "南投縣南投市營北里０１８鄰仁德路１０９號１樓",
                "pay_list": "台灣pay\/街口\/一卡通MONEY(原LINE Pay Money)"
            },
            "geometry": {
                "type": "Point",
                "coordinates": [
                    120.693104,
                    23.942625
                ]
            }
        },
        {
            "type": "Feature",
            "properties": {
                "shop": "梅園饀餅粥",
                "category": "餐飲",
                "area": "南投市",
                "market_address": "南投縣南投市營北里中學西路１８號",
                "pay_list": "icash pay\/台灣pay\/信用卡\/悠遊卡"
            },
            "geometry": {
                "type": "Point",
                "coordinates": [
                    120.69217,
                    23.947209
                ]
            }
        },
        {
            "type": "Feature",
            "properties": {
                "shop": "松濤園企業社",
                "category": "餐飲",
                "area": "南投市",
                "market_address": "南投縣南投市光輝里２７鄰省府路７８號",
                "pay_list": "台灣pay\/信用卡"
            },
            "geometry": {
                "type": "Point",
                "coordinates": [
                    120.68418,
                    23.95606
                ]
            }
        },
        {
            "type": "Feature",
            "properties": {
                "shop": "東星屋會館",
                "category": "餐飲",
                "area": "南投市",
                "market_address": "南投縣南投市福興里鳳山路７４１號",
                "pay_list": "台灣pay\/信用卡"
            },
            "geometry": {
                "type": "Point",
                "coordinates": [
                    120.651666,
                    23.942135
                ]
            }
        },
        {
            "type": "Feature",
            "properties": {
                "shop": "朝煊食記",
                "category": "餐飲",
                "area": "南投市",
                "market_address": "南投縣南投市南投里００５鄰復興路２７３號",
                "pay_list": "台灣pay\/信用卡\/一卡通MONEY(原LINE Pay Money)"
            },
            "geometry": {
                "type": "Point",
                "coordinates": [
                    120.6862,
                    23.909247
                ]
            }
        },
        {
            "type": "Feature",
            "properties": {
                "shop": "有幾園生物科技股份有限公司中興新村營業所",
                "category": "餐飲",
                "area": "南投市",
                "market_address": "南投縣南投市光輝里省府路１７１－６號前面",
                "pay_list": "台灣pay\/信用卡"
            },
            "geometry": {
                "type": "Point",
                "coordinates": [
                    120.680922,
                    23.954718
                ]
            }
        },
        {
            "type": "Feature",
            "properties": {
                "shop": "晨膳堂早午餐",
                "category": "餐飲",
                "area": "南投市",
                "market_address": "南投縣南投市三興里彰南路一段９１１號１樓",
                "pay_list": "一卡通MONEY(原LINE Pay Money)"
            },
            "geometry": {
                "type": "Point",
                "coordinates": [
                    120.685863,
                    23.902131
                ]
            }
        },
        {
            "type": "Feature",
            "properties": {
                "shop": "晨曦早餐店",
                "category": "餐飲",
                "area": "南投市",
                "market_address": "南投縣南投市平和里０２２鄰育樂路９５號１樓",
                "pay_list": "台灣pay"
            },
            "geometry": {
                "type": "Point",
                "coordinates": [
                    120.691546,
                    23.912174
                ]
            }
        },
        {
            "type": "Feature",
            "properties": {
                "shop": "晟翊餐飲有限公司",
                "category": "餐飲",
                "area": "南投市",
                "market_address": "南投縣南投市平和里民族路２００號一樓",
                "pay_list": "一卡通MONEY(原LINE Pay Money)"
            },
            "geometry": {
                "type": "Point",
                "coordinates": [
                    120.688772,
                    23.909694
                ]
            }
        },
        {
            "type": "Feature",
            "properties": {
                "shop": "星象企業行",
                "category": "餐飲",
                "area": "南投市",
                "market_address": "南投縣南投市營北里向上路２７１號一樓",
                "pay_list": "信用卡"
            },
            "geometry": {
                "type": "Point",
                "coordinates": [
                    120.682412,
                    23.952983
                ]
            }
        },
        {
            "type": "Feature",
            "properties": {
                "shop": "日日春食品商行",
                "category": "餐飲",
                "area": "南投市",
                "market_address": "南投縣南投市三和里０１３鄰中興路５６８號１樓",
                "pay_list": "台灣pay\/街口\/一卡通MONEY(原LINE Pay Money)\/悠遊付"
            },
            "geometry": {
                "type": "Point",
                "coordinates": [
                    120.690382,
                    23.905805
                ]
            }
        },
        {
            "type": "Feature",
            "properties": {
                "shop": "新鮮廚房有限公司",
                "category": "餐飲",
                "area": "南投市",
                "market_address": "南投縣南投市三興里３８鄰集賢路４０號",
                "pay_list": "台灣pay\/信用卡\/一卡通MONEY(原LINE Pay Money)"
            },
            "geometry": {
                "type": "Point",
                "coordinates": [
                    120.684186,
                    23.904935
                ]
            }
        },
        {
            "type": "Feature",
            "properties": {
                "shop": "新天地小吃部",
                "category": "餐飲",
                "area": "南投市",
                "market_address": "南投縣南投市三和里三和二路１３號１樓",
                "pay_list": "一卡通MONEY(原LINE Pay Money)"
            },
            "geometry": {
                "type": "Point",
                "coordinates": [
                    120.689683,
                    23.904347
                ]
            }
        },
        {
            "type": "Feature",
            "properties": {
                "shop": "文心園花園咖啡",
                "category": "餐飲",
                "area": "南投市",
                "market_address": "南投縣南投市平和里南陽路１９６巷１２號旁",
                "pay_list": "台灣pay\/信用卡\/悠遊卡"
            },
            "geometry": {
                "type": "Point",
                "coordinates": [
                    120.688469,
                    23.913278
                ]
            }
        },
        {
            "type": "Feature",
            "properties": {
                "shop": "拿坡里 南投店",
                "category": "餐飲",
                "area": "南投市",
                "market_address": "南投縣南投市振興里１７鄰中興路５０１號",
                "pay_list": "信用卡\/一卡通MONEY(原LINE Pay Money)\/悠遊卡\/街口\/台灣pay"
            },
            "geometry": {
                "type": "Point",
                "coordinates": [
                    120.691576,
                    23.907876
                ]
            }
        },
        {
            "type": "Feature",
            "properties": {
                "shop": "愛微醺Ｉ　ＷＩＳＨ",
                "category": "餐飲",
                "area": "南投市",
                "market_address": "南投縣南投市東山里９鄰東山路２－６號",
                "pay_list": "街口"
            },
            "geometry": {
                "type": "Point",
                "coordinates": [
                    120.728405,
                    23.932389
                ]
            }
        },
        {
            "type": "Feature",
            "properties": {
                "shop": "惹鍋南投店",
                "category": "餐飲",
                "area": "南投市",
                "market_address": "南投縣南投市集賢路１２３之１號",
                "pay_list": "悠遊卡"
            },
            "geometry": {
                "type": "Point",
                "coordinates": [
                    120.682785,
                    23.903732
                ]
            }
        },
        {
            "type": "Feature",
            "properties": {
                "shop": "忠霖早午餐坊",
                "category": "餐飲",
                "area": "南投市",
                "market_address": "南投縣南投市漳興里復興路５７６號１樓",
                "pay_list": "Pi 拍錢包\/台灣pay\/信用卡"
            },
            "geometry": {
                "type": "Point",
                "coordinates": [
                    120.6835,
                    23.916744
                ]
            }
        },
        {
            "type": "Feature",
            "properties": {
                "shop": "心園婚宴會館",
                "category": "餐飲",
                "area": "南投市",
                "market_address": "南投縣南投市振興里芳美路１８８號",
                "pay_list": "一卡通MONEY(原LINE Pay Money)"
            },
            "geometry": {
                "type": "Point",
                "coordinates": [
                    120.694134,
                    23.905957
                ]
            }
        },
        {
            "type": "Feature",
            "properties": {
                "shop": "廟口小吃",
                "category": "餐飲",
                "area": "南投市",
                "market_address": "南投縣南投市龍泉里大同街１３６號１樓",
                "pay_list": "台灣pay"
            },
            "geometry": {
                "type": "Point",
                "coordinates": [
                    120.687831,
                    23.908898
                ]
            }
        },
        {
            "type": "Feature",
            "properties": {
                "shop": "庭記小吃部",
                "category": "餐飲",
                "area": "南投市",
                "market_address": "南投縣南投市營北里０２１鄰中學西路１１７號１樓",
                "pay_list": "一卡通MONEY(原LINE Pay Money)"
            },
            "geometry": {
                "type": "Point",
                "coordinates": [
                    120.690592,
                    23.945573
                ]
            }
        },
        {
            "type": "Feature",
            "properties": {
                "shop": "帶人尋味工作室",
                "category": "餐飲",
                "area": "南投市",
                "market_address": "南投縣南投市光明里光明一路５１號",
                "pay_list": "台灣pay"
            },
            "geometry": {
                "type": "Point",
                "coordinates": [
                    120.70061,
                    23.942297
                ]
            }
        },
        {
            "type": "Feature",
            "properties": {
                "shop": "嵩晏美食館",
                "category": "餐飲",
                "area": "南投市",
                "market_address": "南投縣南投市三和里０１３鄰三和二路５０號",
                "pay_list": "台灣pay"
            },