{
    "type": "FeatureCollection",
    "features": [
        {
            "type": "Feature",
            "properties": {
                "shop": "太元商號",
                "category": "夜市\/市場攤販",
                "area": "三峽區",
                "market_address": "新北市三峽區龍恩里國學街８號",
                "pay_list": "街口"
            },
            "geometry": {
                "type": "Point",
                "coordinates": [
                    121.373621,
                    24.941638
                ]
            }
        },
        {
            "type": "Feature",
            "properties": {
                "shop": "經富行",
                "category": "夜市\/市場攤販",
                "area": "三峽區",
                "market_address": "新北市三峽區永舘里民生街１５４號Ｂ９攤位",
                "pay_list": "台灣pay\/街口"
            },
            "geometry": {
                "type": "Point",
                "coordinates": [
                    121.37183600646,
                    24.934916796099
                ]
            }
        },
        {
            "type": "Feature",
            "properties": {
                "shop": "三峽公有零售市場-私房媽咪",
                "category": "夜市\/市場攤販",
                "area": "三峽區",
                "market_address": "新北市三峽區民生街186號",
                "pay_list": "icash pay"
            },
            "geometry": {
                "type": "Point",
                "coordinates": [
                    121.370673,
                    24.934932
                ]
            }
        },
        {
            "type": "Feature",
            "properties": {
                "shop": "三峽公有零售市場-藏香藝閣",
                "category": "夜市\/市場攤販",
                "area": "三峽區",
                "market_address": "新北市三峽區民生街186號",
                "pay_list": "iPASS 一卡通"
            },
            "geometry": {
                "type": "Point",
                "coordinates": [
                    121.370673,
                    24.934932
                ]
            }
        },
        {
            "type": "Feature",
            "properties": {
                "shop": "三峽公有零售市場-詹太太手工食品",
                "category": "夜市\/市場攤販",
                "area": "三峽區",
                "market_address": "新北市三峽區民生街186號",
                "pay_list": "icash pay"
            },
            "geometry": {
                "type": "Point",
                "coordinates": [
                    121.370673,
                    24.934932
                ]
            }
        },
        {
            "type": "Feature",
            "properties": {
                "shop": "三峽公有零售市場-寶玉精品店",
                "category": "夜市\/市場攤販",
                "area": "三峽區",
                "market_address": "新北市三峽區民生街186號",
                "pay_list": "icash pay"
            },
            "geometry": {
                "type": "Point",
                "coordinates": [
                    121.370673,
                    24.934932
                ]
            }
        },
        {
            "type": "Feature",
            "properties": {
                "shop": "三峽公有零售市場-紅麗糖果店",
                "category": "夜市\/市場攤販",
                "area": "三峽區",
                "market_address": "新北市三峽區民生街186號",
                "pay_list": "icash pay"
            },
            "geometry": {
                "type": "Point",
                "coordinates": [
                    121.370673,
                    24.934932
                ]
            }
        },
        {
            "type": "Feature",
            "properties": {
                "shop": "三峽公有零售市場-自然生活",
                "category": "夜市\/市場攤販",
                "area": "三峽區",
                "market_address": "新北市三峽區民生街186號",
                "pay_list": "icash pay"
            },
            "geometry": {
                "type": "Point",
                "coordinates": [
                    121.370673,
                    24.934932
                ]
            }
        },
        {
            "type": "Feature",
            "properties": {
                "shop": "三峽公有零售市場-喜藝門",
                "category": "夜市\/市場攤販",
                "area": "三峽區",
                "market_address": "新北市三峽區民生街186號",
                "pay_list": "icash pay"
            },
            "geometry": {
                "type": "Point",
                "coordinates": [
                    121.370673,
                    24.934932
                ]
            }
        },
        {
            "type": "Feature",
            "properties": {
                "shop": "三峽公有零售市場-施您美麗",
                "category": "夜市\/市場攤販",
                "area": "三峽區",
                "market_address": "新北市三峽區民生街186號",
                "pay_list": "icash pay"
            },
            "geometry": {
                "type": "Point",
                "coordinates": [
                    121.370673,
                    24.934932
                ]
            }
        },
        {
            "type": "Feature",
            "properties": {
                "shop": "三峽公有零售市場-百貨商行",
                "category": "夜市\/市場攤販",
                "area": "三峽區",
                "market_address": "新北市三峽區民生街186號",
                "pay_list": "icash pay"
            },
            "geometry": {
                "type": "Point",
                "coordinates": [
                    121.370673,
                    24.934932
                ]
            }
        },
        {
            "type": "Feature",
            "properties": {
                "shop": "三峽公有零售市場-虹妤美容坊",
                "category": "夜市\/市場攤販",
                "area": "三峽區",
                "market_address": "新北市三峽區民生街186號",
                "pay_list": "icash pay"
            },
            "geometry": {
                "type": "Point",
                "coordinates": [
                    121.370673,
                    24.934932
                ]
            }
        },
        {
            "type": "Feature",
            "properties": {
                "shop": "三峽公有零售市場-叻叻甜典工作室",
                "category": "夜市\/市場攤販",
                "area": "三峽區",
                "market_address": "新北市三峽區民生街186號",
                "pay_list": "icash pay"
            },
            "geometry": {
                "type": "Point",
                "coordinates": [
                    121.370673,
                    24.934932
                ]
            }
        },
        {
            "type": "Feature",
            "properties": {
                "shop": "三峽公有零售市場-一四一漁行",
                "category": "夜市\/市場攤販",
                "area": "三峽區",
                "market_address": "新北市三峽區民生街186號",
                "pay_list": "橘子支付\/iPASS 一卡通"
            },
            "geometry": {
                "type": "Point",
                "coordinates": [
                    121.370673,
                    24.934932
                ]
            }
        },
        {
            "type": "Feature",
            "properties": {
                "shop": "三峽公有零售市場-金信海鮮批發",
                "category": "夜市\/市場攤販",
                "area": "三峽區",
                "market_address": "新北市三峽區民生街186號",
                "pay_list": "icash pay"
            },
            "geometry": {
                "type": "Point",
                "coordinates": [
                    121.370673,
                    24.934932
                ]
            }
        },
        {
            "type": "Feature",
            "properties": {
                "shop": "三峽公有零售市場-金信海鮮批發",
                "category": "夜市\/市場攤販",
                "area": "三峽區",
                "market_address": "新北市三峽區民生街186號",
                "pay_list": "icash pay"
            },
            "geometry": {
                "type": "Point",
                "coordinates": [
                    121.370673,
                    24.934932
                ]
            }
        },
        {
            "type": "Feature",
            "properties": {
                "shop": "鋒盈商行",
                "category": "夜市\/市場攤販",
                "area": "三峽區",
                "market_address": "新北市三峽區龍恩里１６鄰學成路２２９號",
                "pay_list": "街口\/信用卡\/台灣pay"
            },
            "geometry": {
                "type": "Point",
                "coordinates": [
                    121.374896,
                    24.942481
                ]
            }
        },
        {
            "type": "Feature",
            "properties": {
                "shop": "來來切仔麵",
                "category": "餐飲\/夜市\/市場攤販",
                "area": "三峽區",
                "market_address": "新北市三峽區白鷄１１５－１７號",
                "pay_list": "悠遊卡\/悠遊付"
            },
            "geometry": {
                "type": "Point",
                "coordinates": [
                    121.401065,
                    24.906527
                ]
            }
        },
        {
            "type": "Feature",
            "properties": {
                "shop": "福州師麥芽酥",
                "category": "糕餅",
                "area": "三峽區",
                "market_address": "新北市三峽區三峽里民權街１０７號（１樓）",
                "pay_list": "悠遊付"
            },
            "geometry": {
                "type": "Point",
                "coordinates": [
                    121.369175,
                    24.932558
                ]
            }
        },
        {
            "type": "Feature",
            "properties": {
                "shop": "佳德屋商行",
                "category": "糕餅",
                "area": "三峽區",
                "market_address": "新北市三峽區永舘里民生街１５２－８號",
                "pay_list": "台灣pay\/信用卡"
            },
            "geometry": {
                "type": "Point",
                "coordinates": [
                    121.37211892982,
                    24.934912505753
                ]
            }
        },
        {
            "type": "Feature",
            "properties": {
                "shop": "金三峽食品企業股份有限公司",
                "category": "糕餅",
                "area": "三峽區",
                "market_address": "新北市三峽區龍恩里三樹路２９號",
                "pay_list": "信用卡"
            },
            "geometry": {
                "type": "Point",
                "coordinates": [
                    121.377579,
                    24.938493
                ]
            }
        },
        {
            "type": "Feature",
            "properties": {
                "shop": "大新食品股份有限公司",
                "category": "糕餅",
                "area": "三峽區",
                "market_address": "新北市三峽區溪南里介壽路二段６５號",
                "pay_list": "台灣pay\/信用卡"
            },
            "geometry": {
                "type": "Point",
                "coordinates": [
                    121.392061,
                    24.935286
                ]
            }
        },
        {
            "type": "Feature",
            "properties": {
                "shop": "一一九小舖",
                "category": "糕餅",
                "area": "三峽區",
                "market_address": "新北市三峽區三峽里民權街１１９號",
                "pay_list": "悠遊卡"
            },
            "geometry": {
                "type": "Point",
                "coordinates": [
                    121.369011,
                    24.932293
                ]
            }
        },
        {
            "type": "Feature",
            "properties": {
                "shop": "連豐生技股份有限公司",
                "category": "糕餅",
                "area": "三峽區",
                "market_address": "新北市三峽區安溪里中正路１段４７４―１號",
                "pay_list": "信用卡"
            },
            "geometry": {
                "type": "Point",
                "coordinates": [
                    121.37031129965,
                    24.921268981383
                ]
            }
        },
        {
            "type": "Feature",
            "properties": {
                "shop": "耘禾商行",
                "category": "餐飲",
                "area": "三峽區",
                "market_address": "新北市三峽區三樹路６７號",
                "pay_list": "街口"
            },
            "geometry": {
                "type": "Point",
                "coordinates": [
                    121.377813,
                    24.939511
                ]
            }
        },
        {
            "type": "Feature",
            "properties": {
                "shop": "順利滷舖",
                "category": "餐飲",
                "area": "三峽區",
                "market_address": "新北市三峽區大觀路６號",
                "pay_list": "台灣pay\/街口"
            },
            "geometry": {
                "type": "Point",
                "coordinates": [
                    121.375956,
                    24.94376
                ]
            }
        },
        {
            "type": "Feature",
            "properties": {
                "shop": "八識客咖啡",
                "category": "餐飲",
                "area": "三峽區",
                "market_address": "新北市三峽區中埔里弘園街３３號",
                "pay_list": "歐付寶"
            },
            "geometry": {
                "type": "Point",
                "coordinates": [
                    121.367195,
                    24.927433
                ]
            }
        },
        {
            "type": "Feature",
            "properties": {
                "shop": "兩儀商行",
                "category": "餐飲",
                "area": "三峽區",
                "market_address": "新北市三峽區中正里永安街１２８號（１樓）",
                "pay_list": "LINE Pay Money\/台灣pay\/信用卡\/iPASS 一卡通"
            },
            "geometry": {
                "type": "Point",
                "coordinates": [
                    121.374442,
                    24.929024
                ]
            }
        },
        {
            "type": "Feature",
            "properties": {
                "shop": "康熙商號",
                "category": "餐飲",
                "area": "三峽區",
                "market_address": "新北市三峽區永舘里文化路７號",
                "pay_list": "街口"
            },
            "geometry": {
                "type": "Point",
                "coordinates": [
                    121.37323264952,
                    24.935525787639
                ]
            }
        },
        {
            "type": "Feature",
            "properties": {
                "shop": "湧澤商行",
                "category": "餐飲",
                "area": "三峽區",
                "market_address": "新北市三峽區永舘里文化路５號（１樓）",
                "pay_list": "街口\/信用卡\/台灣pay"
            },
            "geometry": {
                "type": "Point",
                "coordinates": [
                    121.37325037434,
                    24.935499822898
                ]
            }
        },
        {
            "type": "Feature",
            "properties": {
                "shop": "宥式商行",
                "category": "餐飲",
                "area": "三峽區",
                "market_address": "新北市三峽區龍學里學成路３３９號",
                "pay_list": "街口"
            },
            "geometry": {
                "type": "Point",
                "coordinates": [
                    121.376568,
                    24.944827
                ]
            }
        },
        {
            "type": "Feature",
            "properties": {
                "shop": "荷包旺早餐店",
                "category": "餐飲",
                "area": "三峽區",
                "market_address": "新北市三峽區鳶山里００３鄰中山路２３４號",
                "pay_list": "悠遊付\/悠遊卡\/Pi 拍錢包"
            },
            "geometry": {
                "type": "Point",
                "coordinates": [
                    121.362632,
                    24.937396
                ]
            }
        },
        {
            "type": "Feature",
            "properties": {
                "shop": "金色古典俬廚坊",
                "category": "餐飲",
                "area": "三峽區",
                "market_address": "新北市三峽區龍學里學勤路１７２之２號",
                "pay_list": "街口"
            },
            "geometry": {
                "type": "Point",
                "coordinates": [
                    121.376564,
                    24.945526
                ]
            }
        },
        {
            "type": "Feature",
            "properties": {
                "shop": "樸食本味食坊",
                "category": "餐飲",
                "area": "三峽區",
                "market_address": "新北市三峽區鳶山里大勇路１３號（１樓）",
                "pay_list": "台灣pay\/信用卡"
            },
            "geometry": {
                "type": "Point",
                "coordinates": [
                    121.36723,
                    24.936868
                ]
            }
        },
        {
            "type": "Feature",
            "properties": {
                "shop": "滿滿早餐店",
                "category": "餐飲",
                "area": "三峽區",
                "market_address": "新北市三峽區龍學里大觀路８４號（１樓）",
                "pay_list": "悠遊付\/信用卡\/悠遊卡\/台灣pay\/街口"
            },
            "geometry": {
                "type": "Point",
                "coordinates": [
                    121.374103,
                    24.946376
                ]
            }
        },
        {
            "type": "Feature",
            "properties": {
                "shop": "松柏旺旺小吃早餐坊",
                "category": "餐飲",
                "area": "三峽區",
                "market_address": "新北市三峽區八張里民權街２３９號",
                "pay_list": "LINE Pay Money\/iPASS 一卡通"
            },
            "geometry": {
                "type": "Point",
                "coordinates": [
                    121.368118,
                    24.927591
                ]
            }
        },
        {
            "type": "Feature",
            "properties": {
                "shop": "啡植人工作室",
                "category": "餐飲",
                "area": "三峽區",
                "market_address": "新北市三峽區龍學里大義路１９５號",
                "pay_list": "街口"
            },
            "geometry": {
                "type": "Point",
                "coordinates": [
                    121.377723,
                    24.945163
                ]
            }
        },
        {
            "type": "Feature",
            "properties": {
                "shop": "俊可商行",
                "category": "餐飲",
                "area": "三峽區",
                "market_address": "新北市三峽區龍恩里國學街８２號",
                "pay_list": "LINE Pay Money\/iPASS 一卡通\/信用卡\/悠遊卡\/台灣pay\/街口"
            },
            "geometry": {
                "type": "Point",
                "coordinates": [
                    121.372684,
                    24.942851
                ]
            }
        },
        {
            "type": "Feature",
            "properties": {
                "shop": "炒飯了沒小吃店",
                "category": "餐飲",
                "area": "三峽區",
                "market_address": "新北市三峽區溪東里溪東路１５７號",
                "pay_list": "台灣pay"
            },
            "geometry": {
                "type": "Point",
                "coordinates": [
                    121.403204,
                    24.93409
                ]
            }
        },
        {
            "type": "Feature",
            "properties": {
                "shop": "黎泰院小館",
                "category": "餐飲",
                "area": "三峽區",
                "market_address": "新北市三峽區龍恩里國際一街２７號（１樓）",
                "pay_list": "悠遊付"
            },
            "geometry": {
                "type": "Point",
                "coordinates": [
                    121.37367,
                    24.942287
                ]
            }
        },
        {
            "type": "Feature",
            "properties": {
                "shop": "北大滷坊",
                "category": "餐飲",
                "area": "三峽區",
                "market_address": "新北市三峽區龍恩里大學路１３３號",
                "pay_list": "街口"
            },
            "geometry": {
                "type": "Point",
                "coordinates": [
                    121.374453,
                    24.943594
                ]
            }
        },
        {
            "type": "Feature",
            "properties": {
                "shop": "香港德發燒臘店",
                "category": "餐飲",
                "area": "三峽區",
                "market_address": "新北市三峽區永舘里民生街１０３號（１樓）",
                "pay_list": "台灣pay\/信用卡"
            },
            "geometry": {
                "type": "Point",
                "coordinates": [
                    121.37420495662,
                    24.935529669472
                ]
            }
        },
        {
            "type": "Feature",
            "properties": {
                "shop": "松柏園早餐坊",
                "category": "餐飲",
                "area": "三峽區",
                "market_address": "新北市三峽區鳶山里復興路３６７巷１弄１４號",
                "pay_list": "台灣pay"
            },
            "geometry": {
                "type": "Point",
                "coordinates": [
                    121.364144,
                    24.937643
                ]
            }
        },
        {
            "type": "Feature",
            "properties": {
                "shop": "益家商行",
                "category": "餐飲",
                "area": "三峽區",
                "market_address": "新北市三峽區介壽里光明路５５號",
                "pay_list": "台灣pay"
            },
            "geometry": {
                "type": "Point",
                "coordinates": [
                    121.375359,
                    24.929048
                ]
            }
        },
        {
            "type": "Feature",
            "properties": {
                "shop": "展侑企業社",
                "category": "餐飲",
                "area": "三峽區",
                "market_address": "新北市三峽區永舘里和平街１０３號（１樓）",
                "pay_list": "街口"
            },
            "geometry": {
                "type": "Point",
                "coordinates": [
                    121.3702818833,
                    24.938137922189
                ]
            }
        },
        {
            "type": "Feature",
            "properties": {
                "shop": "羊大帥飲食店",
                "category": "餐飲",
                "area": "三峽區",
                "market_address": "新北市三峽區龍埔里復興路１７４巷８―６號",
                "pay_list": "台灣pay\/信用卡"
            },
            "geometry": {
                "type": "Point",
                "coordinates": [
                    121.37071250724,
                    24.938745207929
                ]
            }
        },
        {
            "type": "Feature",
            "properties": {
                "shop": "鑫盈茶坊",
                "category": "餐飲",
                "area": "三峽區",
                "market_address": "新北市三峽區龍恩里國際一街３０號",
                "pay_list": "信用卡\/悠遊卡\/街口"
            },
            "geometry": {
                "type": "Point",
                "coordinates": [
                    121.373588,
                    24.942779
                ]
            }
        },
        {
            "type": "Feature",
            "properties": {
                "shop": "老私房牛肉麵",
                "category": "餐飲",
                "area": "三峽區",
                "market_address": "新北市三峽區龍恩里國際一街６６之１號（１樓）",
                "pay_list": "台灣pay"
            },
            "geometry": {
                "type": "Point",
                "coordinates": [
                    121.372488,
                    24.942174
                ]
            }
        },
        {
            "type": "Feature",
            "properties": {
                "shop": "鮮味天地食堂",
                "category": "餐飲",
                "area": "三峽區",
                "market_address": "新北市三峽區龍恩里國際二街３３號",
                "pay_list": "台灣pay"
            },
            "geometry": {
                "type": "Point",
                "coordinates": [
                    121.372535,
                    24.943123
                ]
            }
        },
        {
            "type": "Feature",
            "properties": {
                "shop": "猛瘦餐飲企業社",
                "category": "餐飲",
                "area": "三峽區",
                "market_address": "新北市三峽區大埔里中正路二段５８４巷３弄２號",
                "pay_list": "台灣pay"
            },
            "geometry": {
                "type": "Point",
                "coordinates": [
                    121.358959,
                    24.906554
                ]
            }
        },
        {
            "type": "Feature",
            "properties": {
                "shop": "良亨小吃店",
                "category": "餐飲",
                "area": "三峽區",
                "market_address": "新北市三峽區礁溪里愛國路１之１號",
                "pay_list": "台灣pay"
            },
            "geometry": {
                "type": "Point",
                "coordinates": [
                    121.3749,
                    24.93417
                ]
            }
        },
        {
            "type": "Feature",
            "properties": {
                "shop": "巛湧小吃店",
                "category": "餐飲",
                "area": "三峽區",
                "market_address": "新北市三峽區安溪里中華路４６之２號",
                "pay_list": "悠遊付\/信用卡\/悠遊卡\/台灣pay\/街口"
            },
            "geometry": {
                "type": "Point",
                "coordinates": [
                    121.371979,
                    24.93046
                ]
            }
        },
        {
            "type": "Feature",
            "properties": {
                "shop": "拾味商行",
                "category": "餐飲",
                "area": "三峽區",
                "market_address": "新北市三峽區龍恩里國際一街２７之１號",
                "pay_list": "台灣pay"
            },
            "geometry": {
                "type": "Point",
                "coordinates": [
                    121.373639,
                    24.942267
                ]
            }
        },
        {
            "type": "Feature",
            "properties": {
                "shop": "咕茶企業社",
                "category": "餐飲",
                "area": "三峽區",
                "market_address": "新北市三峽區中正里光明路１００之１號（１樓）",
                "pay_list": "悠遊付\/街口"
            },
            "geometry": {
                "type": "Point",
                "coordinates": [
                    121.375863,
                    24.928165
                ]
            }
        },
        {
            "type": "Feature",
            "properties": {
                "shop": "香品冷飲茶舖",
                "category": "餐飲",
                "area": "三峽區",
                "market_address": "新北市三峽區永舘里文化路２２號１樓",
                "pay_list": "台灣pay\/信用卡"
            },
            "geometry": {
                "type": "Point",
                "coordinates": [
                    121.37326240097,
                    24.935942316682
                ]
            }
        },
        {
            "type": "Feature",
            "properties": {
                "shop": "晴天餐飲",
                "category": "餐飲",
                "area": "三峽區",
                "market_address": "新北市三峽區龍恩里１６鄰學成路２３１號",
                "pay_list": "台灣pay\/信用卡"
            },
            "geometry": {
                "type": "Point",
                "coordinates": [
                    121.374947,
                    24.942526
                ]
            }
        },
        {
            "type": "Feature",
            "properties": {
                "shop": "好棒棒企業社",
                "category": "餐飲",
                "area": "三峽區",
                "market_address": "新北市三峽區龍學里大觀路２５號",
                "pay_list": "街口"
            },
            "geometry": {
                "type": "Point",
                "coordinates": [
                    121.37532,
                    24.944264
                ]
            }
        },
        {
            "type": "Feature",
            "properties": {
                "shop": "宜條商行",
                "category": "餐飲",
                "area": "三峽區",
                "market_address": "新北市三峽區龍恩里１６鄰學成路２２７號",
                "pay_list": "信用卡"
            },
            "geometry": {
                "type": "Point",
                "coordinates": [
                    121.374823,
                    24.942426
                ]
            }
        },
        {
            "type": "Feature",
            "properties": {
                "shop": "玄宇商行",
                "category": "餐飲",
                "area": "三峽區",
                "market_address": "新北市三峽區龍恩里大學路１５１號",
                "pay_list": "信用卡\/悠遊卡\/台灣pay"
            },
            "geometry": {
                "type": "Point",
                "coordinates": [
                    121.373159,
                    24.945134
                ]
            }
        },
        {
            "type": "Feature",
            "properties": {
                "shop": "鯨旋咖啡",
                "category": "餐飲",
                "area": "三峽區",
                "market_address": "新北市三峽區龍學里大義路２２７號",
                "pay_list": "台灣pay"
            },
            "geometry": {
                "type": "Point",
                "coordinates": [
                    121.377574,
                    24.945578
                ]
            }
        },
        {
            "type": "Feature",
            "properties": {
                "shop": "賺元堡小吃店",
                "category": "餐飲",
                "area": "三峽區",
                "market_address": "新北市三峽區鳶山里文化路２６６之１３號（１樓）",
                "pay_list": "悠遊付\/信用卡\/悠遊卡\/台灣pay\/街口"
            },
            "geometry": {
                "type": "Point",
                "coordinates": [
                    121.366108,
                    24.935783
                ]
            }
        },
        {
            "type": "Feature",
            "properties": {
                "shop": "甜蜜蜜屋",
                "category": "餐飲",
                "area": "三峽區",
                "market_address": "新北市三峽區龍學里大觀路３５號",
                "pay_list": "街口"
            },
            "geometry": {
                "type": "Point",
                "coordinates": [
                    121.375119,
                    24.944541
                ]
            }
        },
        {
            "type": "Feature",
            "properties": {
                "shop": "泓盛商行",
                "category": "餐飲",
                "area": "三峽區",
                "market_address": "新北市三峽區龍恩里大學路１４３號（１樓）",
                "pay_list": "悠遊付\/街口\/悠遊卡"
            },
            "geometry": {
                "type": "Point",
                "coordinates": [
                    121.374245,
                    24.943905
                ]
            }
        },
        {
            "type": "Feature",
            "properties": {
                "shop": "大同飽小吃店",
                "category": "餐飲",
                "area": "三峽區",
                "market_address": "新北市三峽區介壽里大同路１之４號１樓",
                "pay_list": "悠遊付\/信用卡\/悠遊卡\/台灣pay\/街口"
            },
            "geometry": {
                "type": "Point",
                "coordinates": [
                    121.378178,
                    24.929621
                ]
            }
        },
        {
            "type": "Feature",
            "properties": {
                "shop": "國光小吃店",
                "category": "餐飲",
                "area": "三峽區",
                "market_address": "新北市三峽區龍埔里國光街４５號",
                "pay_list": "LINE Pay Money\/iPASS 一卡通\/信用卡\/悠遊卡\/台灣pay"
            },
            "geometry": {
                "type": "Point",
                "coordinates": [
                    121.374669,
                    24.937757
                ]
            }
        },
        {
            "type": "Feature",
            "properties": {
                "shop": "升豪冷飲站",
                "category": "餐飲",
                "area": "三峽區",
                "market_address": "新北市三峽區龍恩里國際一街３６號",
                "pay_list": "橘子支付\/Pi 拍錢包\/悠遊付\/信用卡\/悠遊卡\/台灣pay\/街口"
            },
            "geometry": {
                "type": "Point",
                "coordinates": [
                    121.373436,
                    24.942685
                ]
            }
        },
        {
            "type": "Feature",
            "properties": {
                "shop": "明和苑小吃店",
                "category": "餐飲",
                "area": "三峽區",
                "market_address": "新北市三峽區龍埔里三樹路３３２之２號",
                "pay_list": "台灣pay\/信用卡"
            },
            "geometry": {
                "type": "Point",
                "coordinates": [
                    121.382081,
                    24.943902
                ]
            }
        },
        {
            "type": "Feature",
            "properties": {
                "shop": "翃賓宴餐飲店",
                "category": "餐飲",
                "area": "三峽區",
                "market_address": "新北市三峽區礁溪里介壽路一段３號",
                "pay_list": "台灣pay"
            },
            "geometry": {
                "type": "Point",
                "coordinates": [
                    121.375331,
                    24.934097
                ]
            }
        },
        {
            "type": "Feature",
            "properties": {
                "shop": "盈安商行",
                "category": "餐飲",
                "area": "三峽區",
                "market_address": "新北市三峽區龍恩里大學路１４５號（１樓）",
                "pay_list": "LINE Pay Money\/iPASS 一卡通\/icash pay\/信用卡\/悠遊卡\/台灣pay\/街口"
            },
            "geometry": {
                "type": "Point",
                "coordinates": [
                    121.374224,
                    24.943933
                ]
            }
        },
        {
            "type": "Feature",
            "properties": {
                "shop": "仙侶奇緣小吃店",
                "category": "餐飲",
                "area": "三峽區",
                "market_address": "新北市三峽區鳶山里大勇路３５之１號（１樓）",
                "pay_list": "台灣pay\/信用卡"
            },
            "geometry": {
                "type": "Point",
                "coordinates": [
                    121.367305,
                    24.93605
                ]
            }
        },
        {
            "type": "Feature",
            "properties": {
                "shop": "西貢廚房商行",
                "category": "餐飲",
                "area": "三峽區",
                "market_address": "新北市三峽區龍學里大學路１９２號",
                "pay_list": "街口"
            },
            "geometry": {
                "type": "Point",
                "coordinates": [
                    121.37266,
                    24.946629
                ]
            }
        },
        {
            "type": "Feature",
            "properties": {
                "shop": "梅之香坊",
                "category": "餐飲",
                "area": "三峽區",
                "market_address": "新北市三峽區龍埔里國光街３０號（１樓）",
                "pay_list": "台灣pay\/信用卡"
            },
            "geometry": {
                "type": "Point",
                "coordinates": [
                    121.37508,
                    24.93757
                ]
            }
        },
        {
            "type": "Feature",
            "properties": {
                "shop": "名緹企業社",
                "category": "餐飲",
                "area": "三峽區",
                "market_address": "新北市三峽區龍恩里國際一街２５號（１樓）",
                "pay_list": "街口"
            },
            "geometry": {
                "type": "Point",
                "coordinates": [
                    121.373734,
                    24.942328
                ]
            }
        },
        {
            "type": "Feature",
            "properties": {
                "shop": "徐輝企業社",
                "category": "餐飲",
                "area": "三峽區",
                "market_address": "新北市三峽區永舘里文化路１２０巷４號２樓",
                "pay_list": "悠遊卡"
            },
            "geometry": {
                "type": "Point",
                "coordinates": [
                    121.37111057391,
                    24.936451886718
                ]
            }
        },
        {
            "type": "Feature",
            "properties": {
                "shop": "餃大人餃子館",
                "category": "餐飲",
                "area": "三峽區",
                "market_address": "新北市三峽區龍學里大觀路９８號",
                "pay_list": "台灣pay"
            },
            "geometry": {
                "type": "Point",
                "coordinates": [
                    121.373741,
                    24.946905
                ]
            }
        },
        {
            "type": "Feature",
            "properties": {
                "shop": "喬提廚房",
                "category": "餐飲",
                "area": "三峽區",
                "market_address": "新北市三峽區龍學里大觀路１２之２號",
                "pay_list": "街口"
            },
            "geometry": {
                "type": "Point",
                "coordinates": [
                    121.375722,
                    24.944073
                ]
            }
        },
        {
            "type": "Feature",
            "properties": {
                "shop": "延香小吃店",
                "category": "餐飲",
                "area": "三峽區",
                "market_address": "新北市三峽區礁溪里中華路３６、３６－１號",
                "pay_list": "悠遊卡"
            },
            "geometry": {
                "type": "Point",
                "coordinates": [
                    121.373741,
                    24.932359
                ]
            }
        },
        {
            "type": "Feature",
            "properties": {
                "shop": "龍鳳廣式燒臘",
                "category": "餐飲",
                "area": "三峽區",
                "market_address": "新北市三峽區龍恩里學成路２２６號（１樓）",
                "pay_list": "台灣pay\/街口"
            },
            "geometry": {
                "type": "Point",
                "coordinates": [
                    121.374453,
                    24.941351
                ]
            }
        },
        {
            "type": "Feature",
            "properties": {
                "shop": "九天咖啡屋",
                "category": "餐飲",
                "area": "三峽區",
                "market_address": "新北市三峽區鳶山里中山路４５９巷２０１號",
                "pay_list": "台灣pay"
            },
            "geometry": {
                "type": "Point",
                "coordinates": [
                    121.364923,
                    24.936558
                ]
            }
        },
        {
            "type": "Feature",
            "properties": {
                "shop": "玄裕商行",
                "category": "餐飲",
                "area": "三峽區",
                "market_address": "新北市三峽區龍恩里１６鄰國際一街１號１樓",
                "pay_list": "LINE Pay Money\/iPASS 一卡通\/信用卡\/悠遊卡\/台灣pay"
            },
            "geometry": {
                "type": "Point",
                "coordinates": [
                    121.374719,
                    24.943192
                ]
            }
        },
        {
            "type": "Feature",
            "properties": {
                "shop": "思慕冰品企業社",
                "category": "餐飲",
                "area": "三峽區",
                "market_address": "新北市三峽區龍學里學勤路１１３號",
                "pay_list": "台灣pay"
            },
            "geometry": {
                "type": "Point",
                "coordinates": [
                    121.375114,
                    24.946726
                ]
            }
        },
        {
            "type": "Feature",
            "properties": {
                "shop": "大一小吃店",
                "category": "餐飲",
                "area": "三峽區",
                "market_address": "新北市三峽區龍學里大義路２５７號",
                "pay_list": "台灣pay\/街口"
            },
            "geometry": {
                "type": "Point",
                "coordinates": [
                    121.377431,
                    24.946318
                ]
            }
        },
        {
            "type": "Feature",
            "properties": {
                "shop": "巧禾食堂",
                "category": "餐飲",
                "area": "三峽區",
                "market_address": "新北市三峽區龍學里學成路２８７號",
                "pay_list": "台灣pay"
            },
            "geometry": {
                "type": "Point",
                "coordinates": [
                    121.376171,
                    24.943534
                ]
            }
        },
        {
            "type": "Feature",
            "properties": {
                "shop": "就這味小館",
                "category": "餐飲",
                "area": "三峽區",
                "market_address": "新北市三峽區龍學里大觀路２８號",
                "pay_list": "街口"
            },
            "geometry": {
                "type": "Point",
                "coordinates": [
                    121.374976,
                    24.945108
                ]
            }
        },
        {
            "type": "Feature",
            "properties": {
                "shop": "誼璇商行",
                "category": "餐飲",
                "area": "三峽區",
                "market_address": "新北市三峽區中正里大同路９８之３號",
                "pay_list": "街口"
            },
            "geometry": {
                "type": "Point",
                "coordinates": [
                    121.375407,
                    24.927586
                ]
            }
        },
        {
            "type": "Feature",
            "properties": {
                "shop": "進芬企業社",
                "category": "餐飲",
                "area": "三峽區",
                "market_address": "新北市三峽區永舘里文化路１３４號",
                "pay_list": "台灣pay\/悠遊卡"
            },
            "geometry": {
                "type": "Point",
                "coordinates": [
                    121.37076824768,
                    24.936247948948
                ]
            }
        },
        {
            "type": "Feature",
            "properties": {
                "shop": "書福咖啡館",
                "category": "餐飲",
                "area": "三峽區",
                "market_address": "新北市三峽區秀川里清水街３３２號（１樓）",
                "pay_list": "街口"
            },
            "geometry": {
                "type": "Point",
                "coordinates": [
                    121.371351,
                    24.933902
                ]
            }
        },
        {
            "type": "Feature",
            "properties": {
                "shop": "藍鵲早餐",
                "category": "餐飲",
                "area": "三峽區",
                "market_address": "新北市三峽區龍恩里國學街７號",
                "pay_list": "台灣pay\/街口"
            },
            "geometry": {
                "type": "Point",
                "coordinates": [
                    121.373182,
                    24.941797
                ]
            }
        },
        {
            "type": "Feature",
            "properties": {
                "shop": "胖老爺美式炸雞",
                "category": "餐飲",
                "area": "三峽區",
                "market_address": "新北市三峽區中正里光明路１００之３號（１樓）",
                "pay_list": "街口"
            },
            "geometry": {
                "type": "Point",
                "coordinates": [
                    121.375912,
                    24.928099
                ]
            }
        },
        {
            "type": "Feature",
            "properties": {
                "shop": "華老爹小吃店",
                "category": "餐飲",
                "area": "三峽區",
                "market_address": "新北市三峽區中正里大同路６９號（１樓）",
                "pay_list": "台灣pay\/信用卡"
            },
            "geometry": {
                "type": "Point",
                "coordinates": [
                    121.375293,
                    24.927303
                ]
            }
        },
        {
            "type": "Feature",
            "properties": {
                "shop": "瀧欣商行",
                "category": "餐飲",
                "area": "三峽區",
                "market_address": "新北市三峽區龍學里大觀路３０７號",
                "pay_list": "街口"
            },
            "geometry": {
                "type": "Point",
                "coordinates": [
                    121.37345,
                    24.94656
                ]
            }
        },
        {
            "type": "Feature",
            "properties": {
                "shop": "京饌麵食館",
                "category": "餐飲",
                "area": "三峽區",
                "market_address": "新北市三峽區鳶山里文化路２２８號（１樓）",
                "pay_list": "台灣pay"
            },
            "geometry": {
                "type": "Point",
                "coordinates": [
                    121.367909,
                    24.935955
                ]
            }
        },
        {
            "type": "Feature",
            "properties": {
                "shop": "東烤西烤無煙燒烤",
                "category": "餐飲",
                "area": "三峽區",
                "market_address": "新北市三峽區礁溪里介壽路１段２７號２樓",
                "pay_list": "台灣pay\/信用卡"
            },
            "geometry": {
                "type": "Point",
                "coordinates": [
                    121.375674,
                    24.933215
                ]
            }
        },
        {
            "type": "Feature",
            "properties": {
                "shop": "藝廚早午餐",
                "category": "餐飲",
                "area": "三峽區",
                "market_address": "新北市三峽區龍學里大義路２４１號",
                "pay_list": "台灣pay"
            },
            "geometry": {
                "type": "Point",
                "coordinates": [
                    121.377238,
                    24.945633
                ]
            }
        },
        {
            "type": "Feature",
            "properties": {
                "shop": "鑫林小吃館",
                "category": "餐飲",
                "area": "三峽區",
                "market_address": "新北市三峽區龍學里大德路４７７號",
                "pay_list": "街口"
            },
            "geometry": {
                "type": "Point",
                "coordinates": [
                    121.374345,
                    24.947194
                ]
            }
        },
        {
            "type": "Feature",
            "properties": {
                "shop": "東雅鐵板燒",
                "category": "餐飲",
                "area": "三峽區",
                "market_address": "新北市三峽區龍學里三樹路２４９號",
                "pay_list": "台灣pay\/信用卡"
            },
            "geometry": {
                "type": "Point",
                "coordinates": [
                    121.378831,
                    24.942834
                ]
            }
        },
        {
            "type": "Feature",
            "properties": {
                "shop": "一江水工作室",
                "category": "餐飲",
                "area": "三峽區",
                "market_address": "新北市三峽區龍恩里國學街２０號",
                "pay_list": "台灣pay"
            },
            "geometry": {
                "type": "Point",
                "coordinates": [
                    121.373295,
                    24.942052
                ]
            }
        },
        {
            "type": "Feature",
            "properties": {
                "shop": "睿紀小吃店",
                "category": "餐飲",
                "area": "三峽區",
                "market_address": "新北市三峽區介壽里中正路一段６７號（１樓）",
                "pay_list": "台灣pay\/信用卡"
            },
            "geometry": {
                "type": "Point",
                "coordinates": [
                    121.375289,
                    24.930128
                ]
            }
        },
        {
            "type": "Feature",
            "properties": {
                "shop": "啡嚐丹醇咖啡工坊",
                "category": "餐飲",
                "area": "三峽區",
                "market_address": "新北市三峽區安溪里中華路９３巷１號１樓",
                "pay_list": "台灣pay"
            },
            "geometry": {
                "type": "Point",
                "coordinates": [
                    121.371878,
                    24.929454
                ]
            }
        },
        {
            "type": "Feature",
            "properties": {
                "shop": "慢思商行",
                "category": "餐飲",
                "area": "三峽區",
                "market_address": "新北市三峽區龍恩里國際二街２５號",
                "pay_list": "信用卡"
            },
            "geometry": {
                "type": "Point",
                "coordinates": [
                    121.37287,
                    24.943393
                ]
            }
        },
        {
            "type": "Feature",
            "properties": {
                "shop": "吉城企業社",
                "category": "餐飲",
                "area": "三峽區",
                "market_address": "新北市三峽區永舘里復興路１７９號",
                "pay_list": "信用卡"
            },
            "geometry": {
                "type": "Point",
                "coordinates": [
                    121.36969693361,
                    24.938429454811
                ]
            }
        },
        {
            "type": "Feature",
            "properties": {
                "shop": "金發財水果茶飲專賣店",
                "category": "餐飲",
                "area": "三峽區",
                "market_address": "新北市三峽區永舘里和平街１０１號（１樓）",
                "pay_list": "信用卡\/悠遊卡\/台灣pay\/街口"
            },
            "geometry": {
                "type": "Point",
                "coordinates": [
                    121.370268679,
                    24.938099729023
                ]
            }
        },
        {
            "type": "Feature",
            "properties": {
                "shop": "傳橙企業社",
                "category": "餐飲",
                "area": "三峽區",
                "market_address": "新北市三峽區永館里和平街１０７號（１樓）",
                "pay_list": "LINE Pay Money\/iPASS 一卡通\/icash pay\/信用卡\/悠遊卡"
            },
            "geometry": {
                "type": "Point",
                "coordinates": [
                    121.370318,
                    24.9383
                ]
            }
        },
        {
            "type": "Feature",
            "properties": {
                "shop": "中園麵食館",
                "category": "餐飲",
                "area": "三峽區",
                "market_address": "新北市三峽區八張里中園街２２號",
                "pay_list": "台灣pay"
            },
            "geometry": {
                "type": "Point",
                "coordinates": [
                    121.368056,
                    24.926932
                ]
            }
        },
        {
            "type": "Feature",
            "properties": {
                "shop": "王子哥平價牛排館",
                "category": "餐飲",
                "area": "三峽區",
                "market_address": "新北市三峽區永館里和平街９５號１樓",
                "pay_list": "台灣pay"
            },
            "geometry": {
                "type": "Point",
                "coordinates": [
                    121.370175,
                    24.937864
                ]
            }
        },
        {
            "type": "Feature",
            "properties": {
                "shop": "鼎鍋小吃店",
                "category": "餐飲",
                "area": "三峽區",
                "market_address": "新北市三峽區鳶山里文化路２２６號",
                "pay_list": "台灣pay"
            },
            "geometry": {
                "type": "Point",
                "coordinates": [
                    121.367951,
                    24.935956
                ]
            }
        },
        {
            "type": "Feature",
            "properties": {
                "shop": "全心緣小吃店",
                "category": "餐飲",
                "area": "三峽區",
                "market_address": "新北市三峽區永舘里和平街６６號",
                "pay_list": "信用卡\/悠遊卡\/台灣pay\/街口"
            },
            "geometry": {
                "type": "Point",
                "coordinates": [
                    121.37048096557,
                    24.938007735386
                ]
            }
        },
        {
            "type": "Feature",
            "properties": {
                "shop": "衆飛小吃店",
                "category": "餐飲",
                "area": "三峽區",
                "market_address": "新北市三峽區國際一街６號（１樓）",
                "pay_list": "街口\/悠遊卡\/台灣pay"
            },
            "geometry": {
                "type": "Point",
                "coordinates": [
                    121.37446,
                    24.943273
                ]
            }
        },
        {
            "type": "Feature",
            "properties": {
                "shop": "北大冷飲站",
                "category": "餐飲",
                "area": "三峽區",
                "market_address": "新北市三峽區龍學里大義路１１號",
                "pay_list": "橘子支付\/Pi 拍錢包\/悠遊付\/信用卡\/悠遊卡\/台灣pay\/街口"
            },
            "geometry": {
                "type": "Point",
                "coordinates": [
                    121.378771,
                    24.943774
                ]
            }
        },
        {
            "type": "Feature",
            "properties": {
                "shop": "白老家茶館",
                "category": "餐飲",
                "area": "三峽區",
                "market_address": "新北市三峽區永館里中山路３７號",
                "pay_list": "街口\/Pi 拍錢包\/icash pay"
            },
            "geometry": {
                "type": "Point",
                "coordinates": [
                    121.368208,
                    24.934405
                ]
            }
        },
        {
            "type": "Feature",
            "properties": {
                "shop": "八方雲集鍋貼水餃專賣店",
                "category": "餐飲",
                "area": "三峽區",
                "market_address": "新北市三峽區永舘里民生街１０７號（１樓）",
                "pay_list": "街口\/悠遊卡"
            },
            "geometry": {
                "type": "Point",
                "coordinates": [
                    121.37411465939,
                    24.935485467713
                ]
            }
        },
        {
            "type": "Feature",
            "properties": {
                "shop": "亞咪義大利麵",
                "category": "餐飲",
                "area": "三峽區",
                "market_address": "新北市三峽區龍學里大觀路１０９號",
                "pay_list": "台灣pay\/街口"
            },
            "geometry": {
                "type": "Point",
                "coordinates": [
                    121.374774,
                    24.945118
                ]
            }
        },
        {
            "type": "Feature",
            "properties": {
                "shop": "南平麵食館",
                "category": "餐飲",
                "area": "三峽區",
                "market_address": "新北市三峽區龍埔里民生街２８號１樓",
                "pay_list": "台灣pay\/街口"
            },
            "geometry": {
                "type": "Point",
                "coordinates": [
                    121.375801,
                    24.936684
                ]
            }
        },
        {
            "type": "Feature",
            "properties": {
                "shop": "古飽食堂",
                "category": "餐飲",
                "area": "三峽區",
                "market_address": "新北市三峽區龍恩里國際一街３２號",
                "pay_list": "悠遊付\/悠遊卡"
            },
            "geometry": {
                "type": "Point",
                "coordinates": [
                    121.373536,
                    24.942747
                ]
            }
        },
        {
            "type": "Feature",
            "properties": {
                "shop": "北大茶坊",
                "category": "餐飲",
                "area": "三峽區",
                "market_address": "新北市三峽區龍恩里國際二街３３號",
                "pay_list": "街口"
            },
            "geometry": {
                "type": "Point",
                "coordinates": [
                    121.372535,
                    24.943123
                ]
            }
        },
        {
            "type": "Feature",
            "properties": {
                "shop": "金巧味魯肉飯小吃店",
                "category": "餐飲",
                "area": "三峽區",
                "market_address": "新北市三峽區龍恩里學成路２２８號",
                "pay_list": "台灣pay\/街口"
            },
            "geometry": {
                "type": "Point",
                "coordinates": [
                    121.37457,
                    24.941365
                ]
            }
        },
        {
            "type": "Feature",
            "properties": {
                "shop": "三峽文化冷飲店",
                "category": "餐飲",
                "area": "三峽區",
                "market_address": "新北市三峽區文化路１６號１樓",
                "pay_list": "悠遊付\/街口\/橘子支付"
            },
            "geometry": {
                "type": "Point",
                "coordinates": [
                    121.373317,
                    24.935814
                ]
            }
        },
        {
            "type": "Feature",
            "properties": {
                "shop": "牛車水鐵板燒",
                "category": "餐飲",
                "area": "三峽區",
                "market_address": "新北市三峽區礁溪里介壽路１段５０號",
                "pay_list": "台灣pay\/信用卡"
            },
            "geometry": {
                "type": "Point",
                "coordinates": [
                    121.375596,
                    24.932079
                ]
            }
        },
        {
            "type": "Feature",
            "properties": {
                "shop": "俊鴻小吃店",
                "category": "餐飲",
                "area": "三峽區",
                "market_address": "新北市三峽區龍埔里國光街３８６―２號",
                "pay_list": "信用卡"
            },
            "geometry": {
                "type": "Point",
                "coordinates": [
                    121.37078280259,
                    24.939526778422
                ]
            }
        },
        {
            "type": "Feature",
            "properties": {
                "shop": "韓讚飲食店",
                "category": "餐飲",
                "area": "三峽區",
                "market_address": "新北市三峽區龍恩里國際一街４７號",
                "pay_list": "台灣pay"
            },
            "geometry": {
                "type": "Point",
                "coordinates": [
                    121.372491,
                    24.941841
                ]
            }
        },
        {
            "type": "Feature",
            "properties": {
                "shop": "呷冰站冰品店",
                "category": "餐飲",
                "area": "三峽區",
                "market_address": "新北市三峽區龍恩里國際一街８２號",
                "pay_list": "街口"
            },
            "geometry": {
                "type": "Point",
                "coordinates": [
                    121.371153,
                    24.941576
                ]
            }
        },
        {
            "type": "Feature",
            "properties": {
                "shop": "捌鍋小吃店",
                "category": "餐飲",
                "area": "三峽區",
                "market_address": "新北市三峽區龍恩里國際一街８號",
                "pay_list": "台灣pay"
            },
            "geometry": {
                "type": "Point",
                "coordinates": [
                    121.374391,
                    24.94323
                ]
            }
        },
        {
            "type": "Feature",
            "properties": {
                "shop": "正品御廚坊",
                "category": "餐飲",
                "area": "三峽區",
                "market_address": "新北市三峽區龍學里大德路３１６號",
                "pay_list": "街口"
            },
            "geometry": {
                "type": "Point",
                "coordinates": [
                    121.374277,
                    24.948091
                ]
            }
        },
        {
            "type": "Feature",
            "properties": {
                "shop": "帝一美食店",
                "category": "餐飲",
                "area": "三峽區",
                "market_address": "新北市三峽區龍學里學勤路９６號",
                "pay_list": "台灣pay"
            },
            "geometry": {
                "type": "Point",
                "coordinates": [
                    121.374948,
                    24.945747
                ]
            }
        },
        {
            "type": "Feature",
            "properties": {
                "shop": "謝家幸福美食坊",
                "category": "餐飲",
                "area": "三峽區",
                "market_address": "新北市三峽區龍恩里國學街２８號（１樓）",
                "pay_list": "信用卡"
            },
            "geometry": {
                "type": "Point",
                "coordinates": [
                    121.373209,
                    24.94215
                ]
            }
        },
        {
            "type": "Feature",
            "properties": {
                "shop": "滬苑小館",
                "category": "餐飲",
                "area": "三峽區",
                "market_address": "新北市三峽區三樹路３３號",
                "pay_list": "台灣pay"
            },
            "geometry": {
                "type": "Point",
                "coordinates": [
                    121.377604,
                    24.938616
                ]
            }
        },
        {
            "type": "Feature",
            "properties": {
                "shop": "京饌蒙古餐館",
                "category": "餐飲",
                "area": "三峽區",
                "market_address": "新北市三峽區龍學里學成路３４１號",
                "pay_list": "台灣pay\/信用卡"
            },
            "geometry": {
                "type": "Point",
                "coordinates": [
                    121.376504,
                    24.944796
                ]
            }
        },
        {
            "type": "Feature",
            "properties": {
                "shop": "阿爸的客家館",
                "category": "餐飲",
                "area": "三峽區",
                "market_address": "新北市三峽區鳶山里中山路１１８號１樓",
                "pay_list": "信用卡"
            },
            "geometry": {
                "type": "Point",
                "coordinates": [
                    121.365708,
                    24.935962
                ]
            }
        },
        {
            "type": "Feature",
            "properties": {
                "shop": "都可商行",
                "category": "餐飲",
                "area": "三峽區",
                "market_address": "新北市三峽區礁溪里光明路１９號（１樓）",
                "pay_list": "悠遊付\/街口\/悠遊卡"
            },
            "geometry": {
                "type": "Point",
                "coordinates": [
                    121.373231,
                    24.931329
                ]
            }
        },
        {
            "type": "Feature",
            "properties": {
                "shop": "三峽中華冷飲店",
                "category": "餐飲",
                "area": "三峽區",
                "market_address": "新北市三峽區中華路２１號１樓",
                "pay_list": "悠遊付\/街口\/橘子支付"
            },
            "geometry": {
                "type": "Point",
                "coordinates": [
                    121.373267,
                    24.931625
                ]
            }
        },
        {
            "type": "Feature",
            "properties": {
                "shop": "東果咖啡茶飲店",
                "category": "餐飲",
                "area": "三峽區",
                "market_address": "新北市三峽區永舘里文化路１５２號",
                "pay_list": "悠遊付\/台灣pay\/信用卡\/Pi 拍錢包"
            },
            "geometry": {
                "type": "Point",
                "coordinates": [
                    121.37041003678,
                    24.93627466971
                ]
            }
        },
        {
            "type": "Feature",
            "properties": {
                "shop": "橫溪肉圓店",
                "category": "餐飲",
                "area": "三峽區",
                "market_address": "新北市三峽區民生街１９３號１樓",
                "pay_list": "街口\/信用卡\/台灣pay"
            },
            "geometry": {
                "type": "Point",
                "coordinates": [
                    121.371858,
                    24.93474
                ]
            }
        },
        {
            "type": "Feature",
            "properties": {
                "shop": "三嵐綠茶店",
                "category": "餐飲",
                "area": "三峽區",
                "market_address": "新北市三峽區文化路２６號１樓",
                "pay_list": "悠遊卡"
            },
            "geometry": {
                "type": "Point",
                "coordinates": [
                    121.373228,
                    24.936025
                ]
            }
        },
        {
            "type": "Feature",
            "properties": {
                "shop": "六大將燒烤",
                "category": "餐飲",
                "area": "三峽區",
                "market_address": "新北市三峽區永館里和平街４２―１號",
                "pay_list": "台灣pay"
            },
            "geometry": {
                "type": "Point",
                "coordinates": [
                    121.37029249704,
                    24.937445142586
                ]
            }
        },
        {
            "type": "Feature",
            "properties": {
                "shop": "金海王股份有限公司",
                "category": "餐飲",
                "area": "三峽區",
                "market_address": "新北市三峽區中正里正義街１１之３號",
                "pay_list": "街口"
            },
            "geometry": {
                "type": "Point",
                "coordinates": [
                    121.369968,
                    24.919514
                ]
            }
        },
        {
            "type": "Feature",
            "properties": {
                "shop": "俊鴻有限公司三峽營業處",
                "category": "餐飲",
                "area": "三峽區",
                "market_address": "新北市三峽區龍埔里國光街３８６－２號",
                "pay_list": "街口"
            },
            "geometry": {
                "type": "Point",
                "coordinates": [
                    121.370783,
                    24.939526
                ]
            }
        },
        {
            "type": "Feature",
            "properties": {
                "shop": "三商餐飲股份有限公司三峽門市部",
                "category": "餐飲",
                "area": "三峽區",
                "market_address": "新北市三峽區龍埔里復興路３０號",
                "pay_list": "悠遊付\/信用卡"
            },
            "geometry": {
                "type": "Point",
                "coordinates": [
                    121.374444,
                    24.936171
                ]
            }
        },
        {
            "type": "Feature",
            "properties": {
                "shop": "味之原有限公司",
                "category": "餐飲",
                "area": "三峽區",
                "market_address": "新北市三峽區龍恩里國學街８４號（１樓）",
                "pay_list": "信用卡\/悠遊卡"
            },
            "geometry": {
                "type": "Point",
                "coordinates": [
                    121.372635,
                    24.942912
                ]
            }
        },
        {
            "type": "Feature",
            "properties": {
                "shop": "初心初食有限公司",
                "category": "餐飲",
                "area": "三峽區",
                "market_address": "新北市三峽區龍學里大學路１９６號",
                "pay_list": "信用卡"
            },
            "geometry": {
                "type": "Point",
                "coordinates": [
                    121.372577,
                    24.94676
                ]
            }
        },
        {
            "type": "Feature",
            "properties": {
                "shop": "亞洲藏壽司股份有限公司三峽學成店",
                "category": "餐飲",
                "area": "三峽區",
                "market_address": "新北市三峽區龍學里學成路３９８號４樓",
                "pay_list": "信用卡"
            },
            "geometry": {
                "type": "Point",
                "coordinates": [
                    121.378305,
                    24.944205
                ]
            }
        },
        {
            "type": "Feature",
            "properties": {
                "shop": "旭村有限公司",
                "category": "餐飲",
                "area": "三峽區",
                "market_address": "新北市三峽區龍恩里國學街３６號",
                "pay_list": "信用卡"
            },
            "geometry": {
                "type": "Point",
                "coordinates": [
                    121.373135,
                    24.942246
                ]
            }
        },
        {
            "type": "Feature",
            "properties": {
                "shop": "茶貝比餐飲有限公司",
                "category": "餐飲",
                "area": "三峽區",
                "market_address": "新北市三峽區龍恩里大學路１１１號",
                "pay_list": "街口"
            },
            "geometry": {
                "type": "Point",
                "coordinates": [
                    121.375596,
                    24.942036
                ]
            }
        },
        {
            "type": "Feature",
            "properties": {
                "shop": "是在哈鍋餐飲有限公司",
                "category": "餐飲",
                "area": "三峽區",
                "market_address": "新北市三峽區龍學里大學路１５０號（２樓）",
                "pay_list": "信用卡"
            },
            "geometry": {
                "type": "Point",
                "coordinates": [
                    121.37419,
                    24.944686
                ]
            }
        },
        {
            "type": "Feature",
            "properties": {
                "shop": "依欣有限公司",
                "category": "餐飲",
                "area": "三峽區",
                "market_address": "新北市三峽區永館里復興路７９、８１號",
                "pay_list": "信用卡"
            },
            "geometry": {
                "type": "Point",
                "coordinates": [
                    121.370915,
                    24.937911
                ]
            }
        },
        {
            "type": "Feature",
            "properties": {
                "shop": "紘璟餐飲有限公司",
                "category": "餐飲",
                "area": "三峽區",
                "market_address": "新北市三峽區礁溪里中正路１段２２號",
                "pay_list": "台灣pay\/信用卡"
            },
            "geometry": {
                "type": "Point",
                "coordinates": [
                    121.37584,
                    24.931106
                ]
            }
        },
        {
            "type": "Feature",
            "properties": {
                "shop": "夠豪邁國際有限公司",
                "category": "餐飲",
                "area": "三峽區",
                "market_address": "新北市三峽區龍學里大學路１９２號",
                "pay_list": "信用卡"
            },
            "geometry": {
                "type": "Point",
                "coordinates": [
                    121.37266,
                    24.946629
                ]
            }
        },
        {
            "type": "Feature",
            "properties": {
                "shop": "品燒食堂",
                "category": "餐飲",
                "area": "三峽區",
                "market_address": "新北市三峽區永舘里永館里民生街１８６號（攤位Ａ０４５、Ａ０４７、Ａ０５８）",
                "pay_list": "台灣pay"
            },
            "geometry": {
                "type": "Point",
                "coordinates": [
                    121.37067392033,
                    24.934932411627
                ]
            }
        },
        {
            "type": "Feature",
            "properties": {
                "shop": "小林甜湯",
                "category": "餐飲",
                "area": "三峽區",
                "market_address": "新北市三峽區龍恩里國際一街５２號",
                "pay_list": "街口"
            },
            "geometry": {
                "type": "Point",
                "coordinates": [
                    121.373149,
                    24.942519
                ]
            }
        },
        {
            "type": "Feature",
            "properties": {
                "shop": "泳妡冰舖",
                "category": "餐飲",
                "area": "三峽區",
                "market_address": "新北市三峽區三峽里民權街１３２號",
                "pay_list": "街口"
            },
            "geometry": {
                "type": "Point",
                "coordinates": [
                    121.368917,
                    24.932099
                ]
            }
        },
        {
            "type": "Feature",
            "properties": {
                "shop": "勇伯豆花",
                "category": "餐飲",
                "area": "三峽區",
                "market_address": "新北市三峽區三峽里民權街１３９號",
                "pay_list": "悠遊卡"
            },
            "geometry": {
                "type": "Point",
                "coordinates": [
                    121.368848,
                    24.93195
                ]
            }
        },
        {
            "type": "Feature",
            "properties": {
                "shop": "甘蔗中企業有限公司",
                "category": "餐飲",
                "area": "三峽區",
                "market_address": "新北市三峽區復興路１６４、１６６號",
                "pay_list": "街口\/信用卡\/台灣pay"
            },
            "geometry": {
                "type": "Point",
                "coordinates": [
                    121.374385,
                    24.936216
                ]
            }
        },
        {
            "type": "Feature",
            "properties": {
                "shop": "江水冷飲店",
                "category": "餐飲",
                "area": "三峽區",
                "market_address": "新北市三峽區鳶山里中山路１６３號（１樓）",
                "pay_list": "橘子支付\/Pi 拍錢包\/悠遊付\/信用卡\/悠遊卡\/街口"
            },
            "geometry": {
                "type": "Point",
                "coordinates": [
                    121.364579,
                    24.936375
                ]
            }
        },
        {
            "type": "Feature",
            "properties": {
                "shop": "松輝企業社",
                "category": "餐飲",
                "area": "三峽區",
                "market_address": "新北市三峽區永舘里永館里和平街３８之１號",
                "pay_list": "街口"
            },
            "geometry": {
                "type": "Point",
                "coordinates": [
                    121.37028382479,
                    24.937303229658
                ]
            }
        },
        {
            "type": "Feature",
            "properties": {
                "shop": "品欣小吃店",
                "category": "餐飲",
                "area": "三峽區",
                "market_address": "新北市三峽區中正里大同路１１１號１樓",
                "pay_list": "台灣pay"
            },
            "geometry": {
                "type": "Point",
                "coordinates": [
                    121.374401,
                    24.926829
                ]
            }
        },
        {
            "type": "Feature",
            "properties": {
                "shop": "王品餐飲股份有限公司西堤台北三峽分公司",
                "category": "餐飲",
                "area": "三峽區",
                "market_address": "新北市三峽區龍學里學成路３９８號３樓",
                "pay_list": "悠遊付\/信用卡"
            },
            "geometry": {
                "type": "Point",
                "coordinates": [
                    121.378305,
                    24.944205
                ]
            }
        },
        {
            "type": "Feature",
            "properties": {
                "shop": "三商餐飲股份有限公司三峽分公司",
                "category": "餐飲",
                "area": "三峽區",
                "market_address": "新北市三峽區永舘里復興路３７、４３號",
                "pay_list": "悠遊付\/信用卡"
            },
            "geometry": {
                "type": "Point",
                "coordinates": [
                    121.36842,
                    24.938734
                ]
            }
        },
        {
            "type": "Feature",
            "properties": {
                "shop": "和德昌股份有限公司三峽文化分公司",
                "category": "餐飲",
                "area": "三峽區",
                "market_address": "新北市三峽區永舘里文化路７２號１樓、２樓",
                "pay_list": "信用卡"
            },
            "geometry": {
                "type": "Point",
                "coordinates": [
                    121.37215506841,
                    24.93623058887
                ]
            }
        },
        {
            "type": "Feature",
            "properties": {
                "shop": "花岩休閒有限公司",
                "category": "餐飲",
                "area": "三峽區",
                "market_address": "新北市三峽區有木里有木１０４―１號",
                "pay_list": "信用卡"
            },
            "geometry": {
                "type": "Point",
                "coordinates": [
                    121.43935383764,
                    24.865191617607
                ]
            }
        },
        {
            "type": "Feature",
            "properties": {
                "shop": "麗鼎食府有限公司",
                "category": "餐飲",
                "area": "三峽區",
                "market_address": "新北市三峽區永舘里復興路２３３號１樓",
                "pay_list": "台灣pay\/信用卡"
            },
            "geometry": {
                "type": "Point",
                "coordinates": [
                    121.36855400159,
                    24.938677332757
                ]
            }
        },
        {
            "type": "Feature",
            "properties": {
                "shop": "木馬商行",
                "category": "餐飲",
                "area": "三峽區",
                "market_address": "新北市三峽區永舘里復興路１１號",
                "pay_list": "信用卡\/悠遊卡\/台灣pay\/街口"
            },
            "geometry": {
                "type": "Point",
                "coordinates": [
                    121.37408634569,
                    24.936034786611
                ]
            }
        },
        {
            "type": "Feature",
            "properties": {
                "shop": "巧朵咖啡館",
                "category": "餐飲",
                "area": "三峽區",
                "market_address": "新北市三峽區安溪里中華路４６號",
                "pay_list": "Pi 拍錢包\/悠遊付\/信用卡\/台灣pay\/街口"
            },
            "geometry": {
                "type": "Point",
                "coordinates": [
                    121.372052,
                    24.930548
                ]
            }
        },
        {
            "type": "Feature",
            "properties": {
                "shop": "東道飲食亭",
                "category": "餐飲",
                "area": "三峽區",
                "market_address": "新北市三峽區永舘里仁愛街７號",
                "pay_list": "橘子支付\/街口"
            },
            "geometry": {
                "type": "Point",
                "coordinates": [
                    121.36855021186,
                    24.934077539025
                ]
            }
        },
        {
            "type": "Feature",
            "properties": {
                "shop": "兆洋餐飲事業股份有限公司三峽大學分公司",
                "category": "餐飲",
                "area": "三峽區",
                "market_address": "新北市三峽區龍學里大學路１９８號",
                "pay_list": "台灣pay\/信用卡"
            },
            "geometry": {
                "type": "Point",
                "coordinates": [
                    121.372547,
                    24.94679
                ]
            }
        },
        {
            "type": "Feature",
            "properties": {
                "shop": "鬍鬚張股份有限公司三峽北大分公司",
                "category": "餐飲",
                "area": "三峽區",
                "market_address": "新北市三峽區學成路２５０號",
                "pay_list": "悠遊付\/信用卡\/Pi 拍錢包"
            },
            "geometry": {
                "type": "Point",
                "coordinates": [
                    121.375062,
                    24.941951
                ]
            }
        },
        {
            "type": "Feature",
            "properties": {
                "shop": "爭鮮股份有限公司三峽北大分公司",
                "category": "餐飲",
                "area": "三峽區",
                "market_address": "新北市三峽區大學路８６－２號",
                "pay_list": "信用卡"
            },
            "geometry": {
                "type": "Point",
                "coordinates": [
                    121.375832,
                    24.942481
                ]
            }
        },
        {
            "type": "Feature",
            "properties": {
                "shop": "爭鮮股份有限公司三峽分公司",
                "category": "餐飲",
                "area": "三峽區",
                "market_address": "新北市三峽區復興路４４９號",
                "pay_list": "信用卡"
            },
            "geometry": {
                "type": "Point",
                "coordinates": [
                    121.362595,
                    24.938417
                ]
            }
        },
        {
            "type": "Feature",
            "properties": {
                "shop": "昇威商行",
                "category": "餐飲",
                "area": "三峽區",
                "market_address": "新北市三峽區介壽里中正路１段７５―１號",
                "pay_list": "台灣pay"
            },
            "geometry": {
                "type": "Point",
                "coordinates": [
                    121.37483701648,
                    24.929752544446
                ]
            }
        },
        {
            "type": "Feature",
            "properties": {
                "shop": "鼎饗早餐店",
                "category": "餐飲",
                "area": "三峽區",
                "market_address": "新北市三峽區礁溪里中華路３６之１１號",
                "pay_list": "台灣pay"
            },
            "geometry": {
                "type": "Point",
                "coordinates": [
                    121.373233,
                    24.931854
                ]
            }
        },
        {
            "type": "Feature",
            "properties": {
                "shop": "明犇餐飲",
                "category": "餐飲",
                "area": "三峽區",
                "market_address": "新北市三峽區龍學里大學路８６之２號",
                "pay_list": "街口\/信用卡"
            },
            "geometry": {
                "type": "Point",
                "coordinates": [
                    121.375832,
                    24.942481
                ]
            }
        },
        {
            "type": "Feature",
            "properties": {
                "shop": "鄭佩琪",
                "category": "餐飲",
                "area": "三峽區",
                "market_address": "新北市三峽區礁溪里光明路３巷６號",
                "pay_list": "台灣pay"
            },
            "geometry": {
                "type": "Point",
                "coordinates": [
                    121.372773,
                    24.931989
                ]
            }
        },
        {
            "type": "Feature",
            "properties": {
                "shop": "享盈商行",
                "category": "餐飲",
                "area": "三峽區",
                "market_address": "新北市三峽區礁溪里介壽路１段６９號",
                "pay_list": "台灣pay"
            },
            "geometry": {
                "type": "Point",
                "coordinates": [
                    121.37587,
                    24.932569
                ]
            }
        },
        {
            "type": "Feature",
            "properties": {
                "shop": "北大超有肉涮涮屋",
                "category": "餐飲",
                "area": "三峽區",
                "market_address": "新北市三峽區龍學里學勤路１７８號（１樓）",
                "pay_list": "街口\/信用卡\/Pi 拍錢包"
            },
            "geometry": {
                "type": "Point",
                "coordinates": [
                    121.376155,
                    24.946273
                ]
            }
        },
        {
            "type": "Feature",
            "properties": {
                "shop": "木馬咖啡店",
                "category": "餐飲",
                "area": "三峽區",
                "market_address": "新北市三峽區龍學里學成路３２５號",
                "pay_list": "信用卡\/悠遊卡\/台灣pay\/街口"
            },
            "geometry": {
                "type": "Point",
                "coordinates": [
                    121.377205,
                    24.944627
                ]
            }
        },
        {
            "type": "Feature",
            "properties": {
                "shop": "五花馬國際行銷股份有限公司台北三峽分公司",
                "category": "餐飲",
                "area": "三峽區",
                "market_address": "新北市三峽區大學路８６－１號",
                "pay_list": "街口"
            },
            "geometry": {
                "type": "Point",
                "coordinates": [
                    121.375743,
                    24.942601
                ]
            }
        },
        {
            "type": "Feature",
            "properties": {
                "shop": "和德昌股份有限公司三峽學成分公司",
                "category": "餐飲",
                "area": "三峽區",
                "market_address": "新北市三峽區學成路２５８號",
                "pay_list": "信用卡"
            },
            "geometry": {
                "type": "Point",
                "coordinates": [
                    121.375384,
                    24.942329
                ]
            }
        },
        {
            "type": "Feature",
            "properties": {
                "shop": "憬瑄羊肉料理",
                "category": "餐飲",
                "area": "三峽區",
                "market_address": "新北市三峽區永館里和平街９１之２號",
                "pay_list": "信用卡\/台灣pay"
            },
            "geometry": {
                "type": "Point",
                "coordinates": [
                    121.370143,
                    24.937708
                ]
            }
        },
        {
            "type": "Feature",
            "properties": {
                "shop": "名薇家居館",
                "category": "餐飲",
                "area": "三峽區",
                "market_address": "新北市三峽區三峽里民權街１０１號",
                "pay_list": "信用卡"
            },
            "geometry": {
                "type": "Point",
                "coordinates": [
                    121.36921,
                    24.932615
                ]
            }
        },
        {
            "type": "Feature",
            "properties": {
                "shop": "豐鮮巧味小館",
                "category": "餐飲",
                "area": "三峽區",
                "market_address": "新北市三峽區中正里光明路８２號１樓",
                "pay_list": "街口"
            },
            "geometry": {
                "type": "Point",
                "coordinates": [
                    121.375381,
                    24.928729
                ]
            }
        },
        {
            "type": "Feature",
            "properties": {
                "shop": "李記鵝肉店",
                "category": "餐飲",
                "area": "三峽區",
                "market_address": "新北市三峽區永舘里永館里民權街１２號",
                "pay_list": "台灣pay\/街口"
            },
            "geometry": {
                "type": "Point",
                "coordinates": [
                    121.37019522952,
                    24.934660232256
                ]
            }
        },
        {
            "type": "Feature",
            "properties": {
                "shop": "三果餐飲店",
                "category": "餐飲",
                "area": "三峽區",
                "market_address": "新北市三峽區中正里大同路９６號",
                "pay_list": "橘子支付"
            },
            "geometry": {
                "type": "Point",
                "coordinates": [
                    121.375572,
                    24.927679
                ]
            }
        },
        {
            "type": "Feature",
            "properties": {
                "shop": "峽都商行",
                "category": "餐飲",
                "area": "三峽區",
                "market_address": "新北市三峽區和平街４０號",
                "pay_list": "悠遊付\/街口\/悠遊卡"
            },
            "geometry": {
                "type": "Point",
                "coordinates": [
                    121.370287,
                    24.937356
                ]
            }
        },
        {
            "type": "Feature",
            "properties": {
                "shop": "丰角國際股份有限公司",
                "category": "餐飲",
                "area": "三峽區",
                "market_address": "新北市三峽區安溪里中華路７４之１號",
                "pay_list": "台灣pay"
            },
            "geometry": {
                "type": "Point",
                "coordinates": [
                    121.371459,
                    24.929454
                ]
            }
        },
        {
            "type": "Feature",
            "properties": {
                "shop": "綠橄欖國際餐飲股份有限公司",
                "category": "餐飲",
                "area": "三峽區",
                "market_address": "新北市三峽區龍恩里國際二街３５號",
                "pay_list": "街口\/信用卡\/台灣pay"
            },
            "geometry": {
                "type": "Point",
                "coordinates": [
                    121.372241,
                    24.942976
                ]
            }
        },
        {
            "type": "Feature",
            "properties": {
                "shop": "強尼兄弟股份有限公司",
                "category": "餐飲",
                "area": "三峽區",
                "market_address": "新北市三峽區龍學里大觀路１１５號（１樓）",
                "pay_list": "信用卡"
            },
            "geometry": {
                "type": "Point",
                "coordinates": [
                    121.374534,
                    24.94547
                ]
            }
        },
        {
            "type": "Feature",
            "properties": {
                "shop": "鮮茶道股份有限公司三峽文化店",
                "category": "餐飲",
                "area": "三峽區",
                "market_address": "新北市三峽區永舘里文化路４１號",
                "pay_list": "悠遊付\/台灣pay"
            },
            "geometry": {
                "type": "Point",
                "coordinates": [
                    121.37246625628,
                    24.936019523499
                ]
            }
        },
        {
            "type": "Feature",
            "properties": {
                "shop": "八方雲集餐飲股份有限公司御廚三峽民生店",
                "category": "餐飲",
                "area": "三峽區",
                "market_address": "新北市三峽區永舘里民生街１０９號１－２樓",
                "pay_list": "悠遊卡"
            },
            "geometry": {
                "type": "Point",
                "coordinates": [
                    121.37407547725,
                    24.935465252303
                ]
            }
        },
        {
            "type": "Feature",
            "properties": {
                "shop": "來來切仔麵",
                "category": "餐飲\/夜市\/市場攤販",
                "area": "三峽區",
                "market_address": "新北市三峽區白鷄１１５－１７號",
                "pay_list": "悠遊卡\/悠遊付"
            },
            "geometry": {
                "type": "Point",
                "coordinates": [
                    121.401065,
                    24.906527
                ]
            }
        },
        {
            "type": "Feature",
            "properties": {
                "shop": "王品餐飲股份有限公司聚鍋台北三峽店",
                "category": "餐飲",
                "area": "三峽區",
                "market_address": "新北市三峽區龍學里學成路３９８號３樓",
                "pay_list": "悠遊付\/信用卡"
            },
            "geometry": {
                "type": "Point",
                "coordinates": [
                    121.378305,
                    24.944205
                ]
            }
        },
        {
            "type": "Feature",
            "properties": {
                "shop": "欣宴食品有限公司",
                "category": "餐飲",
                "area": "三峽區",
                "market_address": "新北市三峽區龍學里大學路１５６之２號（１樓）",
                "pay_list": "台灣pay\/信用卡"
            },
            "geometry": {
                "type": "Point",
                "coordinates": [
                    121.373219,
                    24.945865
                ]
            }
        },
        {
            "type": "Feature",
            "properties": {
                "shop": "蒔間厝企業有限公司",
                "category": "餐飲",
                "area": "三峽區",
                "market_address": "新北市三峽區五寮里五寮４１之３０號（１樓）",
                "pay_list": "台灣pay"
            },
            "geometry": {
                "type": "Point",
                "coordinates": [
                    121.365357,
                    24.862613
                ]
            }
        },
        {
            "type": "Feature",
            "properties": {
                "shop": "三野實業有限公司",
                "category": "餐飲",
                "area": "三峽區",
                "market_address": "新北市三峽區龍恩里三樹路４９號",
                "pay_list": "台灣pay\/信用卡"
            },
            "geometry": {
                "type": "Point",
                "coordinates": [
                    121.377737,
                    24.939024
                ]
            }
        },
        {
            "type": "Feature",
            "properties": {
                "shop": "旭勝國際餐飲事業有限公司",
                "category": "餐飲",
                "area": "三峽區",
                "market_address": "新北市三峽區介壽里光明路６９巷２９號２樓",
                "pay_list": "台灣pay"
            },
            "geometry": {
                "type": "Point",
                "coordinates": [
                    121.37705,
                    24.929559
                ]
            }
        },
        {
            "type": "Feature",
            "properties": {
                "shop": "御鼎餐飲有限公司",
                "category": "餐飲",
                "area": "三峽區",
                "market_address": "新北市三峽區龍恩里國際一街２２號",
                "pay_list": "信用卡"
            },
            "geometry": {
                "type": "Point",
                "coordinates": [
                    121.373881,
                    24.943003
                ]
            }
        },
        {
            "type": "Feature",
            "properties": {
                "shop": "楓樹湖神農家族館",
                "category": "糕餅",
                "area": "三芝區",
                "market_address": "新北市三芝區興華里０１９鄰車埕６９之１號",
                "pay_list": "信用卡"
            },
            "geometry": {
                "type": "Point",
                "coordinates": [
                    121.493504,
                    25.193577
                ]
            }
        },
        {
            "type": "Feature",
            "properties": {
                "shop": "凱連莊特產食品館",
                "category": "糕餅",
                "area": "三芝區",
                "market_address": "新北市三芝區埔頭里埔頭１８－２號",
                "pay_list": "信用卡"
            },
            "geometry": {
                "type": "Point",
                "coordinates": [
                    121.493707,
                    25.260034
                ]
            }
        },
        {
            "type": "Feature",
            "properties": {
                "shop": "社團法人中華民國新生活社會福利發展促進會",
                "category": "糕餅",
                "area": "三芝區",
                "market_address": "新北市三芝區淡金路２段９７號",
                "pay_list": "信用卡\/街口"
            },
            "geometry": {
                "type": "Point",
                "coordinates": [
                    121.50429,
                    25.260978
                ]
            }
        },
        {
            "type": "Feature",
            "properties": {
                "shop": "童話咖啡館",
                "category": "餐飲",
                "area": "三芝區",
                "market_address": "新北市三芝區土地公坑５４之２號（１樓）",
                "pay_list": "台灣pay\/街口"
            },
            "geometry": {
                "type": "Point",
                "coordinates": [
                    121.467037,
                    25.250112
                ]
            }
        },
        {
            "type": "Feature",
            "properties": {
                "shop": "海邊灶咖小吃館",
                "category": "餐飲",
                "area": "三芝區",
                "market_address": "新北市三芝區北勢子１９之１號",
                "pay_list": "台灣pay\/信用卡"
            },
            "geometry": {
                "type": "Point",
                "coordinates": [
                    121.473709,
                    25.254349
                ]
            }
        },
        {
            "type": "Feature",
            "properties": {
                "shop": "陳喬商行",
                "category": "餐飲",
                "area": "三芝區",
                "market_address": "新北市三芝區土地公坑５４之４號１樓",
                "pay_list": "信用卡"
            },
            "geometry": {
                "type": "Point",
                "coordinates": [
                    121.46683,
                    25.250046
                ]
            }
        },
        {
            "type": "Feature",
            "properties": {
                "shop": "夢想地圖咖啡海景會館",
                "category": "餐飲",
                "area": "三芝區",
                "market_address": "新北市三芝區北勢子４１號",
                "pay_list": "台灣pay\/信用卡"
            },
            "geometry": {
                "type": "Point",
                "coordinates": [
                    121.472426,
                    25.253088
                ]
            }
        },
        {
            "type": "Feature",
            "properties": {
                "shop": "紅酋長小吃店",
                "category": "餐飲",
                "area": "三芝區",
                "market_address": "新北市三芝區土地公坑５４―２號",
                "pay_list": "信用卡"
            },
            "geometry": {
                "type": "Point",
                "coordinates": [
                    121.46703718742,
                    25.250113430405
                ]
            }
        },
        {
            "type": "Feature",
            "properties": {
                "shop": "泰味屋泰式料理",
                "category": "餐飲",
                "area": "三芝區",
                "market_address": "新北市三芝區長安街５１號",
                "pay_list": "歐付寶"
            },
            "geometry": {
                "type": "Point",
                "coordinates": [
                    121.501386,
                    25.256478
                ]
            }
        },
        {
            "type": "Feature",
            "properties": {
                "shop": "望海大小吃店",
                "category": "餐飲",
                "area": "三芝區",
                "market_address": "新北市三芝區北勢子４５之１０號",
                "pay_list": "台灣pay\/信用卡"
            },
            "geometry": {
                "type": "Point",
                "coordinates": [
                    121.467321,
                    25.250205
                ]
            }
        },
        {
            "type": "Feature",
            "properties": {
                "shop": "那年夏天咖啡館",
                "category": "餐飲",
                "area": "三芝區",
                "market_address": "新北市三芝區北勢子４５之１３號",
                "pay_list": "街口"
            },
            "geometry": {
                "type": "Point",
                "coordinates": [
                    121.467529,
                    25.250277
                ]
            }
        },
        {
            "type": "Feature",
            "properties": {
                "shop": "三西河茶行",
                "category": "餐飲",
                "area": "三芝區",
                "market_address": "新北市三芝區中正路１段５３號",
                "pay_list": "悠遊付\/街口\/悠遊卡"
            },
            "geometry": {
                "type": "Point",
                "coordinates": [
                    121.503334,
                    25.257991
                ]
            }
        },
        {
            "type": "Feature",
            "properties": {
                "shop": "分享小吃店",
                "category": "餐飲",
                "area": "三芝區",
                "market_address": "新北市三芝區土地公坑５４之１號",
                "pay_list": "信用卡"
            },
            "geometry": {
                "type": "Point",
                "coordinates": [
                    121.467149,
                    25.250146
                ]
            }
        },
        {
            "type": "Feature",
            "properties": {
                "shop": "自然藝境咖啡館",
                "category": "餐飲",
                "area": "三芝區",
                "market_address": "新北市三芝區埔坪里埔頭坑１６４之２號",
                "pay_list": "信用卡"
            },
            "geometry": {
                "type": "Point",
                "coordinates": [
                    121.507883,
                    25.249012
                ]
            }
        },
        {
            "type": "Feature",
            "properties": {
                "shop": "迎海苑咖啡館",
                "category": "餐飲",
                "area": "三芝區",
                "market_address": "新北市三芝區土地公坑５４之１０號",
                "pay_list": "信用卡"
            },
            "geometry": {
                "type": "Point",
                "coordinates": [
                    121.466399,
                    25.249855
                ]
            }
        },
        {
            "type": "Feature",
            "properties": {
                "shop": "阿比涼水店",
                "category": "餐飲",
                "area": "三芝區",
                "market_address": "新北市三芝區淡金路２段１４號",
                "pay_list": "橘子支付\/Pi 拍錢包\/悠遊付\/信用卡\/悠遊卡\/台灣pay\/街口"
            },
            "geometry": {
                "type": "Point",
                "coordinates": [
                    121.502472,
                    25.259535
                ]
            }
        },