{
    "type": "FeatureCollection",
    "features": [
        {
            "type": "Feature",
            "properties": {
                "shop": "風雅月筑休閒渡假民宿",
                "category": "餐飲",
                "area": "五峰鄉",
                "market_address": "新竹縣五峰鄉大隘村０１４鄰２７８之１５號",
                "pay_list": "台灣pay\/信用卡\/LINE Pay Money"
            },
            "geometry": {
                "type": "Point",
                "coordinates": [
                    121.083129,
                    24.628546
                ]
            }
        },
        {
            "type": "Feature",
            "properties": {
                "shop": "雪霸休閒農場有限公司",
                "category": "餐飲",
                "area": "五峰鄉",
                "market_address": "新竹縣五峰鄉桃山村民石３８０－１號",
                "pay_list": "信用卡"
            },
            "geometry": {
                "type": "Point",
                "coordinates": [
                    121.117838,
                    24.527476
                ]
            }
        },
        {
            "type": "Feature",
            "properties": {
                "shop": "茅圃小吃",
                "category": "餐飲",
                "area": "五峰鄉",
                "market_address": "新竹縣五峰鄉大隘村２２鄰茅圃４４８―１號",
                "pay_list": "台灣pay"
            },
            "geometry": {
                "type": "Point",
                "coordinates": [
                    121.123514,
                    24.644933
                ]
            }
        },
        {
            "type": "Feature",
            "properties": {
                "shop": "浮雲杉林休閒農場",
                "category": "餐飲",
                "area": "五峰鄉",
                "market_address": "新竹縣五峰鄉桃山村１８鄰白蘭２９８號之３",
                "pay_list": "台灣pay\/信用卡"
            },
            "geometry": {
                "type": "Point",
                "coordinates": [
                    121.097436,
                    24.577665
                ]
            }
        },
        {
            "type": "Feature",
            "properties": {
                "shop": "棕櫚居屋",
                "category": "餐飲",
                "area": "五峰鄉",
                "market_address": "新竹縣五峰鄉桃山村清泉２６３號",
                "pay_list": "台灣pay\/信用卡"
            },
            "geometry": {
                "type": "Point",
                "coordinates": [
                    121.105756,
                    24.573915
                ]
            }
        },
        {
            "type": "Feature",
            "properties": {
                "shop": "有限責任新竹縣五峰鄉竹林養生村合作社",
                "category": "餐飲",
                "area": "五峰鄉",
                "market_address": "新竹縣五峰鄉竹林村和平１４２號",
                "pay_list": "台灣pay"
            },
            "geometry": {
                "type": "Point",
                "coordinates": [
                    121.12736,
                    24.617474
                ]
            }
        },
        {
            "type": "Feature",
            "properties": {
                "shop": "山上人家",
                "category": "餐飲",
                "area": "五峰鄉",
                "market_address": "新竹縣五峰鄉大隘村２３鄰茅圃４６８－５號",
                "pay_list": "信用卡"
            },
            "geometry": {
                "type": "Point",
                "coordinates": [
                    121.089037,
                    24.604624
                ]
            }
        },
        {
            "type": "Feature",
            "properties": {
                "shop": "啦啦哇嚥小吃店",
                "category": "餐飲",
                "area": "五峰鄉",
                "market_address": "新竹縣五峰鄉大隘村大隘２８４號",
                "pay_list": "LINE Pay Money"
            },
            "geometry": {
                "type": "Point",
                "coordinates": [
                    121.088937,
                    24.624745
                ]
            }
        },
        {
            "type": "Feature",
            "properties": {
                "shop": "加草花園山莊",
                "category": "餐飲",
                "area": "五峰鄉",
                "market_address": "新竹縣五峰鄉桃山村民石３６５號",
                "pay_list": "信用卡"
            },
            "geometry": {
                "type": "Point",
                "coordinates": [
                    121.12656,
                    24.530823
                ]
            }
        },
        {
            "type": "Feature",
            "properties": {
                "shop": "甘姐食品行",
                "category": "夜市\/市場攤販",
                "area": "北埔鄉",
                "market_address": "新竹縣北埔鄉埔尾村埔心街３６號",
                "pay_list": "台灣pay"
            },
            "geometry": {
                "type": "Point",
                "coordinates": [
                    121.053331,
                    24.70153
                ]
            }
        },
        {
            "type": "Feature",
            "properties": {
                "shop": "隆源餅行有限公司",
                "category": "糕餅",
                "area": "北埔鄉",
                "market_address": "新竹縣北埔鄉北埔村００７鄰中正路１６號１樓",
                "pay_list": "台灣pay\/信用卡"
            },
            "geometry": {
                "type": "Point",
                "coordinates": [
                    121.056898,
                    24.700835
                ]
            }
        },
        {
            "type": "Feature",
            "properties": {
                "shop": "瑞源餅店",
                "category": "糕餅",
                "area": "北埔鄉",
                "market_address": "新竹縣北埔鄉北埔村南興街１２４號",
                "pay_list": "台灣pay\/信用卡\/街口"
            },
            "geometry": {
                "type": "Point",
                "coordinates": [
                    121.057153,
                    24.70089
                ]
            }
        },
        {
            "type": "Feature",
            "properties": {
                "shop": "好客濃食農坊",
                "category": "糕餅",
                "area": "北埔鄉",
                "market_address": "新竹縣北埔鄉南興村０１０鄰公園街２２號１樓",
                "pay_list": "台灣pay"
            },
            "geometry": {
                "type": "Point",
                "coordinates": [
                    121.057452,
                    24.698792
                ]
            }
        },
        {
            "type": "Feature",
            "properties": {
                "shop": "億源堂食品行",
                "category": "糕餅",
                "area": "北埔鄉",
                "market_address": "新竹縣北埔鄉北埔村７鄰南興街９６―１號",
                "pay_list": "台灣pay"
            },
            "geometry": {
                "type": "Point",
                "coordinates": [
                    121.05716321162,
                    24.699901120202
                ]
            }
        },
        {
            "type": "Feature",
            "properties": {
                "shop": "阿麵製麵廠有限公司",
                "category": "餐飲",
                "area": "北埔鄉",
                "market_address": "新竹縣北埔鄉北埔村００７鄰中山路１５號１樓",
                "pay_list": "台灣pay\/街口"
            },
            "geometry": {
                "type": "Point",
                "coordinates": [
                    121.057013,
                    24.701644
                ]
            }
        },
        {
            "type": "Feature",
            "properties": {
                "shop": "鄒記菜包",
                "category": "餐飲",
                "area": "北埔鄉",
                "market_address": "新竹縣北埔鄉北埔村００９鄰中正路４９號１樓",
                "pay_list": "台灣pay"
            },
            "geometry": {
                "type": "Point",
                "coordinates": [
                    121.056037,
                    24.700638
                ]
            }
        },
        {
            "type": "Feature",
            "properties": {
                "shop": "蕪芷企業社",
                "category": "餐飲",
                "area": "北埔鄉",
                "market_address": "新竹縣北埔鄉外坪村００８鄰六股２０―１號",
                "pay_list": "台灣pay\/信用卡"
            },
            "geometry": {
                "type": "Point",
                "coordinates": [
                    121.08842110937,
                    24.641441581538
                ]
            }
        },
        {
            "type": "Feature",
            "properties": {
                "shop": "老頭擺實業有限公司營業所",
                "category": "餐飲",
                "area": "北埔鄉",
                "market_address": "新竹縣北埔鄉大林村００４鄰４６―１號",
                "pay_list": "信用卡"
            },
            "geometry": {
                "type": "Point",
                "coordinates": [
                    121.052297,
                    24.697153
                ]
            }
        },
        {
            "type": "Feature",
            "properties": {
                "shop": "老頭擺實業有限公司",
                "category": "餐飲",
                "area": "北埔鄉",
                "market_address": "新竹縣北埔鄉南坑村９鄰８－５號",
                "pay_list": "台灣pay\/信用卡"
            },
            "geometry": {
                "type": "Point",
                "coordinates": [
                    121.064676,
                    24.673486
                ]
            }
        },
        {
            "type": "Feature",
            "properties": {
                "shop": "福美軒飲食店",
                "category": "餐飲",
                "area": "北埔鄉",
                "market_address": "新竹縣北埔鄉南興街１３２號",
                "pay_list": "台灣pay\/悠遊付\/悠遊卡\/街口\/LINE Pay Money"
            },
            "geometry": {
                "type": "Point",
                "coordinates": [
                    121.057101,
                    24.701066
                ]
            }
        },
        {
            "type": "Feature",
            "properties": {
                "shop": "璞鈺生技食品有限公司",
                "category": "餐飲",
                "area": "北埔鄉",
                "market_address": "新竹縣北埔鄉南興村１０鄰廟前街８號",
                "pay_list": "Pi 拍錢包\/台灣pay\/信用卡\/橘子支付\/LINE Pay Money\/歐付寶"
            },
            "geometry": {
                "type": "Point",
                "coordinates": [
                    121.057591,
                    24.699044
                ]
            }
        },
        {
            "type": "Feature",
            "properties": {
                "shop": "泥磚屋小吃店",
                "category": "餐飲",
                "area": "北埔鄉",
                "market_address": "新竹縣北埔鄉埔尾村１鄰長春街１１３號",
                "pay_list": "台灣pay\/信用卡\/街口\/LINE Pay Money"
            },
            "geometry": {
                "type": "Point",
                "coordinates": [
                    121.055858,
                    24.704924
                ]
            }
        },
        {
            "type": "Feature",
            "properties": {
                "shop": "拾樂坊",
                "category": "餐飲",
                "area": "北埔鄉",
                "market_address": "新竹縣北埔鄉埔尾村００２鄰中正路７６號１樓",
                "pay_list": "悠遊卡\/街口\/LINE Pay Money"
            },
            "geometry": {
                "type": "Point",
                "coordinates": [
                    121.055536,
                    24.700802
                ]
            }
        },
        {
            "type": "Feature",
            "properties": {
                "shop": "山水屋咖啡簡餐",
                "category": "餐飲",
                "area": "北埔鄉",
                "market_address": "新竹縣北埔鄉南坑村００９鄰大南坑７─７號",
                "pay_list": "台灣pay\/街口\/LINE Pay Money"
            },
            "geometry": {
                "type": "Point",
                "coordinates": [
                    121.059591,
                    24.670877
                ]
            }
        },
        {
            "type": "Feature",
            "properties": {
                "shop": "山吹舍工作室",
                "category": "餐飲",
                "area": "北埔鄉",
                "market_address": "新竹縣北埔鄉南興村００４鄰公園街１６巷１１號１樓",
                "pay_list": "LINE Pay Money"
            },
            "geometry": {
                "type": "Point",
                "coordinates": [
                    121.05815,
                    24.699159
                ]
            }
        },
        {
            "type": "Feature",
            "properties": {
                "shop": "小鎮藝舖",
                "category": "餐飲",
                "area": "北埔鄉",
                "market_address": "新竹縣北埔鄉南興村６鄰廟前街３９號",
                "pay_list": "信用卡"
            },
            "geometry": {
                "type": "Point",
                "coordinates": [
                    121.057748,
                    24.699622
                ]
            }
        },
        {
            "type": "Feature",
            "properties": {
                "shop": "寶蓮商行",
                "category": "餐飲",
                "area": "北埔鄉",
                "market_address": "新竹縣北埔鄉北埔村北埔街４２號１樓",
                "pay_list": "台灣pay\/街口\/LINE Pay Money"
            },
            "geometry": {
                "type": "Point",
                "coordinates": [
                    121.056787,
                    24.699988
                ]
            }
        },
        {
            "type": "Feature",
            "properties": {
                "shop": "大豐收庭苑餐館",
                "category": "餐飲",
                "area": "北埔鄉",
                "market_address": "新竹縣北埔鄉北埔村００７鄰中正路３０之１號",
                "pay_list": "台灣pay\/街口\/LINE Pay Money"
            },
            "geometry": {
                "type": "Point",
                "coordinates": [
                    121.055835,
                    24.700814
                ]
            }
        },
        {
            "type": "Feature",
            "properties": {
                "shop": "唐山擂茶客家菜",
                "category": "餐飲",
                "area": "北埔鄉",
                "market_address": "新竹縣北埔鄉北埔村７鄰南興街１１６號",
                "pay_list": "悠遊卡\/街口"
            },
            "geometry": {
                "type": "Point",
                "coordinates": [
                    121.057055,
                    24.700451
                ]
            }
        },
        {
            "type": "Feature",
            "properties": {
                "shop": "北昇休閒山莊",
                "category": "餐飲",
                "area": "北埔鄉",
                "market_address": "新竹縣北埔鄉水磜村８鄰１０―３號",
                "pay_list": "台灣pay\/信用卡"
            },
            "geometry": {
                "type": "Point",
                "coordinates": [
                    121.048338,
                    24.712019
                ]
            }
        },
        {
            "type": "Feature",
            "properties": {
                "shop": "北埔食堂",
                "category": "餐飲",
                "area": "北埔鄉",
                "market_address": "新竹縣北埔鄉北埔村５鄰北埔街４號",
                "pay_list": "台灣pay"
            },
            "geometry": {
                "type": "Point",
                "coordinates": [
                    121.058002,
                    24.699867
                ]
            }
        },
        {
            "type": "Feature",
            "properties": {
                "shop": "北埔糧行",
                "category": "餐飲",
                "area": "北埔鄉",
                "market_address": "新竹縣北埔鄉南興村１１鄰南興街６５號",
                "pay_list": "悠遊卡\/街口"
            },
            "geometry": {
                "type": "Point",
                "coordinates": [
                    121.057387,
                    24.699559
                ]
            }
        },
        {
            "type": "Feature",
            "properties": {
                "shop": "北埔擂茶堂",
                "category": "餐飲",
                "area": "北埔鄉",
                "market_address": "新竹縣北埔鄉南興村１０鄰廟前街４―１號１樓",
                "pay_list": "台灣pay\/信用卡\/街口\/LINE Pay Money"
            },
            "geometry": {
                "type": "Point",
                "coordinates": [
                    121.05751392684,
                    24.698883121855
                ]
            }
        },
        {
            "type": "Feature",
            "properties": {
                "shop": "北埔廟前粄條",
                "category": "餐飲",
                "area": "北埔鄉",
                "market_address": "新竹縣北埔鄉南興村北埔街１３號１樓",
                "pay_list": "街口\/LINE Pay Money"
            },
            "geometry": {
                "type": "Point",
                "coordinates": [
                    121.057597,
                    24.699665
                ]
            }
        },
        {
            "type": "Feature",
            "properties": {
                "shop": "北埔印象庭園景觀",
                "category": "餐飲",
                "area": "北埔鄉",
                "market_address": "新竹縣北埔鄉水磜村麻布樹排５０號",
                "pay_list": "台灣pay"
            },
            "geometry": {
                "type": "Point",
                "coordinates": [
                    121.07593873584,
                    24.713681699871
                ]
            }
        },
        {
            "type": "Feature",
            "properties": {
                "shop": "化石先生股份有限公司綠世界店",
                "category": "餐飲",
                "area": "北埔鄉",
                "market_address": "新竹縣北埔鄉大湖村７鄰２１號",
                "pay_list": "台灣pay\/信用卡\/LINE Pay Money\/悠遊付"
            },
            "geometry": {
                "type": "Point",
                "coordinates": [
                    121.072525,
                    24.699646
                ]
            }
        },
        {
            "type": "Feature",
            "properties": {
                "shop": "勝珍軒商號",
                "category": "餐飲",
                "area": "北埔鄉",
                "market_address": "新竹縣北埔鄉北埔村００７鄰南興街１４２號１、２樓",
                "pay_list": "街口\/LINE Pay Money"
            },
            "geometry": {
                "type": "Point",
                "coordinates": [
                    121.05716,
                    24.701295
                ]
            }
        },
        {
            "type": "Feature",
            "properties": {
                "shop": "光君茶業有限公司",
                "category": "餐飲",
                "area": "北埔鄉",
                "market_address": "新竹縣北埔鄉水磜村麻布樹排３１號",
                "pay_list": "台灣pay\/信用卡\/悠遊卡\/街口\/LINE Pay Money"
            },
            "geometry": {
                "type": "Point",
                "coordinates": [
                    121.06852202755,
                    24.70718998538
                ]
            }
        },
        {
            "type": "Feature",
            "properties": {
                "shop": "仙姆食府實業有限公司",
                "category": "餐飲",
                "area": "北埔鄉",
                "market_address": "新竹縣北埔鄉水磜村００６鄰水磜子３２之１０號",
                "pay_list": "LINE Pay Money"
            },
            "geometry": {
                "type": "Point",
                "coordinates": [
                    121.060087,
                    24.716259
                ]
            }
        },
        {
            "type": "Feature",
            "properties": {
                "shop": "一等香麵食館",
                "category": "餐飲",
                "area": "北埔鄉",
                "market_address": "新竹縣北埔鄉北埔村００７鄰中山路４４號",
                "pay_list": "台灣pay\/悠遊卡\/街口\/LINE Pay Money"
            },
            "geometry": {
                "type": "Point",
                "coordinates": [
                    121.055938,
                    24.701936
                ]
            }
        },
        {
            "type": "Feature",
            "properties": {
                "shop": "CoCo都可 新竹北埔店",
                "category": "餐飲",
                "area": "北埔鄉",
                "market_address": "新竹縣北埔鄉北埔村００７鄰南興街１５２號１樓",
                "pay_list": "悠遊付\/悠遊卡\/街口\/LINE Pay Money"
            },
            "geometry": {
                "type": "Point",
                "coordinates": [
                    121.057318,
                    24.701636
                ]
            }
        },
        {
            "type": "Feature",
            "properties": {
                "shop": "巧馨麵包坊",
                "category": "糕餅",
                "area": "寶山鄉",
                "market_address": "新竹縣寶山鄉雙溪村９鄰三峰路１２號１樓",
                "pay_list": "台灣pay"
            },
            "geometry": {
                "type": "Point",
                "coordinates": [
                    121.000459,
                    24.745529
                ]
            }
        },
        {
            "type": "Feature",
            "properties": {
                "shop": "好客食品坊",
                "category": "糕餅",
                "area": "寶山鄉",
                "market_address": "新竹縣寶山鄉雙新村雙園路二段３８１號",
                "pay_list": "台灣pay\/信用卡"
            },
            "geometry": {
                "type": "Point",
                "coordinates": [
                    120.989118,
                    24.764111
                ]
            }
        },
        {
            "type": "Feature",
            "properties": {
                "shop": "阿爐土雞園",
                "category": "餐飲",
                "area": "寶山鄉",
                "market_address": "新竹縣寶山鄉三峰村三峰路一段２４９巷５號",
                "pay_list": "台灣pay\/信用卡"
            },
            "geometry": {
                "type": "Point",
                "coordinates": [
                    120.997663,
                    24.725943
                ]
            }
        },
        {
            "type": "Feature",
            "properties": {
                "shop": "阿婆大湯圓",
                "category": "餐飲",
                "area": "寶山鄉",
                "market_address": "新竹縣寶山鄉三峰村９鄰湳坑路１段１７１號",
                "pay_list": "台灣pay\/信用卡"
            },
            "geometry": {
                "type": "Point",
                "coordinates": [
                    120.992501,
                    24.748587
                ]
            }
        },
        {
            "type": "Feature",
            "properties": {
                "shop": "皇冠咖啡商行",
                "category": "餐飲",
                "area": "寶山鄉",
                "market_address": "新竹縣寶山鄉雙新村湳坑三街１６號",
                "pay_list": "LINE Pay Money"
            },
            "geometry": {
                "type": "Point",
                "coordinates": [
                    120.991736,
                    24.752904
                ]
            }
        },
        {
            "type": "Feature",
            "properties": {
                "shop": "海水屋餐廳",
                "category": "餐飲",
                "area": "寶山鄉",
                "market_address": "新竹縣寶山鄉雙溪村雙豐路１６８號",
                "pay_list": "信用卡"
            },
            "geometry": {
                "type": "Point",
                "coordinates": [
                    120.989334,
                    24.768208
                ]
            }
        },
        {
            "type": "Feature",
            "properties": {
                "shop": "沙湖壢咖啡",
                "category": "餐飲",
                "area": "寶山鄉",
                "market_address": "新竹縣寶山鄉山湖村山湖路６３號",
                "pay_list": "台灣pay\/信用卡"
            },
            "geometry": {
                "type": "Point",
                "coordinates": [
                    121.044635,
                    24.750122
                ]
            }
        },
        {
            "type": "Feature",
            "properties": {
                "shop": "樂比咖啡",
                "category": "餐飲",
                "area": "寶山鄉",
                "market_address": "新竹縣寶山鄉大崎村雙園路一段２巷６號１樓",
                "pay_list": "悠遊卡\/LINE Pay Money"
            },
            "geometry": {
                "type": "Point",
                "coordinates": [
                    121.005442,
                    24.770707
                ]
            }
        },
        {
            "type": "Feature",
            "properties": {
                "shop": "德香寧貿易有限公司",
                "category": "餐飲",
                "area": "寶山鄉",
                "market_address": "新竹縣寶山鄉雙溪村湳坑路２段８１巷２弄６號１樓",
                "pay_list": "台灣pay"
            },
            "geometry": {
                "type": "Point",
                "coordinates": [
                    120.989902,
                    24.763328
                ]
            }
        },
        {
            "type": "Feature",
            "properties": {
                "shop": "寶山宏禧鐵板燒旗艦店",
                "category": "餐飲",
                "area": "寶山鄉",
                "market_address": "新竹縣寶山鄉大崎村雙園路二段１７９－４號",
                "pay_list": "台灣pay\/信用卡"
            },
            "geometry": {
                "type": "Point",
                "coordinates": [
                    120.999567,
                    24.767319
                ]
            }
        },
        {
            "type": "Feature",
            "properties": {
                "shop": "宇軒商行",
                "category": "餐飲",
                "area": "寶山鄉",
                "market_address": "新竹縣寶山鄉雙溪村雙園路二段３６３號１樓",
                "pay_list": "台灣pay\/信用卡\/街口\/LINE Pay Money"
            },
            "geometry": {
                "type": "Point",
                "coordinates": [
                    120.989734,
                    24.764512
                ]
            }
        },
        {
            "type": "Feature",
            "properties": {
                "shop": "大觀饗宴股份有限公司",
                "category": "餐飲",
                "area": "寶山鄉",
                "market_address": "新竹縣寶山鄉大崎村雙園路二段１７９－４號",
                "pay_list": "信用卡"
            },
            "geometry": {
                "type": "Point",
                "coordinates": [
                    120.999567,
                    24.767319
                ]
            }
        },
        {
            "type": "Feature",
            "properties": {
                "shop": "大苑子台積電2&5廠門市",
                "category": "餐飲",
                "area": "寶山鄉",
                "market_address": "新竹縣寶山鄉園區三路121號",
                "pay_list": "信用卡\/台灣Pay\/悠遊付"
            },
            "geometry": {
                "type": "Point",
                "coordinates": [
                    120.998062,
                    24.774196
                ]
            }
        },
        {
            "type": "Feature",
            "properties": {
                "shop": "喜多多食坊",
                "category": "餐飲",
                "area": "寶山鄉",
                "market_address": "新竹縣寶山鄉雙新村雙園路二段４１０號",
                "pay_list": "台灣pay\/LINE Pay Money"
            },
            "geometry": {
                "type": "Point",
                "coordinates": [
                    120.988765,
                    24.764135
                ]
            }
        },
        {
            "type": "Feature",
            "properties": {
                "shop": "初夏生活茶飲店",
                "category": "餐飲",
                "area": "寶山鄉",
                "market_address": "新竹縣寶山鄉雙溪村００３鄰雙園路二段３３１號１樓",
                "pay_list": "LINE Pay Money"
            },
            "geometry": {
                "type": "Point",
                "coordinates": [
                    120.990503,
                    24.765288
                ]
            }
        },
        {
            "type": "Feature",
            "properties": {
                "shop": "佳禾日式炭燒",
                "category": "餐飲",
                "area": "寶山鄉",
                "market_address": "新竹縣寶山鄉雙新村明湖路５７號",
                "pay_list": "信用卡\/歐付寶\/LINE Pay Money"
            },
            "geometry": {
                "type": "Point",
                "coordinates": [
                    120.987275,
                    24.764683
                ]
            }
        },
        {
            "type": "Feature",
            "properties": {
                "shop": "CoCo都可 園區寶山店",
                "category": "餐飲",
                "area": "寶山鄉",
                "market_address": "新竹縣寶山鄉雙溪村雙園路２段３３９號１樓",
                "pay_list": "悠遊付\/悠遊卡\/街口\/LINE Pay Money"
            },
            "geometry": {
                "type": "Point",
                "coordinates": [
                    120.990365,
                    24.765149
                ]
            }
        },
        {
            "type": "Feature",
            "properties": {
                "shop": "６號花園",
                "category": "餐飲",
                "area": "尖石鄉",
                "market_address": "新竹縣尖石鄉新樂村拉號部落６號花園",
                "pay_list": "台灣pay"
            },
            "geometry": {
                "type": "Point",
                "coordinates": [
                    121.281874,
                    24.7241
                ]
            }
        },
        {
            "type": "Feature",
            "properties": {
                "shop": "魯壁民宿山莊",
                "category": "餐飲",
                "area": "尖石鄉",
                "market_address": "新竹縣尖石鄉玉峰村宇老５號",
                "pay_list": "台灣pay\/信用卡"
            },
            "geometry": {
                "type": "Point",
                "coordinates": [
                    121.282077,
                    24.667014
                ]
            }
        },
        {
            "type": "Feature",
            "properties": {
                "shop": "青秀小館",
                "category": "餐飲",
                "area": "尖石鄉",
                "market_address": "新竹縣尖石鄉錦屏村錦屏３２號２樓",
                "pay_list": "台灣pay"
            },
            "geometry": {
                "type": "Point",
                "coordinates": [
                    121.211025,
                    24.673279
                ]
            }
        },
        {
            "type": "Feature",
            "properties": {
                "shop": "達榮美食坊",
                "category": "餐飲",
                "area": "尖石鄉",
                "market_address": "新竹縣尖石鄉錦屏村００５鄰錦屏６９號２樓",
                "pay_list": "台灣pay\/信用卡"
            },
            "geometry": {
                "type": "Point",
                "coordinates": [
                    121.207886,
                    24.67047
                ]
            }
        },
        {
            "type": "Feature",
            "properties": {
                "shop": "薰衣草森林-尖石店",
                "category": "餐飲",
                "area": "尖石鄉",
                "market_address": "新竹縣尖石鄉嘉樂村嘉樂１２９號１樓",
                "pay_list": "信用卡\/LINE Pay Money\/iPASS 一卡通"
            },
            "geometry": {
                "type": "Point",
                "coordinates": [
                    121.233232,
                    24.732536
                ]
            }
        },
        {
            "type": "Feature",
            "properties": {
                "shop": "萃萃咖啡商號",
                "category": "餐飲",
                "area": "尖石鄉",
                "market_address": "新竹縣尖石鄉嘉樂村麥樹仁１５１號１樓",
                "pay_list": "信用卡"
            },
            "geometry": {
                "type": "Point",
                "coordinates": [
                    121.20827,
                    24.706886
                ]
            }
        },
        {
            "type": "Feature",
            "properties": {
                "shop": "紅薔薇",
                "category": "餐飲",
                "area": "尖石鄉",
                "market_address": "新竹縣尖石鄉新樂村１１鄰拉號部落",
                "pay_list": "台灣pay"
            },
            "geometry": {
                "type": "Point",
                "coordinates": [
                    121.250461,
                    24.726762
                ]
            }
        },
        {
            "type": "Feature",
            "properties": {
                "shop": "禾樂溫民宿",
                "category": "餐飲",
                "area": "尖石鄉",
                "market_address": "新竹縣尖石鄉秀巒村００８鄰斯馬庫斯２１號",
                "pay_list": "信用卡"
            },
            "geometry": {
                "type": "Point",
                "coordinates": [
                    121.303203,
                    24.579096
                ]
            }
        },
        {
            "type": "Feature",
            "properties": {
                "shop": "石上實業有限公司",
                "category": "餐飲",
                "area": "尖石鄉",
                "market_address": "新竹縣尖石鄉嘉樂村７鄰嘉樂４５號",
                "pay_list": "信用卡"
            },
            "geometry": {
                "type": "Point",
                "coordinates": [
                    121.222791,
                    24.730172
                ]
            }
        },
        {
            "type": "Feature",
            "properties": {
                "shop": "真泉有限公司",
                "category": "餐飲",
                "area": "尖石鄉",
                "market_address": "新竹縣尖石鄉義興村００１鄰尖石２１號",
                "pay_list": "台灣pay\/信用卡"
            },
            "geometry": {
                "type": "Point",
                "coordinates": [
                    121.212132,
                    24.703343
                ]
            }
        },
        {
            "type": "Feature",
            "properties": {
                "shop": "由達休閒事業有限公司",
                "category": "餐飲",
                "area": "尖石鄉",
                "market_address": "新竹縣尖石鄉錦屏村５鄰錦屏６９號１樓",
                "pay_list": "信用卡\/LINE Pay Money"
            },
            "geometry": {
                "type": "Point",
                "coordinates": [
                    121.207886,
                    24.67047
                ]
            }
        },
        {
            "type": "Feature",
            "properties": {
                "shop": "永泉休閒股份有限公司",
                "category": "餐飲",
                "area": "尖石鄉",
                "market_address": "新竹縣尖石鄉嘉樂村１４鄰嘉樂１６０號",
                "pay_list": "信用卡"
            },
            "geometry": {
                "type": "Point",
                "coordinates": [
                    121.235676,
                    24.721937
                ]
            }
        },
        {
            "type": "Feature",
            "properties": {
                "shop": "水田部落",
                "category": "餐飲",
                "area": "尖石鄉",
                "market_address": "新竹縣尖石鄉新樂村水田１０號",
                "pay_list": "台灣pay"
            },
            "geometry": {
                "type": "Point",
                "coordinates": [
                    121.250463,
                    24.731741
                ]
            }
        },
        {
            "type": "Feature",
            "properties": {
                "shop": "李媽媽小吃店",
                "category": "餐飲",
                "area": "尖石鄉",
                "market_address": "新竹縣尖石鄉錦屏村那羅２２３號",
                "pay_list": "台灣pay"
            },
            "geometry": {
                "type": "Point",
                "coordinates": [
                    121.251932,
                    24.676589
                ]
            }
        },
        {
            "type": "Feature",
            "properties": {
                "shop": "會來餐廳有限公司",
                "category": "餐飲",
                "area": "尖石鄉",
                "market_address": "新竹縣尖石鄉嘉樂村麥樹仁１７７－１號１樓",
                "pay_list": "台灣pay\/信用卡"
            },
            "geometry": {
                "type": "Point",
                "coordinates": [
                    121.208248,
                    24.705487
                ]
            }
        },
        {
            "type": "Feature",
            "properties": {
                "shop": "會來尖石有限公司",
                "category": "餐飲",
                "area": "尖石鄉",
                "market_address": "新竹縣尖石鄉嘉樂村３鄰麥樹仁１７７－１號１樓",
                "pay_list": "台灣pay\/信用卡"
            },
            "geometry": {
                "type": "Point",
                "coordinates": [
                    121.208248,
                    24.705487
                ]
            }
        },
        {
            "type": "Feature",
            "properties": {
                "shop": "挪亞民宿",
                "category": "餐飲",
                "area": "尖石鄉",
                "market_address": "新竹縣尖石鄉義興村８鄰馬胎５４號",
                "pay_list": "街口"
            },
            "geometry": {
                "type": "Point",
                "coordinates": [
                    121.178002,
                    24.689682
                ]
            }
        },
        {
            "type": "Feature",
            "properties": {
                "shop": "嶺海山林休閒育樂有限公司",
                "category": "餐飲",
                "area": "尖石鄉",
                "market_address": "新竹縣尖石鄉新樂村１０鄰１４５－１號",
                "pay_list": "信用卡\/LINE Pay Money"
            },
            "geometry": {
                "type": "Point",
                "coordinates": [
                    121.283103,
                    24.706461
                ]
            }
        },
        {
            "type": "Feature",
            "properties": {
                "shop": "山樂林原味小舖",
                "category": "餐飲",
                "area": "尖石鄉",
                "market_address": "新竹縣尖石鄉錦屏村０１２鄰那羅２２９號",
                "pay_list": "台灣pay"
            },
            "geometry": {
                "type": "Point",
                "coordinates": [
                    121.252277,
                    24.675491
                ]
            }
        },
        {
            "type": "Feature",
            "properties": {
                "shop": "尖石不怕餐館",
                "category": "餐飲",
                "area": "尖石鄉",
                "market_address": "新竹縣尖石鄉義興村００１鄰尖石３７號１樓",
                "pay_list": "台灣pay\/信用卡"
            },
            "geometry": {
                "type": "Point",
                "coordinates": [
                    121.21096,
                    24.703773
                ]
            }
        },
        {
            "type": "Feature",
            "properties": {
                "shop": "凌雲閣飲食坊",
                "category": "餐飲",
                "area": "尖石鄉",
                "market_address": "新竹縣尖石鄉玉峰村宇老７號",
                "pay_list": "台灣pay\/信用卡"
            },
            "geometry": {
                "type": "Point",
                "coordinates": [
                    121.279802,
                    24.665752
                ]
            }
        },
        {
            "type": "Feature",
            "properties": {
                "shop": "八五山泉民宿",
                "category": "餐飲",
                "area": "尖石鄉",
                "market_address": "新竹縣尖石鄉新樂村８鄰煤源３６－２號",
                "pay_list": "信用卡"
            },
            "geometry": {
                "type": "Point",
                "coordinates": [
                    121.27571,
                    24.716009
                ]
            }
        },
        {
            "type": "Feature",
            "properties": {
                "shop": "不老居商行",
                "category": "餐飲",
                "area": "尖石鄉",
                "market_address": "新竹縣尖石鄉新樂村１０鄰煤源６１號",
                "pay_list": "台灣pay\/信用卡\/悠遊卡\/LINE Pay Money"
            },
            "geometry": {
                "type": "Point",
                "coordinates": [
                    121.269336,
                    24.713508
                ]
            }
        },
        {
            "type": "Feature",
            "properties": {
                "shop": "黃金傳說食品有限公司",
                "category": "餐飲\/糕餅",
                "area": "峨眉鄉",
                "market_address": "新竹縣峨眉鄉湖光村０１１鄰十寮坑３７－６號",
                "pay_list": "LINE Pay Money"
            },
            "geometry": {
                "type": "Point",
                "coordinates": [
                    120.986255,
                    24.668568
                ]
            }
        },
        {
            "type": "Feature",
            "properties": {
                "shop": "黃金傳說烘焙坊",
                "category": "餐飲\/糕餅",
                "area": "峨眉鄉",
                "market_address": "新竹縣峨眉鄉湖光村１４鄰西河排８之１３號臨",
                "pay_list": "台灣pay\/信用卡\/LINE Pay Money"
            },
            "geometry": {
                "type": "Point",
                "coordinates": [
                    120.982642,
                    24.671198
                ]
            }
        },
        {
            "type": "Feature",
            "properties": {
                "shop": "大姑姑香酥豆干",
                "category": "糕餅",
                "area": "峨眉鄉",
                "market_address": "新竹縣峨眉鄉富興村５鄰太平街１巷１－１號前面",
                "pay_list": "台灣pay"
            },
            "geometry": {
                "type": "Point",
                "coordinates": [
                    120.987799,
                    24.687145
                ]
            }
        },
        {
            "type": "Feature",
            "properties": {
                "shop": "黃金傳說食品有限公司",
                "category": "餐飲\/糕餅",
                "area": "峨眉鄉",
                "market_address": "新竹縣峨眉鄉湖光村０１１鄰十寮坑３７－６號",
                "pay_list": "LINE Pay Money"
            },
            "geometry": {
                "type": "Point",
                "coordinates": [
                    120.986255,
                    24.668568
                ]
            }
        },
        {
            "type": "Feature",
            "properties": {
                "shop": "黃金傳說烘焙坊",
                "category": "餐飲\/糕餅",
                "area": "峨眉鄉",
                "market_address": "新竹縣峨眉鄉湖光村１４鄰西河排８之１３號臨",
                "pay_list": "台灣pay\/信用卡\/LINE Pay Money"
            },
            "geometry": {
                "type": "Point",
                "coordinates": [
                    120.982642,
                    24.671198
                ]
            }
        },
        {
            "type": "Feature",
            "properties": {
                "shop": "綠光水岸複合式餐廳",
                "category": "餐飲",
                "area": "峨眉鄉",
                "market_address": "新竹縣峨眉鄉石井村００１鄰１―４號",
                "pay_list": "台灣pay\/信用卡"
            },
            "geometry": {
                "type": "Point",
                "coordinates": [
                    120.995245,
                    24.705933
                ]
            }
        },
        {
            "type": "Feature",
            "properties": {
                "shop": "歇心茶樓",
                "category": "餐飲",
                "area": "峨眉鄉",
                "market_address": "新竹縣峨眉鄉七星村１４鄰六寮６０―８號１樓",
                "pay_list": "台灣pay"
            },
            "geometry": {
                "type": "Point",
                "coordinates": [
                    121.02258370344,
                    24.655886054107
                ]
            }
        },
        {
            "type": "Feature",
            "properties": {
                "shop": "快樂咖啡坊",
                "category": "餐飲",
                "area": "峨眉鄉",
                "market_address": "新竹縣峨眉鄉湖光村００８鄰快樂路７號",
                "pay_list": "信用卡"
            },
            "geometry": {
                "type": "Point",
                "coordinates": [
                    120.989992,
                    24.681094
                ]
            }
        },
        {
            "type": "Feature",
            "properties": {
                "shop": "和軒茶業有限公司",
                "category": "餐飲",
                "area": "峨眉鄉",
                "market_address": "新竹縣峨眉鄉湖光村０１１鄰湖農新邨８號",
                "pay_list": "信用卡\/LINE Pay Money"
            },
            "geometry": {
                "type": "Point",
                "coordinates": [
                    120.987056,
                    24.664669
                ]
            }
        },
        {
            "type": "Feature",
            "properties": {
                "shop": "桔林坊食品行",
                "category": "糕餅",
                "area": "新埔鎮",
                "market_address": "新竹縣新埔鎮新民里中正路５９９號",
                "pay_list": "台灣pay"
            },
            "geometry": {
                "type": "Point",
                "coordinates": [
                    121.071473,
                    24.827608
                ]
            }
        },
        {
            "type": "Feature",
            "properties": {
                "shop": "85度C 新埔中正店",
                "category": "餐飲\/糕餅",
                "area": "新埔鎮",
                "market_address": "新竹縣新埔鎮四座里中正路２０３號",
                "pay_list": "Pi 拍錢包\/台灣pay\/信用卡\/悠遊付\/LINE Pay Money"
            },
            "geometry": {
                "type": "Point",
                "coordinates": [
                    121.080997,
                    24.827321
                ]
            }
        },
        {
            "type": "Feature",
            "properties": {
                "shop": "龍記饌米食專賣店",
                "category": "餐飲",
                "area": "新埔鎮",
                "market_address": "新竹縣新埔鎮文華路１４８號１樓",
                "pay_list": "台灣pay\/信用卡"
            },
            "geometry": {
                "type": "Point",
                "coordinates": [
                    121.040249,
                    24.829446
                ]
            }
        },
        {
            "type": "Feature",
            "properties": {
                "shop": "黑沃咖啡 遠東店",
                "category": "餐飲",
                "area": "新埔鎮",
                "market_address": "新竹縣新埔鎮文山路亞東段369號",
                "pay_list": "信用卡\/台灣pay\/悠遊卡\/LINE Pay Money"
            },
            "geometry": {
                "type": "Point",
                "coordinates": [
                    121.05622,
                    24.826868
                ]
            }
        },
        {
            "type": "Feature",
            "properties": {
                "shop": "麥味登幸褔早午餐",
                "category": "餐飲",
                "area": "新埔鎮",
                "market_address": "新竹縣新埔鎮四座里中正路１１０號１樓",
                "pay_list": "Pi 拍錢包\/信用卡\/悠遊卡"
            },
            "geometry": {
                "type": "Point",
                "coordinates": [
                    121.084823,
                    24.826609
                ]
            }
        },
        {
            "type": "Feature",
            "properties": {
                "shop": "鴻福樓庭園小館",
                "category": "餐飲",
                "area": "新埔鎮",
                "market_address": "新竹縣新埔鎮下寮里義民路３段３５７號",
                "pay_list": "信用卡"
            },
            "geometry": {
                "type": "Point",
                "coordinates": [
                    121.034921,
                    24.843084
                ]
            }
        },
        {
            "type": "Feature",
            "properties": {
                "shop": "駿德店",
                "category": "餐飲",
                "area": "新埔鎮",
                "market_address": "新竹縣新埔鎮中正路７２８號１樓",
                "pay_list": "台灣pay\/LINE Pay Money"
            },
            "geometry": {
                "type": "Point",
                "coordinates": [
                    121.072193,
                    24.828015
                ]
            }
        },
        {
            "type": "Feature",
            "properties": {
                "shop": "馥園海鮮料理",
                "category": "餐飲",
                "area": "新埔鎮",
                "market_address": "新竹縣新埔鎮四座里中正路１２３號１樓",
                "pay_list": "台灣pay"
            },
            "geometry": {
                "type": "Point",
                "coordinates": [
                    121.083095,
                    24.826778
                ]
            }
        },
        {
            "type": "Feature",
            "properties": {
                "shop": "食芳美食",
                "category": "餐飲",
                "area": "新埔鎮",
                "market_address": "新竹縣新埔鎮文山里００４鄰文山路亞東段２４６號１樓",
                "pay_list": "信用卡"
            },
            "geometry": {
                "type": "Point",
                "coordinates": [
                    121.061578,
                    24.824677
                ]
            }
        },
        {
            "type": "Feature",
            "properties": {
                "shop": "韓國屋複合式料理",
                "category": "餐飲",
                "area": "新埔鎮",
                "market_address": "新竹縣新埔鎮上寮里義民路２段４２６號",
                "pay_list": "信用卡\/悠遊卡"
            },
            "geometry": {
                "type": "Point",
                "coordinates": [
                    121.049805,
                    24.837116
                ]
            }
        },
        {
            "type": "Feature",
            "properties": {
                "shop": "醜小鴨咖啡館",
                "category": "餐飲",
                "area": "新埔鎮",
                "market_address": "新竹縣新埔鎮上樟路１段２９１巷６號１樓",
                "pay_list": "台灣pay"
            },
            "geometry": {
                "type": "Point",
                "coordinates": [
                    121.081941,
                    24.833331
                ]
            }
        },
        {
            "type": "Feature",
            "properties": {
                "shop": "虹昇冷飲店",
                "category": "餐飲",
                "area": "新埔鎮",
                "market_address": "新竹縣新埔鎮新民里３鄰中正路７１６號",
                "pay_list": "街口\/LINE Pay Money\/悠遊付\/橘子支付"
            },
            "geometry": {
                "type": "Point",
                "coordinates": [
                    121.07243,
                    24.827947
                ]
            }
        },
        {
            "type": "Feature",
            "properties": {
                "shop": "肥媽餐坊",
                "category": "餐飲",
                "area": "新埔鎮",
                "market_address": "新竹縣新埔鎮上寮里義民路二段４２６號１樓",
                "pay_list": "LINE Pay Money"
            },
            "geometry": {
                "type": "Point",
                "coordinates": [
                    121.049805,
                    24.837116
                ]
            }
        },
        {
            "type": "Feature",
            "properties": {
                "shop": "翔發食品企業社",
                "category": "餐飲",
                "area": "新埔鎮",
                "market_address": "新竹縣新埔鎮五埔里百好街１７號１樓",
                "pay_list": "台灣pay"
            },
            "geometry": {
                "type": "Point",
                "coordinates": [
                    121.092602,
                    24.823308
                ]
            }
        },
        {
            "type": "Feature",
            "properties": {
                "shop": "美湘美食坊",
                "category": "餐飲",
                "area": "新埔鎮",
                "market_address": "新竹縣新埔鎮中正路２１１號１樓",
                "pay_list": "台灣pay\/悠遊卡\/街口\/LINE Pay Money"
            },
            "geometry": {
                "type": "Point",
                "coordinates": [
                    121.080662,
                    24.827271
                ]
            }
        },
        {
            "type": "Feature",
            "properties": {
                "shop": "紅瓦屋小館",
                "category": "餐飲",
                "area": "新埔鎮",
                "market_address": "新竹縣新埔鎮田新里廣和路３３號",
                "pay_list": "台灣pay"
            },
            "geometry": {
                "type": "Point",
                "coordinates": [
                    121.074808,
                    24.826498
                ]
            }
        },
        {
            "type": "Feature",
            "properties": {
                "shop": "禾味企業社",
                "category": "餐飲",
                "area": "新埔鎮",
                "market_address": "新竹縣新埔鎮文山里文山路犁頭山段１０３６號",
                "pay_list": "台灣pay\/信用卡"
            },
            "geometry": {
                "type": "Point",
                "coordinates": [
                    121.028298,
                    24.833741
                ]
            }
        },
        {
            "type": "Feature",
            "properties": {
                "shop": "皇家品味",
                "category": "餐飲",
                "area": "新埔鎮",
                "market_address": "新竹縣新埔鎮五埔里三聖路１６５巷１２號１樓",
                "pay_list": "台灣pay"
            },
            "geometry": {
                "type": "Point",
                "coordinates": [
                    121.091669,
                    24.827658
                ]
            }
        },
        {
            "type": "Feature",
            "properties": {
                "shop": "普羅旺斯玫瑰莊園",
                "category": "餐飲",
                "area": "新埔鎮",
                "market_address": "新竹縣新埔鎮巨埔里新龍路２３０巷５０號",
                "pay_list": "信用卡"
            },
            "geometry": {
                "type": "Point",
                "coordinates": [
                    121.109309,
                    24.836369
                ]
            }
        },
        {
            "type": "Feature",
            "properties": {
                "shop": "日勝飲食店",
                "category": "餐飲",
                "area": "新埔鎮",
                "market_address": "新竹縣新埔鎮新埔里和平街６８號",
                "pay_list": "台灣pay"
            },
            "geometry": {
                "type": "Point",
                "coordinates": [
                    121.078267,
                    24.82709
                ]
            }
        },
        {
            "type": "Feature",
            "properties": {
                "shop": "新竹新埔50嵐門市",
                "category": "餐飲",
                "area": "新埔鎮",
                "market_address": "新竹縣新埔鎮四座里中正路３００號",
                "pay_list": "icash pay\/信用卡\/悠遊卡\/LINE Pay Money"
            },
            "geometry": {
                "type": "Point",
                "coordinates": [
                    121.080623,
                    24.827762
                ]
            }
        },
        {
            "type": "Feature",
            "properties": {
                "shop": "新埔鎮農會供銷部",
                "category": "餐飲",
                "area": "新埔鎮",
                "market_address": "新竹縣新埔鎮四座里楊新路１段３２２號",
                "pay_list": "icash pay\/台灣pay\/信用卡\/悠遊卡\/街口"
            },
            "geometry": {
                "type": "Point",
                "coordinates": [
                    121.087698,
                    24.831114
                ]
            }
        },
        {
            "type": "Feature",
            "properties": {
                "shop": "新埔粄條",
                "category": "餐飲",
                "area": "新埔鎮",
                "market_address": "新竹縣新埔鎮中正路８８８號",
                "pay_list": "台灣pay"
            },
            "geometry": {
                "type": "Point",
                "coordinates": [
                    121.0688,
                    24.827857
                ]
            }
        },
        {
            "type": "Feature",
            "properties": {
                "shop": "意吉有限公司",
                "category": "餐飲",
                "area": "新埔鎮",
                "market_address": "新竹縣新埔鎮義民路一段１５８號１樓",
                "pay_list": "信用卡"
            },
            "geometry": {
                "type": "Point",
                "coordinates": [
                    121.067189,
                    24.829659
                ]
            }
        },
        {
            "type": "Feature",
            "properties": {
                "shop": "廟前小吃店",
                "category": "餐飲",
                "area": "新埔鎮",
                "market_address": "新竹縣新埔鎮田新里田新路２７５號",
                "pay_list": "台灣pay"
            },
            "geometry": {
                "type": "Point",
                "coordinates": [
                    121.078956,
                    24.824532
                ]
            }
        },
        {
            "type": "Feature",
            "properties": {
                "shop": "巧登飲食店",
                "category": "餐飲",
                "area": "新埔鎮",
                "market_address": "新竹縣新埔鎮四座里００３鄰仁愛路３０號",
                "pay_list": "悠遊卡\/LINE Pay Money"
            },
            "geometry": {
                "type": "Point",
                "coordinates": [
                    121.080573,
                    24.82692
                ]
            }
        },
        {
            "type": "Feature",
            "properties": {
                "shop": "尹均小吃店",
                "category": "餐飲",
                "area": "新埔鎮",
                "market_address": "新竹縣新埔鎮中正路３３２號",
                "pay_list": "街口"
            },
            "geometry": {
                "type": "Point",
                "coordinates": [
                    121.080147,
                    24.82807
                ]
            }
        },
        {
            "type": "Feature",
            "properties": {
                "shop": "尹均小吃店",
                "category": "餐飲",
                "area": "新埔鎮",
                "market_address": "新竹縣新埔鎮中正路３３２號",
                "pay_list": "LINE Pay Money"
            },
            "geometry": {
                "type": "Point",
                "coordinates": [
                    121.080147,
                    24.82807
                ]
            }
        },
        {
            "type": "Feature",
            "properties": {
                "shop": "壹壹玖串燒烤",
                "category": "餐飲",
                "area": "新埔鎮",
                "market_address": "新竹縣新埔鎮下寮里義民路３段７１７巷１７２號１樓",
                "pay_list": "台灣pay\/街口"
            },
            "geometry": {
                "type": "Point",
                "coordinates": [
                    121.0267,
                    24.845286
                ]
            }
        },
        {
            "type": "Feature",
            "properties": {
                "shop": "吧哩國古藝餐館",
                "category": "餐飲",
                "area": "新埔鎮",
                "market_address": "新竹縣新埔鎮田新里田新路７４１號",
                "pay_list": "台灣pay"
            },
            "geometry": {
                "type": "Point",
                "coordinates": [
                    121.067887,
                    24.826734
                ]
            }
        },
        {
            "type": "Feature",
            "properties": {
                "shop": "劉家莊燜雞",
                "category": "餐飲",
                "area": "新埔鎮",
                "market_address": "新竹縣新埔鎮照門里６鄰九芎湖１６－２號１樓",
                "pay_list": "台灣pay"
            },
            "geometry": {
                "type": "Point",
                "coordinates": [
                    121.105662,
                    24.856742
                ]
            }
        },
        {
            "type": "Feature",
            "properties": {
                "shop": "丫弟咕鴨肉麵食館",
                "category": "餐飲",
                "area": "新埔鎮",
                "market_address": "新竹縣新埔鎮田新里田新路３４８號",
                "pay_list": "台灣pay"
            },
            "geometry": {
                "type": "Point",
                "coordinates": [
                    121.079046,
                    24.824874
                ]
            }
        },
        {
            "type": "Feature",
            "properties": {
                "shop": "CoCo都可 新竹新埔店",
                "category": "餐飲",
                "area": "新埔鎮",
                "market_address": "新竹縣新埔鎮四座里中正路３０２號",
                "pay_list": "悠遊付\/悠遊卡\/街口\/LINE Pay Money"
            },
            "geometry": {
                "type": "Point",
                "coordinates": [
                    121.080571,
                    24.82771
                ]
            }
        },
        {
            "type": "Feature",
            "properties": {
                "shop": "85度C 新埔中正店",
                "category": "餐飲\/糕餅",
                "area": "新埔鎮",
                "market_address": "新竹縣新埔鎮四座里中正路２０３號",
                "pay_list": "Pi 拍錢包\/台灣pay\/信用卡\/悠遊付\/LINE Pay Money"
            },
            "geometry": {
                "type": "Point",
                "coordinates": [
                    121.080997,
                    24.827321
                ]
            }
        },
        {
            "type": "Feature",
            "properties": {
                "shop": "新庄子公有零售市場-筱薇服飾",
                "category": "夜市\/市場攤販",
                "area": "新豐鄉",
                "market_address": "新竹縣新豐鄉重興村建興路二段763號",
                "pay_list": "信用卡"
            },
            "geometry": {
                "type": "Point",
                "coordinates": [
                    120.986535,
                    24.900219
                ]
            }
        },
        {
            "type": "Feature",
            "properties": {
                "shop": "詰尼諾精緻蛋糕",
                "category": "糕餅",
                "area": "新豐鄉",
                "market_address": "新竹縣新豐鄉松林村泰安街７１﹒７３號１樓",
                "pay_list": "台灣pay\/LINE Pay Money"
            },
            "geometry": {
                "type": "Point",
                "coordinates": [
                    120.993686,
                    24.870094
                ]
            }
        },
        {
            "type": "Feature",
            "properties": {
                "shop": "米契爾手製麵包坊",
                "category": "糕餅",
                "area": "新豐鄉",
                "market_address": "新竹縣新豐鄉松林村新興路１９１號１樓",
                "pay_list": "LINE Pay Money"
            },
            "geometry": {
                "type": "Point",
                "coordinates": [
                    120.995345,
                    24.869237
                ]
            }
        },
        {
            "type": "Feature",
            "properties": {
                "shop": "永香西點麵包",
                "category": "糕餅",
                "area": "新豐鄉",
                "market_address": "新竹縣新豐鄉山崎村建興路１段８０號",
                "pay_list": "台灣pay"
            },
            "geometry": {
                "type": "Point",
                "coordinates": [
                    120.99542,
                    24.871513
                ]
            }
        },
        {
            "type": "Feature",
            "properties": {
                "shop": "尼克烘焙坊",
                "category": "糕餅",
                "area": "新豐鄉",
                "market_address": "新竹縣新豐鄉山崎村建興路１段１３０號１樓",
                "pay_list": "LINE Pay Money"
            },
            "geometry": {
                "type": "Point",
                "coordinates": [
                    120.995033,
                    24.873187
                ]
            }
        },
        {
            "type": "Feature",
            "properties": {
                "shop": "夏之亭烘焙坊",
                "category": "餐飲\/糕餅",
                "area": "新豐鄉",
                "market_address": "新竹縣新豐鄉松林街３８號１樓",
                "pay_list": "LINE Pay Money"
            },
            "geometry": {
                "type": "Point",
                "coordinates": [
                    120.992592,
                    24.868634
                ]
            }
        },
        {
            "type": "Feature",
            "properties": {
                "shop": "半桶水烘焙坊",
                "category": "糕餅",
                "area": "新豐鄉",
                "market_address": "新竹縣新豐鄉山崎村福德街１１１號",
                "pay_list": "台灣pay"
            },
            "geometry": {
                "type": "Point",
                "coordinates": [
                    120.995506,
                    24.872845
                ]
            }
        },
        {
            "type": "Feature",
            "properties": {
                "shop": "龜記茗品 新竹新豐店",
                "category": "餐飲",
                "area": "新豐鄉",
                "market_address": "新竹縣新豐鄉山崎村建興路一段８９號一樓",
                "pay_list": "街口\/LINE Pay Money"
            },
            "geometry": {
                "type": "Point",
                "coordinates": [
                    120.994974,
                    24.871967
                ]
            }
        },
        {
            "type": "Feature",
            "properties": {
                "shop": "黑貓餐飲店",
                "category": "餐飲",
                "area": "新豐鄉",
                "market_address": "新竹縣新豐鄉建興路一段４１號１樓",
                "pay_list": "台灣pay"
            },
            "geometry": {
                "type": "Point",
                "coordinates": [
                    120.995468,
                    24.87075
                ]
            }
        },
        {
            "type": "Feature",
            "properties": {
                "shop": "麥當勞新豐新興分公司",
                "category": "餐飲",
                "area": "新豐鄉",
                "market_address": "新竹縣新豐鄉松林村新興路１８９－３號１樓",
                "pay_list": "信用卡\/LINE Pay Money"
            },
            "geometry": {
                "type": "Point",
                "coordinates": [
                    120.995177,
                    24.869091
                ]
            }
        },
        {
            "type": "Feature",
            "properties": {
                "shop": "鯊食比亞",
                "category": "餐飲",
                "area": "新豐鄉",
                "market_address": "新竹縣新豐鄉重興村振興街２２號１樓",
                "pay_list": "Pi 拍錢包\/信用卡\/悠遊卡\/LINE Pay Money"
            },
            "geometry": {
                "type": "Point",
                "coordinates": [
                    120.986802,
                    24.903516
                ]
            }
        },
        {
            "type": "Feature",
            "properties": {
                "shop": "駩浤美食小吃",
                "category": "餐飲",
                "area": "新豐鄉",
                "market_address": "新竹縣新豐鄉松林村新興路１３９號",
                "pay_list": "街口"
            },
            "geometry": {
                "type": "Point",
                "coordinates": [
                    120.992958,
                    24.867037
                ]
            }
        },
        {
            "type": "Feature",
            "properties": {
                "shop": "饕爺燒臘店",
                "category": "餐飲",
                "area": "新豐鄉",
                "market_address": "新竹縣新豐鄉崎頂村新庄子６０號１樓",
                "pay_list": "台灣pay\/街口\/LINE Pay Money"
            },
            "geometry": {
                "type": "Point",
                "coordinates": [
                    120.99251,
                    24.889461
                ]
            }
        },
        {
            "type": "Feature",
            "properties": {
                "shop": "食在幸福紅豆餅",
                "category": "餐飲",
                "area": "新豐鄉",
                "market_address": "新竹縣新豐鄉泰安街１０８號一樓",
                "pay_list": "LINE Pay Money"
            },
            "geometry": {
                "type": "Point",
                "coordinates": [
                    120.993423,
                    24.870913
                ]
            }
        },
        {
            "type": "Feature",
            "properties": {
                "shop": "靖揚餐飲",
                "category": "餐飲",
                "area": "新豐鄉",
                "market_address": "新竹縣新豐鄉山崎村文昌街１５７號",
                "pay_list": "街口\/LINE Pay Money"
            },
            "geometry": {
                "type": "Point",
                "coordinates": [
                    120.996652,
                    24.875692
                ]
            }
        },
        {
            "type": "Feature",
            "properties": {
                "shop": "青葉大旅舘",
                "category": "餐飲",
                "area": "新豐鄉",
                "market_address": "新竹縣新豐鄉山崎村１２鄰學府街１３０號８樓",
                "pay_list": "台灣pay\/信用卡"
            },
            "geometry": {
                "type": "Point",
                "coordinates": [
                    120.996427,
                    24.87134
                ]
            }
        },
        {
            "type": "Feature",
            "properties": {
                "shop": "雨霏咖啡館",
                "category": "餐飲",
                "area": "新豐鄉",
                "market_address": "新竹縣新豐鄉山崎村建興路一段１５９號一樓",
                "pay_list": "台灣pay\/悠遊卡\/LINE Pay Money"
            },
            "geometry": {
                "type": "Point",
                "coordinates": [
                    120.994162,
                    24.874966
                ]
            }
        },
        {
            "type": "Feature",
            "properties": {
                "shop": "雙喜樓餐廳",
                "category": "餐飲",
                "area": "新豐鄉",
                "market_address": "新竹縣新豐鄉山崎村２６鄰學府街２號",
                "pay_list": "信用卡"
            },
            "geometry": {
                "type": "Point",
                "coordinates": [
                    120.999055,
                    24.874296
                ]
            }
        },
        {
            "type": "Feature",
            "properties": {
                "shop": "雅嵐股份有限公司新豐明新50嵐門市",
                "category": "餐飲",
                "area": "新豐鄉",
                "market_address": "新竹縣新豐鄉新興路67號",
                "pay_list": "信用卡"
            },
            "geometry": {
                "type": "Point",
                "coordinates": [
                    120.992446,
                    24.866147
                ]
            }
        },
        {
            "type": "Feature",
            "properties": {
                "shop": "醇萃茶行",
                "category": "餐飲",
                "area": "新豐鄉",
                "market_address": "新竹縣新豐鄉松林村新興路１６７號１樓",
                "pay_list": "街口"
            },
            "geometry": {
                "type": "Point",
                "coordinates": [
                    120.993599,
                    24.867847
                ]
            }
        },
        {
            "type": "Feature",
            "properties": {
                "shop": "迷客夏 新竹新豐店",
                "category": "餐飲",
                "area": "新豐鄉",
                "market_address": "新竹縣新豐鄉員山村建興路一段１４號１樓",
                "pay_list": "台灣pay\/信用卡\/悠遊卡\/街口\/LINE Pay Money"
            },
            "geometry": {
                "type": "Point",
                "coordinates": [
                    120.994403,
                    24.882826
                ]
            }
        },
        {
            "type": "Feature",
            "properties": {
                "shop": "路易莎咖啡 新豐鑫豐店",
                "category": "餐飲",
                "area": "新豐鄉",
                "market_address": "新竹縣新豐鄉建興路一段１５５號",
                "pay_list": "台灣pay\/信用卡\/悠遊卡\/街口\/LINE Pay Money"
            },
            "geometry": {
                "type": "Point",
                "coordinates": [
                    120.994429,
                    24.87412
                ]
            }
        },
        {
            "type": "Feature",
            "properties": {
                "shop": "貴董水餃店",
                "category": "餐飲",
                "area": "新豐鄉",
                "market_address": "新竹縣新豐鄉忠孝村建興路１段１７９號",
                "pay_list": "台灣pay"
            },
            "geometry": {
                "type": "Point",
                "coordinates": [
                    120.994054,
                    24.87563
                ]
            }
        },
        {
            "type": "Feature",
            "properties": {
                "shop": "萬波島嶼紅茶 新豐店(楠波萬商行)",
                "category": "餐飲",
                "area": "新豐鄉",
                "market_address": "新竹縣新豐鄉山崎村建興路一段１５３之４號１樓",
                "pay_list": "Pi 拍錢包\/台灣pay\/信用卡\/悠遊卡\/街口\/LINE Pay Money\/悠遊付"
            },
            "geometry": {
                "type": "Point",
                "coordinates": [
                    120.994455,
                    24.874025
                ]
            }
        },
        {
            "type": "Feature",
            "properties": {
                "shop": "臻宸冰品店",
                "category": "餐飲",
                "area": "新豐鄉",
                "market_address": "新竹縣新豐鄉松林村新興路１６１號",
                "pay_list": "LINE Pay Money"
            },
            "geometry": {
                "type": "Point",
                "coordinates": [
                    120.993332,
                    24.867571
                ]
            }
        },
        {
            "type": "Feature",
            "properties": {
                "shop": "肯德基KFC-新竹新豐店",
                "category": "餐飲",
                "area": "新豐鄉",
                "market_address": "新竹縣新豐鄉新興路１６３之５號",
                "pay_list": "信用卡"
            },
            "geometry": {
                "type": "Point",
                "coordinates": [
                    120.993731,
                    24.867957
                ]
            }
        },
        {
            "type": "Feature",
            "properties": {
                "shop": "羅師父麵食館",
                "category": "餐飲",
                "area": "新豐鄉",
                "market_address": "新竹縣新豐鄉崎頂村建興路二段１０７號１樓",
                "pay_list": "iPASS 一卡通\/LINE Pay Money"
            },
            "geometry": {
                "type": "Point",
                "coordinates": [
                    120.991398,
                    24.88471
                ]
            }
        },
        {
            "type": "Feature",
            "properties": {
                "shop": "純萃概念整合行銷有限公司新豐站前店",
                "category": "餐飲",
                "area": "新豐鄉",
                "market_address": "新竹縣新豐鄉員山村新興路２０２號１樓",
                "pay_list": "街口\/LINE Pay Money"
            },
            "geometry": {
                "type": "Point",
                "coordinates": [
                    121.00839,
                    24.881298
                ]
            }
        },
        {
            "type": "Feature",
            "properties": {
                "shop": "米可飲品店",
                "category": "餐飲",
                "area": "新豐鄉",
                "market_address": "新竹縣新豐鄉山崎村建興路一段１４８號１樓",
                "pay_list": "台灣pay\/信用卡\/街口\/LINE Pay Money"
            },
            "geometry": {
                "type": "Point",
                "coordinates": [
                    120.993849,
                    24.882767
                ]
            }
        },
        {
            "type": "Feature",
            "properties": {
                "shop": "瘋茶發有限公司",
                "category": "餐飲",
                "area": "新豐鄉",
                "market_address": "新竹縣新豐鄉山崎村建興路一段５０號一樓",
                "pay_list": "LINE Pay Money"
            },
            "geometry": {
                "type": "Point",
                "coordinates": [
                    120.995734,
                    24.870922
                ]
            }
        },
        {
            "type": "Feature",
            "properties": {
                "shop": "珍好豆花店",
                "category": "餐飲",
                "area": "新豐鄉",
                "market_address": "新竹縣新豐鄉建興路一段１５５－９號",
                "pay_list": "台灣pay"
            },
            "geometry": {
                "type": "Point",
                "coordinates": [
                    120.994288,
                    24.874504
                ]
            }
        },
        {
            "type": "Feature",
            "properties": {
                "shop": "燒胖小吃店",
                "category": "餐飲",
                "area": "新豐鄉",
                "market_address": "新竹縣新豐鄉新興路２０６號",
                "pay_list": "台灣pay\/街口\/LINE Pay Money"
            },
            "geometry": {
                "type": "Point",
                "coordinates": [
                    120.997271,
                    24.870145
                ]
            }
        },
        {
            "type": "Feature",
            "properties": {
                "shop": "漢莎森林早午餐",
                "category": "餐飲",
                "area": "新豐鄉",
                "market_address": "新竹縣新豐鄉松林村松林街１０６號１樓",
                "pay_list": "icash pay\/信用卡\/悠遊卡\/LINE Pay Money"
            },
            "geometry": {
                "type": "Point",
                "coordinates": [
                    120.991619,
                    24.869648
                ]
            }
        },
        {
            "type": "Feature",
            "properties": {
                "shop": "滿訂實業有限公司",
                "category": "餐飲",
                "area": "新豐鄉",
                "market_address": "新竹縣新豐鄉新興路１４６之１５號１樓",
                "pay_list": "台灣pay\/信用卡\/街口\/LINE Pay Money"
            },
            "geometry": {
                "type": "Point",
                "coordinates": [
                    120.994272,
                    24.86784
                ]
            }
        },
        {
            "type": "Feature",
            "properties": {
                "shop": "洋香葉義式餐館",
                "category": "餐飲",
                "area": "新豐鄉",
                "market_address": "新竹縣新豐鄉松林村潤泰街１巷１９號",
                "pay_list": "信用卡\/街口\/LINE Pay Money"
            },
            "geometry": {
                "type": "Point",
                "coordinates": [
                    120.992594,
                    24.869638
                ]
            }
        },
        {
            "type": "Feature",
            "properties": {
                "shop": "洋香菜義式餐廳",
                "category": "餐飲",
                "area": "新豐鄉",
                "market_address": "新竹縣新豐鄉新市路６８號１樓",
                "pay_list": "街口"
            },
            "geometry": {
                "type": "Point",
                "coordinates": [
                    120.985905,
                    24.900615
                ]
            }
        },
        {
            "type": "Feature",
            "properties": {
                "shop": "泰揚商行",
                "category": "餐飲",
                "area": "新豐鄉",
                "market_address": "新竹縣新豐鄉新興路２２９號１樓",
                "pay_list": "信用卡\/LINE Pay Money"
            },
            "geometry": {
                "type": "Point",
                "coordinates": [
                    120.996452,
                    24.87012
                ]
            }
        },
        {
            "type": "Feature",
            "properties": {
                "shop": "永奇商行",
                "category": "餐飲",
                "area": "新豐鄉",
                "market_address": "新竹縣新豐鄉松林村康樂路一段２００巷１５弄５之２號１樓",
                "pay_list": "LINE Pay Money"
            },
            "geometry": {
                "type": "Point",
                "coordinates": [
                    120.989166,
                    24.869447
                ]
            }
        },
        {
            "type": "Feature",
            "properties": {
                "shop": "欣明麵食館",
                "category": "餐飲",
                "area": "新豐鄉",
                "market_address": "新竹縣新豐鄉松林村新興路１６７―２號１樓",
                "pay_list": "台灣pay"
            },
            "geometry": {
                "type": "Point",
                "coordinates": [
                    120.99422245864,
                    24.868322997839
                ]
            }
        },
        {
            "type": "Feature",
            "properties": {
                "shop": "森園文創休閒莊園",
                "category": "餐飲",
                "area": "新豐鄉",
                "market_address": "新竹縣新豐鄉康樂路一段３６１巷８３號",
                "pay_list": "台灣pay\/信用卡"
            },
            "geometry": {
                "type": "Point",
                "coordinates": [
                    120.984044,
                    24.869526
                ]
            }
        },
        {
            "type": "Feature",
            "properties": {
                "shop": "曼尼來小吃店",
                "category": "餐飲",
                "area": "新豐鄉",
                "market_address": "新竹縣新豐鄉松林村新興路１８１號１樓",
                "pay_list": "街口"
            },
            "geometry": {
                "type": "Point",
                "coordinates": [
                    120.994913,
                    24.868874
                ]
            }
        },
        {
            "type": "Feature",
            "properties": {
                "shop": "明驊咖啡",
                "category": "餐飲",
                "area": "新豐鄉",
                "market_address": "新竹縣新豐鄉松林村７鄰新興路１６９號",
                "pay_list": "LINE Pay Money"
            },
            "geometry": {
                "type": "Point",
                "coordinates": [
                    120.993565,
                    24.867816
                ]
            }
        },
        {
            "type": "Feature",
            "properties": {
                "shop": "明星廚房",
                "category": "餐飲",
                "area": "新豐鄉",
                "market_address": "新竹縣新豐鄉松林村康樂路一段９０號",
                "pay_list": "街口"
            },
            "geometry": {
                "type": "Point",
                "coordinates": [
                    120.990421,
                    24.866492
                ]
            }
        },
        {
            "type": "Feature",
            "properties": {
                "shop": "昍暄茶行",
                "category": "餐飲",
                "area": "新豐鄉",
                "market_address": "新竹縣新豐鄉建興路一段９２之１號１樓",
                "pay_list": "LINE Pay Money"
            },
            "geometry": {
                "type": "Point",
                "coordinates": [
                    120.995237,
                    24.871943
                ]
            }
        },
        {
            "type": "Feature",
            "properties": {
                "shop": "新豐咖哩丼飯專賣店",
                "category": "餐飲",
                "area": "新豐鄉",
                "market_address": "新竹縣新豐鄉松林村尚仁街１０號１樓",
                "pay_list": "街口\/LINE Pay Money"
            },
            "geometry": {
                "type": "Point",
                "coordinates": [
                    120.990492,
                    24.867179
                ]
            }
        },
        {
            "type": "Feature",
            "properties": {
                "shop": "新竹高爾夫俱樂部股份有限公司",
                "category": "餐飲",
                "area": "新豐鄉",
                "market_address": "新竹縣新豐鄉上坑村坑子口１鄰１０４號",
                "pay_list": "信用卡\/LINE Pay Money"
            },
            "geometry": {
                "type": "Point",
                "coordinates": [
                    120.976496,
                    24.882496
                ]
            }
        },
        {
            "type": "Feature",
            "properties": {
                "shop": "拿坡里 新豐店",
                "category": "餐飲",
                "area": "新豐鄉",
                "market_address": "新竹縣新豐鄉松林村９鄰新興路１８９―１號",
                "pay_list": "信用卡\/LINE Pay Money\/悠遊卡\/街口\/台灣pay"
            },
            "geometry": {
                "type": "Point",
                "coordinates": [
                    120.9952781004,
                    24.869167609878
                ]
            }
        },
        {
            "type": "Feature",
            "properties": {
                "shop": "惠芯冷飲店",
                "category": "餐飲",
                "area": "新豐鄉",
                "market_address": "新竹縣新豐鄉重興村新市路５７號１樓",
                "pay_list": "街口\/LINE Pay Money\/悠遊付\/橘子支付"
            },
            "geometry": {
                "type": "Point",
                "coordinates": [
                    120.985977,
                    24.899965
                ]
            }
        },
        {
            "type": "Feature",
            "properties": {
                "shop": "忠育企業社",
                "category": "餐飲",
                "area": "新豐鄉",
                "market_address": "新竹縣新豐鄉松林村新興路２號１樓",
                "pay_list": "icash pay\/信用卡"
            },
            "geometry": {
                "type": "Point",
                "coordinates": [
                    120.991758,
                    24.863619
                ]
            }
        },
        {
            "type": "Feature",
            "properties": {
                "shop": "志朗企業社",
                "category": "餐飲",
                "area": "新豐鄉",
                "market_address": "新竹縣新豐鄉松林村新興路２號１樓",
                "pay_list": "信用卡"
            },
            "geometry": {
                "type": "Point",
                "coordinates": [
                    120.991758,
                    24.863619
                ]
            }
        },
        {
            "type": "Feature",
            "properties": {
                "shop": "御福町日式丼飯",
                "category": "餐飲",
                "area": "新豐鄉",
                "market_address": "新竹縣新豐鄉松林村康樂路一段１０８號一樓",
                "pay_list": "LINE Pay Money"
            },
            "geometry": {
                "type": "Point",
                "coordinates": [
                    120.990253,
                    24.866806
                ]
            }
        },
        {
            "type": "Feature",
            "properties": {
                "shop": "康莊小吃",
                "category": "餐飲",
                "area": "新豐鄉",
                "market_address": "新竹縣新豐鄉山崎村２６鄰文昌街５７號",
                "pay_list": "台灣pay\/信用卡\/LINE Pay Money"
            },
            "geometry": {
                "type": "Point",
                "coordinates": [
                    120.997838,
                    24.873453
                ]
            }
        },
        {
            "type": "Feature",
            "properties": {
                "shop": "幸福花園商行",
                "category": "餐飲",
                "area": "新豐鄉",
                "market_address": "新竹縣新豐鄉松林街４５號１樓",
                "pay_list": "信用卡"
            },
            "geometry": {
                "type": "Point",
                "coordinates": [
                    120.992617,
                    24.868326
                ]
            }
        },
        {
            "type": "Feature",
            "properties": {
                "shop": "巧麵匠商行",
                "category": "餐飲",
                "area": "新豐鄉",
                "market_address": "新竹縣新豐鄉上坑村０１２鄰坑子口５２９號１樓",
                "pay_list": "悠遊卡"
            },
            "geometry": {
                "type": "Point",
                "coordinates": [
                    120.980789,
                    24.896203
                ]
            }
        },
        {
            "type": "Feature",
            "properties": {
                "shop": "嵦豐企業社",
                "category": "餐飲",
                "area": "新豐鄉",
                "market_address": "新竹縣新豐鄉山崎村建興路一段９２號１樓",
                "pay_list": "台灣pay\/信用卡\/悠遊付\/悠遊卡\/街口\/LINE Pay Money"
            },
            "geometry": {
                "type": "Point",
                "coordinates": [
                    120.995259,
                    24.871897
                ]
            }
        },
        {
            "type": "Feature",
            "properties": {
                "shop": "山崎家咖啡",
                "category": "餐飲",
                "area": "新豐鄉",
                "market_address": "新竹縣新豐鄉山崎村建興路一段１２７號１樓",
                "pay_list": "LINE Pay Money"
            },
            "geometry": {
                "type": "Point",
                "coordinates": [
                    120.994632,
                    24.873355
                ]
            }
        },
        {
            "type": "Feature",
            "properties": {
                "shop": "屋裡咖啡事業",
                "category": "餐飲",
                "area": "新豐鄉",
                "market_address": "新竹縣新豐鄉松柏村康樂路一段４１６號",
                "pay_list": "街口"
            },
            "geometry": {
                "type": "Point",
                "coordinates": [
                    120.985446,
                    24.872954
                ]
            }
        },
        {
            "type": "Feature",
            "properties": {
                "shop": "小叮噹科學股份有限公司",
                "category": "餐飲",
                "area": "新豐鄉",
                "market_address": "新竹縣新豐鄉松柏村６鄰康和路１９９號",
                "pay_list": "信用卡\/悠遊卡\/LINE Pay Money"
            },
            "geometry": {
                "type": "Point",
                "coordinates": [
                    120.979052,
                    24.869872
                ]
            }
        },
        {
            "type": "Feature",
            "properties": {
                "shop": "家勝商行CoCo都可",
                "category": "餐飲",
                "area": "新豐鄉",
                "market_address": "新竹縣新豐鄉建興路1段44號1樓",
                "pay_list": "悠遊付"
            },
            "geometry": {
                "type": "Point",
                "coordinates": [
                    120.995838,
                    24.87085
                ]
            }
        },
        {
            "type": "Feature",
            "properties": {
                "shop": "宜昇自助餐",
                "category": "餐飲",
                "area": "新豐鄉",
                "market_address": "新竹縣新豐鄉新興路３７號１樓",
                "pay_list": "台灣pay"
            },
            "geometry": {
                "type": "Point",
                "coordinates": [
                    120.992124,
                    24.865549
                ]
            }
        },
        {
            "type": "Feature",
            "properties": {
                "shop": "安心享行",
                "category": "餐飲",
                "area": "新豐鄉",
                "market_address": "新竹縣新豐鄉山崎村建興路一段８１號１樓",
                "pay_list": "台灣pay\/悠遊卡\/街口\/LINE Pay Money\/悠遊付"
            },
            "geometry": {
                "type": "Point",
                "coordinates": [
                    120.995026,
                    24.871597
                ]
            }
        },
        {
            "type": "Feature",
            "properties": {
                "shop": "妤晨小吃店",
                "category": "餐飲",
                "area": "新豐鄉",
                "market_address": "新竹縣新豐鄉泰安街１０３號１樓",
                "pay_list": "街口"
            },
            "geometry": {
                "type": "Point",
                "coordinates": [
                    120.993255,
                    24.870768
                ]
            }
        },
        {
            "type": "Feature",
            "properties": {
                "shop": "夏季三角景觀咖啡廳有限公司",
                "category": "餐飲",
                "area": "新豐鄉",
                "market_address": "新竹縣新豐鄉崎頂村榮華街８８巷３弄２３號",
                "pay_list": "台灣pay"
            },
            "geometry": {
                "type": "Point",
                "coordinates": [
                    120.99071,
                    24.8834
                ]
            }
        },
        {
            "type": "Feature",
            "properties": {
                "shop": "夏之亭烘焙坊",
                "category": "餐飲\/糕餅",
                "area": "新豐鄉",
                "market_address": "新竹縣新豐鄉松林街３８號１樓",
                "pay_list": "LINE Pay Money"
            },
            "geometry": {
                "type": "Point",
                "coordinates": [
                    120.992592,
                    24.868634
                ]
            }
        },
        {
            "type": "Feature",
            "properties": {
                "shop": "城市漢堡 新豐中興店",
                "category": "餐飲",
                "area": "新豐鄉",
                "market_address": "新竹縣新豐鄉忠孝村中興路２６號１樓",
                "pay_list": "悠遊卡"
            },
            "geometry": {
                "type": "Point",
                "coordinates": [
                    121.000009,
                    24.873882
                ]
            }
        },
        {
            "type": "Feature",
            "properties": {
                "shop": "四海小吃店",
                "category": "餐飲",
                "area": "新豐鄉",
                "market_address": "新竹縣新豐鄉山崎村新興路２０４號",
                "pay_list": "悠遊卡"
            },
            "geometry": {
                "type": "Point",
                "coordinates": [
                    120.997127,
                    24.869962
                ]
            }
        },
        {
            "type": "Feature",
            "properties": {
                "shop": "品澄食品行",
                "category": "餐飲",
                "area": "新豐鄉",
                "market_address": "新竹縣新豐鄉忠孝村建興路１段１５６－３號１樓",
                "pay_list": "iPASS 一卡通\/LINE Pay Money\/街口"
            },
            "geometry": {
                "type": "Point",
                "coordinates": [
                    120.993823,
                    24.876228
                ]
            }
        },
        {
            "type": "Feature",
            "properties": {
                "shop": "名舫商行",
                "category": "餐飲",
                "area": "新豐鄉",
                "market_address": "新竹縣新豐鄉松林村康樂路一段２００巷１５弄５之２號１樓",
                "pay_list": "LINE Pay Money"
            },
            "geometry": {
                "type": "Point",
                "coordinates": [
                    120.989166,
                    24.869447
                ]
            }
        },
        {
            "type": "Feature",
            "properties": {
                "shop": "吉祥山產小吃店",
                "category": "餐飲",
                "area": "新豐鄉",
                "market_address": "新竹縣新豐鄉新豐村００２鄰紅毛４０－２號１樓",
                "pay_list": "台灣pay\/信用卡"
            },
            "geometry": {
                "type": "Point",
                "coordinates": [
                    120.983532,
                    24.919038
                ]
            }
        },
        {
            "type": "Feature",
            "properties": {
                "shop": "吉嘉飲料店",
                "category": "餐飲",
                "area": "新豐鄉",
                "market_address": "新竹縣新豐鄉山崎村建興路１段１４３號",
                "pay_list": "街口\/LINE Pay Money\/悠遊付\/橘子支付"
            },
            "geometry": {
                "type": "Point",
                "coordinates": [
                    120.994594,
                    24.873518
                ]
            }
        },
        {
            "type": "Feature",
            "properties": {
                "shop": "友明商行",
                "category": "餐飲",
                "area": "新豐鄉",
                "market_address": "新竹縣新豐鄉松林村泰安街１０號",
                "pay_list": "LINE Pay Money"
            },
            "geometry": {
                "type": "Point",
                "coordinates": [
                    120.994632,
                    24.869191
                ]
            }
        },
        {
            "type": "Feature",
            "properties": {
                "shop": "原味茶飲料店",
                "category": "餐飲",
                "area": "新豐鄉",
                "market_address": "新竹縣新豐鄉山崎村中興路２０７號１樓",
                "pay_list": "台灣pay\/信用卡\/LINE Pay Money"
            },
            "geometry": {
                "type": "Point",
                "coordinates": [
                    120.995962,
                    24.875684
                ]
            }
        },
        {
            "type": "Feature",
            "properties": {
                "shop": "北海飲食店",
                "category": "餐飲",
                "area": "新豐鄉",
                "market_address": "新竹縣新豐鄉松林村康樂路一段１１２號",
                "pay_list": "LINE Pay Money"
            },
            "geometry": {
                "type": "Point",
                "coordinates": [
                    120.99137,
                    24.865047
                ]
            }
        },
        {
            "type": "Feature",
            "properties": {
                "shop": "凱鴻有限公司",
                "category": "餐飲",
                "area": "新豐鄉",
                "market_address": "新竹縣新豐鄉鳳坑村坑子口５６９―７號",
                "pay_list": "信用卡"
            },
            "geometry": {
                "type": "Point",
                "coordinates": [
                    120.979134,
                    24.900017
                ]
            }
        },
        {
            "type": "Feature",
            "properties": {
                "shop": "冠味居餐飲店",
                "category": "餐飲",
                "area": "新豐鄉",
                "market_address": "新竹縣新豐鄉山崎村泰安街臨２１１－１號",
                "pay_list": "台灣pay"
            },
            "geometry": {
                "type": "Point",
                "coordinates": [
                    120.993696,
                    24.872812
                ]
            }
        },
        {
            "type": "Feature",
            "properties": {
                "shop": "元億小吃店",
                "category": "餐飲",
                "area": "新豐鄉",
                "market_address": "新竹縣新豐鄉坡頭村１鄰２之５號１樓",
                "pay_list": "台灣pay"
            },
            "geometry": {
                "type": "Point",
                "coordinates": [
                    120.97756,
                    24.921419
                ]
            }
        },
        {
            "type": "Feature",
            "properties": {
                "shop": "健康有機南洋風味餐",
                "category": "餐飲",
                "area": "新豐鄉",
                "market_address": "新竹縣新豐鄉忠孝村仁愛街６６號",
                "pay_list": "LINE Pay Money"
            },
            "geometry": {
                "type": "Point",
                "coordinates": [
                    120.992707,
                    24.876415
                ]
            }
        },
        {
            "type": "Feature",
            "properties": {
                "shop": "佑恩小吃",
                "category": "餐飲",
                "area": "新豐鄉",
                "market_address": "新竹縣新豐鄉新興路２２３號",
                "pay_list": "街口\/LINE Pay Money"
            },
            "geometry": {
                "type": "Point",
                "coordinates": [
                    120.996267,
                    24.869948
                ]
            }
        },
        {
            "type": "Feature",
            "properties": {
                "shop": "佑佑小吃",
                "category": "餐飲",
                "area": "新豐鄉",
                "market_address": "新竹縣新豐鄉重興村新庄路２３０號１樓",
                "pay_list": "街口\/LINE Pay Money"
            },
            "geometry": {
                "type": "Point",
                "coordinates": [
                    120.986,
                    24.903102
                ]
            }
        },
        {
            "type": "Feature",
            "properties": {
                "shop": "亞珍食飲有限公司",
                "category": "餐飲",
                "area": "新豐鄉",
                "market_address": "新竹縣新豐鄉松林村新興路５６－１號",
                "pay_list": "信用卡"
            },
            "geometry": {
                "type": "Point",
                "coordinates": [
                    120.992759,
                    24.865924
                ]
            }
        },
        {
            "type": "Feature",
            "properties": {
                "shop": "亞爵商行",
                "category": "餐飲",
                "area": "新豐鄉",
                "market_address": "新竹縣新豐鄉山崎村建興路一段８７號",
                "pay_list": "街口\/LINE Pay Money"
            },
            "geometry": {
                "type": "Point",
                "coordinates": [
                    120.994986,
                    24.871925
                ]
            }
        },
        {
            "type": "Feature",
            "properties": {
                "shop": "五鮮級國際餐飲股份有限公司新竹新豐分店",
                "category": "餐飲",
                "area": "新豐鄉",
                "market_address": "新竹縣新豐鄉新興路１２９號１樓",
                "pay_list": "LINE Pay Money"
            },
            "geometry": {
                "type": "Point",
                "coordinates": [
                    120.992866,
                    24.866854
                ]
            }
        },
        {
            "type": "Feature",
            "properties": {
                "shop": "三點一六有限公司新豐店",
                "category": "餐飲",
                "area": "新豐鄉",
                "market_address": "新竹縣新豐鄉山崎村建興路一段６５號１樓",
                "pay_list": "LINE Pay Money"
            },
            "geometry": {
                "type": "Point",
                "coordinates": [
                    120.99511,
                    24.871296
                ]
            }
        },