{
    "type": "FeatureCollection",
    "features": [
        {
            "type": "Feature",
            "properties": {
                "shop": "金永豐商行",
                "category": "夜市\/市場攤販",
                "area": "中壢區",
                "market_address": "桃園市中壢區新明里中山路５２６號１樓",
                "pay_list": "台灣pay"
            },
            "geometry": {
                "type": "Point",
                "coordinates": [
                    121.21488936242,
                    24.957212722299
                ]
            }
        },
        {
            "type": "Feature",
            "properties": {
                "shop": "賴麗瑄",
                "category": "夜市\/市場攤販",
                "area": "中壢區",
                "market_address": "桃園市中壢區普忠里實踐路１３２號１樓前之攤販",
                "pay_list": "街口"
            },
            "geometry": {
                "type": "Point",
                "coordinates": [
                    121.23996196482,
                    24.956227001539
                ]
            }
        },
        {
            "type": "Feature",
            "properties": {
                "shop": "興國公有零售市場-閒晃服飾",
                "category": "夜市\/市場攤販",
                "area": "中壢區",
                "market_address": "桃園市中壢區中豐路96號",
                "pay_list": "台灣pay"
            },
            "geometry": {
                "type": "Point",
                "coordinates": [
                    121.21965,
                    24.961981
                ]
            }
        },
        {
            "type": "Feature",
            "properties": {
                "shop": "興國公有零售市場-賴鄉下黑豬肉",
                "category": "夜市\/市場攤販",
                "area": "中壢區",
                "market_address": "桃園市中壢區中豐路96號",
                "pay_list": "台灣pay"
            },
            "geometry": {
                "type": "Point",
                "coordinates": [
                    121.21965,
                    24.961981
                ]
            }
        },
        {
            "type": "Feature",
            "properties": {
                "shop": "興國公有零售市場-花蓮放山雞",
                "category": "夜市\/市場攤販",
                "area": "中壢區",
                "market_address": "桃園市中壢區中豐路96號",
                "pay_list": "台灣pay"
            },
            "geometry": {
                "type": "Point",
                "coordinates": [
                    121.21965,
                    24.961981
                ]
            }
        },
        {
            "type": "Feature",
            "properties": {
                "shop": "興國公有零售市場-第93號攤",
                "category": "夜市\/市場攤販",
                "area": "中壢區",
                "market_address": "桃園市中壢區中豐路96號",
                "pay_list": "台灣Pay\/信用卡"
            },
            "geometry": {
                "type": "Point",
                "coordinates": [
                    121.21965,
                    24.961981
                ]
            }
        },
        {
            "type": "Feature",
            "properties": {
                "shop": "興國公有零售市場-第82號攤",
                "category": "夜市\/市場攤販",
                "area": "中壢區",
                "market_address": "桃園市中壢區中豐路96號",
                "pay_list": "台灣pay"
            },
            "geometry": {
                "type": "Point",
                "coordinates": [
                    121.21965,
                    24.961981
                ]
            }
        },
        {
            "type": "Feature",
            "properties": {
                "shop": "興國公有零售市場-第81號攤",
                "category": "夜市\/市場攤販",
                "area": "中壢區",
                "market_address": "桃園市中壢區中豐路96號",
                "pay_list": "信用卡"
            },
            "geometry": {
                "type": "Point",
                "coordinates": [
                    121.21965,
                    24.961981
                ]
            }
        },
        {
            "type": "Feature",
            "properties": {
                "shop": "興國公有零售市場-第59號攤",
                "category": "夜市\/市場攤販",
                "area": "中壢區",
                "market_address": "桃園市中壢區中豐路96號",
                "pay_list": "台灣pay"
            },
            "geometry": {
                "type": "Point",
                "coordinates": [
                    121.21965,
                    24.961981
                ]
            }
        },
        {
            "type": "Feature",
            "properties": {
                "shop": "興國公有零售市場-第43號攤",
                "category": "夜市\/市場攤販",
                "area": "中壢區",
                "market_address": "桃園市中壢區中豐路96號",
                "pay_list": "信用卡"
            },
            "geometry": {
                "type": "Point",
                "coordinates": [
                    121.21965,
                    24.961981
                ]
            }
        },
        {
            "type": "Feature",
            "properties": {
                "shop": "興國公有零售市場-第170號攤",
                "category": "夜市\/市場攤販",
                "area": "中壢區",
                "market_address": "桃園市中壢區中豐路96號",
                "pay_list": "台灣pay"
            },
            "geometry": {
                "type": "Point",
                "coordinates": [
                    121.21965,
                    24.961981
                ]
            }
        },
        {
            "type": "Feature",
            "properties": {
                "shop": "興國公有零售市場-眼鏡海產",
                "category": "夜市\/市場攤販",
                "area": "中壢區",
                "market_address": "桃園市中壢區中豐路96號",
                "pay_list": "台灣pay"
            },
            "geometry": {
                "type": "Point",
                "coordinates": [
                    121.21965,
                    24.961981
                ]
            }
        },
        {
            "type": "Feature",
            "properties": {
                "shop": "興國公有零售市場-洪記豬肉",
                "category": "夜市\/市場攤販",
                "area": "中壢區",
                "market_address": "桃園市中壢區中豐路96號",
                "pay_list": "街口"
            },
            "geometry": {
                "type": "Point",
                "coordinates": [
                    121.21965,
                    24.961981
                ]
            }
        },
        {
            "type": "Feature",
            "properties": {
                "shop": "興國公有零售市場-旺町",
                "category": "夜市\/市場攤販",
                "area": "中壢區",
                "market_address": "桃園市中壢區中豐路96號",
                "pay_list": "信用卡"
            },
            "geometry": {
                "type": "Point",
                "coordinates": [
                    121.21965,
                    24.961981
                ]
            }
        },
        {
            "type": "Feature",
            "properties": {
                "shop": "興國公有零售市場-徐州饊子",
                "category": "夜市\/市場攤販",
                "area": "中壢區",
                "market_address": "桃園市中壢區中豐路96號",
                "pay_list": "台灣pay"
            },
            "geometry": {
                "type": "Point",
                "coordinates": [
                    121.21965,
                    24.961981
                ]
            }
        },
        {
            "type": "Feature",
            "properties": {
                "shop": "興國公有零售市場-Yun精品服飾",
                "category": "夜市\/市場攤販",
                "area": "中壢區",
                "market_address": "桃園市中壢區中豐路96號",
                "pay_list": "信用卡"
            },
            "geometry": {
                "type": "Point",
                "coordinates": [
                    121.21965,
                    24.961981
                ]
            }
        },
        {
            "type": "Feature",
            "properties": {
                "shop": "程程圓形燒",
                "category": "餐飲\/夜市\/市場攤販",
                "area": "中壢區",
                "market_address": "桃園市中壢區石頭里中和路１２４號１樓",
                "pay_list": "街口"
            },
            "geometry": {
                "type": "Point",
                "coordinates": [
                    121.22507392186,
                    24.953617652843
                ]
            }
        },
        {
            "type": "Feature",
            "properties": {
                "shop": "橙菓站企業社",
                "category": "夜市\/市場攤販",
                "area": "中壢區",
                "market_address": "桃園市中壢區忠孝里忠孝路２４６巷２９弄６０號１樓",
                "pay_list": "悠遊付\/悠遊卡\/街口\/一卡通MONEY(原LINE Pay Money)"
            },
            "geometry": {
                "type": "Point",
                "coordinates": [
                    121.25473011627,
                    24.980251420288
                ]
            }
        },
        {
            "type": "Feature",
            "properties": {
                "shop": "橙旭吉企業社",
                "category": "夜市\/市場攤販",
                "area": "中壢區",
                "market_address": "桃園市中壢區忠孝里忠孝路２４６巷２９弄６０號１樓",
                "pay_list": "台灣pay\/信用卡"
            },
            "geometry": {
                "type": "Point",
                "coordinates": [
                    121.25473011627,
                    24.980251420288
                ]
            }
        },
        {
            "type": "Feature",
            "properties": {
                "shop": "新明公有零售市場-韓佩庭",
                "category": "夜市\/市場攤販",
                "area": "中壢區",
                "market_address": "桃園市中壢區明德路76號",
                "pay_list": "台灣Pay\/信用卡"
            },
            "geometry": {
                "type": "Point",
                "coordinates": [
                    121.21631,
                    24.957077
                ]
            }
        },
        {
            "type": "Feature",
            "properties": {
                "shop": "新明公有零售市場-蘇宏民",
                "category": "夜市\/市場攤販",
                "area": "中壢區",
                "market_address": "桃園市中壢區明德路76號",
                "pay_list": "信用卡"
            },
            "geometry": {
                "type": "Point",
                "coordinates": [
                    121.21631,
                    24.957077
                ]
            }
        },
        {
            "type": "Feature",
            "properties": {
                "shop": "新明公有零售市場-張玉嵩",
                "category": "夜市\/市場攤販",
                "area": "中壢區",
                "market_address": "桃園市中壢區明德路76號",
                "pay_list": "台灣Pay\/信用卡"
            },
            "geometry": {
                "type": "Point",
                "coordinates": [
                    121.21631,
                    24.957077
                ]
            }
        },
        {
            "type": "Feature",
            "properties": {
                "shop": "新明公有零售市場-張境芳",
                "category": "夜市\/市場攤販",
                "area": "中壢區",
                "market_address": "桃園市中壢區明德路76號",
                "pay_list": "信用卡"
            },
            "geometry": {
                "type": "Point",
                "coordinates": [
                    121.21631,
                    24.957077
                ]
            }
        },
        {
            "type": "Feature",
            "properties": {
                "shop": "志廣路市場-顏錦興",
                "category": "夜市\/市場攤販",
                "area": "中壢區",
                "market_address": "桃園市中壢區五光三街116號",
                "pay_list": "台灣Pay\/信用卡"
            },
            "geometry": {
                "type": "Point",
                "coordinates": [
                    121.209275,
                    24.958438
                ]
            }
        },
        {
            "type": "Feature",
            "properties": {
                "shop": "宋易昇",
                "category": "夜市\/市場攤販",
                "area": "中壢區",
                "market_address": "桃園市中壢區普仁里日新路９６號１樓前之攤位",
                "pay_list": "街口"
            },
            "geometry": {
                "type": "Point",
                "coordinates": [
                    121.24029806166,
                    24.955144407779
                ]
            }
        },
        {
            "type": "Feature",
            "properties": {
                "shop": "大支可餐飲",
                "category": "夜市\/市場攤販",
                "area": "中壢區",
                "market_address": "桃園市中壢區龍安里龍東路４０６號１樓",
                "pay_list": "街口\/一卡通MONEY(原LINE Pay Money)"
            },
            "geometry": {
                "type": "Point",
                "coordinates": [
                    121.25595918472,
                    24.93313337324
                ]
            }
        },
        {
            "type": "Feature",
            "properties": {
                "shop": "一心小吃店",
                "category": "夜市\/市場攤販",
                "area": "中壢區",
                "market_address": "桃園市中壢區石頭里中平路５號１樓",
                "pay_list": "一卡通MONEY(原LINE Pay Money)\/街口"
            },
            "geometry": {
                "type": "Point",
                "coordinates": [
                    121.22570996493,
                    24.954359636951
                ]
            }
        },
        {
            "type": "Feature",
            "properties": {
                "shop": "遠東SOGO中壢店",
                "category": "百貨美食街",
                "area": "中壢區",
                "market_address": "桃園市中壢區元化路357號",
                "pay_list": "信用卡"
            },
            "geometry": {
                "type": "Point",
                "coordinates": [
                    121.223533,
                    24.962685
                ]
            }
        },
        {
            "type": "Feature",
            "properties": {
                "shop": "新光影城股份有限公司桃園青埔分公司",
                "category": "百貨美食街",
                "area": "中壢區",
                "market_address": "桃園市中壢區青埔里春德路１０７號１至６樓",
                "pay_list": "信用卡"
            },
            "geometry": {
                "type": "Point",
                "coordinates": [
                    121.21271139942,
                    25.014896952831
                ]
            }
        },
        {
            "type": "Feature",
            "properties": {
                "shop": "中壢大江國際購物中心",
                "category": "百貨美食街",
                "area": "中壢區",
                "market_address": "桃園市中壢區中園路二段501號",
                "pay_list": "一卡通MONEY(原LINE Pay Money)"
            },
            "geometry": {
                "type": "Point",
                "coordinates": [
                    121.228857,
                    25.000599
                ]
            }
        },
        {
            "type": "Feature",
            "properties": {
                "shop": "中壢大江國際購物中心",
                "category": "百貨美食街",
                "area": "中壢區",
                "market_address": "桃園市中壢區內定里１３鄰中園路２段５０１號",
                "pay_list": "信用卡\/悠遊卡\/一卡通MONEY(原LINE Pay Money)"
            },
            "geometry": {
                "type": "Point",
                "coordinates": [
                    121.228857,
                    25.000599
                ]
            }
        },
        {
            "type": "Feature",
            "properties": {
                "shop": "Global Mall 桃園A19",
                "category": "百貨美食街",
                "area": "中壢區",
                "market_address": "桃園市中壢區芝芭里高鐵南路２段３５２號１樓至７樓",
                "pay_list": "一卡通MONEY(原LINE Pay Money)\/Pi 拍錢包\/信用卡\/悠遊付\/悠遊卡\/街口\/橘子支付\/台灣pay\/iPASS 一卡通"
            },
            "geometry": {
                "type": "Point",
                "coordinates": [
                    121.202935,
                    25.002445
                ]
            }
        },
        {
            "type": "Feature",
            "properties": {
                "shop": "GLORIA OUTLETS華泰名品城",
                "category": "百貨美食街",
                "area": "中壢區",
                "market_address": "桃園市中壢區青埔里春德路１５９、１６９、１８９號",
                "pay_list": "iPASS一卡通\/信用卡"
            },
            "geometry": {
                "type": "Point",
                "coordinates": [
                    121.213623,
                    25.017424
                ]
            }
        },
        {
            "type": "Feature",
            "properties": {
                "shop": "龍情食品有限公司中壢環北店",
                "category": "糕餅",
                "area": "中壢區",
                "market_address": "桃園市中壢區幸福里延平路１２４號１樓",
                "pay_list": "信用卡\/一卡通MONEY(原LINE Pay Money)"
            },
            "geometry": {
                "type": "Point",
                "coordinates": [
                    121.229521,
                    24.963339
                ]
            }
        },
        {
            "type": "Feature",
            "properties": {
                "shop": "麥胖國際企業有限公司",
                "category": "糕餅",
                "area": "中壢區",
                "market_address": "桃園市中壢區篤行里華美一路３３巷２８號１樓",
                "pay_list": "街口\/一卡通MONEY(原LINE Pay Money)"
            },
            "geometry": {
                "type": "Point",
                "coordinates": [
                    121.263007,
                    24.956568
                ]
            }
        },
        {
            "type": "Feature",
            "properties": {
                "shop": "馬可先生第二股份有限公司中壢門市部",
                "category": "糕餅",
                "area": "中壢區",
                "market_address": "桃園市中壢區延平路594號",
                "pay_list": "信用卡\/iPASS一卡通"
            },
            "geometry": {
                "type": "Point",
                "coordinates": [
                    121.222154,
                    24.954536
                ]
            }
        },
        {
            "type": "Feature",
            "properties": {
                "shop": "馬匯麵包坊有限公司",
                "category": "糕餅",
                "area": "中壢區",
                "market_address": "桃園市中壢區中榮里延平路５９４號",
                "pay_list": "一卡通MONEY(原LINE Pay Money)"
            },
            "geometry": {
                "type": "Point",
                "coordinates": [
                    121.222154,
                    24.954536
                ]
            }
        },
        {
            "type": "Feature",
            "properties": {
                "shop": "零食嗑休閒食品行",
                "category": "糕餅",
                "area": "中壢區",
                "market_address": "桃園市中壢區龍安里龍東路３３４號",
                "pay_list": "台灣pay\/信用卡"
            },
            "geometry": {
                "type": "Point",
                "coordinates": [
                    121.255252,
                    24.931891
                ]
            }
        },
        {
            "type": "Feature",
            "properties": {
                "shop": "金渼星藝術蛋糕專賣店",
                "category": "糕餅",
                "area": "中壢區",
                "market_address": "桃園市中壢區興仁里興仁路２段１６巷３號１樓",
                "pay_list": "台灣pay\/悠遊卡"
            },
            "geometry": {
                "type": "Point",
                "coordinates": [
                    121.26257,
                    24.967867
                ]
            }
        },
        {
            "type": "Feature",
            "properties": {
                "shop": "野兔專業烘焙",
                "category": "糕餅",
                "area": "中壢區",
                "market_address": "桃園市中壢區福德里福德路１２０號１樓",
                "pay_list": "台灣pay"
            },
            "geometry": {
                "type": "Point",
                "coordinates": [
                    121.257831,
                    24.975916
                ]
            }
        },
        {
            "type": "Feature",
            "properties": {
                "shop": "鄉情行",
                "category": "糕餅",
                "area": "中壢區",
                "market_address": "桃園市中壢區正義里中北路２段４９３號１樓",
                "pay_list": "信用卡"
            },
            "geometry": {
                "type": "Point",
                "coordinates": [
                    121.233658,
                    24.954974
                ]
            }
        },
        {
            "type": "Feature",
            "properties": {
                "shop": "郭元益食品股份有限公司中壢分公司",
                "category": "糕餅",
                "area": "中壢區",
                "market_address": "桃園市中壢區興南里延平路４７０號１樓",
                "pay_list": "信用卡"
            },
            "geometry": {
                "type": "Point",
                "coordinates": [
                    121.223803,
                    24.957965
                ]
            }
        },
        {
            "type": "Feature",
            "properties": {
                "shop": "透明烤箱烘焙工作室",
                "category": "糕餅",
                "area": "中壢區",
                "market_address": "桃園市中壢區德義里中山東路１段３２號",
                "pay_list": "信用卡\/歐付寶\/一卡通MONEY(原LINE Pay Money)"
            },
            "geometry": {
                "type": "Point",
                "coordinates": [
                    121.230051,
                    24.955857
                ]
            }
        },
        {
            "type": "Feature",
            "properties": {
                "shop": "迴憶冷飲店",
                "category": "糕餅\/餐飲",
                "area": "中壢區",
                "market_address": "桃園市中壢區新街里延平路廟前３１號１樓",
                "pay_list": "信用卡\/悠遊卡\/街口"
            },
            "geometry": {
                "type": "Point",
                "coordinates": [
                    121.229382,
                    24.962745
                ]
            }
        },
        {
            "type": "Feature",
            "properties": {
                "shop": "財團法人桃園市真善美社會福利基金會",
                "category": "糕餅",
                "area": "中壢區",
                "market_address": "桃園市中壢區仁美里仁慈路１６２號",
                "pay_list": "信用卡"
            },
            "geometry": {
                "type": "Point",
                "coordinates": [
                    121.252253,
                    24.945323
                ]
            }
        },
        {
            "type": "Feature",
            "properties": {
                "shop": "胡思咖啡商行",
                "category": "餐飲\/糕餅",
                "area": "中壢區",
                "market_address": "桃園市中壢區五權里中央路２１６巷９號",
                "pay_list": "街口"
            },
            "geometry": {
                "type": "Point",
                "coordinates": [
                    121.191229,
                    24.964587
                ]
            }
        },
        {
            "type": "Feature",
            "properties": {
                "shop": "胖菓子烘培工作室",
                "category": "糕餅",
                "area": "中壢區",
                "market_address": "桃園市中壢區普仁里力行北街５２號１樓",
                "pay_list": "街口"
            },
            "geometry": {
                "type": "Point",
                "coordinates": [
                    121.239729,
                    24.954488
                ]
            }
        },
        {
            "type": "Feature",
            "properties": {
                "shop": "義美股份有限公司壢中山路門市",
                "category": "糕餅",
                "area": "中壢區",
                "market_address": "桃園市中壢區延平路520號1樓",
                "pay_list": "信用卡\/悠遊卡\/台灣pay"
            },
            "geometry": {
                "type": "Point",
                "coordinates": [
                    121.223007,
                    24.95625
                ]
            }
        },
        {
            "type": "Feature",
            "properties": {
                "shop": "義美股份有限公司北中壢之分公司",
                "category": "糕餅",
                "area": "中壢區",
                "market_address": "桃園市中壢區九和二街21號、23號",
                "pay_list": "信用卡\/悠遊卡\/台灣pay"
            },
            "geometry": {
                "type": "Point",
                "coordinates": [
                    121.223665,
                    24.96337
                ]
            }
        },
        {
            "type": "Feature",
            "properties": {
                "shop": "統一企業股份有限公司中壢廠",
                "category": "糕餅",
                "area": "中壢區",
                "market_address": "桃園市中壢區內定里定寧路１５號",
                "pay_list": "一卡通MONEY(原LINE Pay Money)\/悠遊付"
            },
            "geometry": {
                "type": "Point",
                "coordinates": [
                    121.243568,
                    24.993151
                ]
            }
        },
        {
            "type": "Feature",
            "properties": {
                "shop": "素寶齋食品行",
                "category": "糕餅",
                "area": "中壢區",
                "market_address": "桃園市中壢區興南里４鄰大同路２號",
                "pay_list": "信用卡"
            },
            "geometry": {
                "type": "Point",
                "coordinates": [
                    121.2243,
                    24.959067
                ]
            }
        },
        {
            "type": "Feature",
            "properties": {
                "shop": "紘懋食品有限公司",
                "category": "餐飲\/糕餅",
                "area": "中壢區",
                "market_address": "桃園市中壢區中正里興仁路２段４７０號１樓",
                "pay_list": "台灣pay\/信用卡\/一卡通MONEY(原LINE Pay Money)"
            },
            "geometry": {
                "type": "Point",
                "coordinates": [
                    121.26405,
                    24.960874
                ]
            }
        },
        {
            "type": "Feature",
            "properties": {
                "shop": "紅樓手工烘培坊",
                "category": "糕餅",
                "area": "中壢區",
                "market_address": "桃園市中壢區新明里民權路８３號１樓",
                "pay_list": "台灣pay\/信用卡"
            },
            "geometry": {
                "type": "Point",
                "coordinates": [
                    121.217191,
                    24.956944
                ]
            }
        },
        {
            "type": "Feature",
            "properties": {
                "shop": "米多甜食品有限公司",
                "category": "糕餅",
                "area": "中壢區",
                "market_address": "桃園市中壢區舊明里中山路３６７號",
                "pay_list": "街口"
            },
            "geometry": {
                "type": "Point",
                "coordinates": [
                    121.218191,
                    24.95628
                ]
            }
        },
        {
            "type": "Feature",
            "properties": {
                "shop": "等等法式甜點",
                "category": "餐飲\/糕餅",
                "area": "中壢區",
                "market_address": "桃園市中壢區興和里環北路１９５號１樓",
                "pay_list": "信用卡"
            },
            "geometry": {
                "type": "Point",
                "coordinates": [
                    121.222091,
                    24.96648
                ]
            }
        },
        {
            "type": "Feature",
            "properties": {
                "shop": "百馥商行",
                "category": "餐飲\/糕餅",
                "area": "中壢區",
                "market_address": "桃園市中壢區後寮里中山東路３段４８號",
                "pay_list": "Pi 拍錢包\/台灣pay\/信用卡\/悠遊付\/一卡通MONEY(原LINE Pay Money)"
            },
            "geometry": {
                "type": "Point",
                "coordinates": [
                    121.247324,
                    24.945359
                ]
            }
        },
        {
            "type": "Feature",
            "properties": {
                "shop": "珍格食品有限公司",
                "category": "糕餅",
                "area": "中壢區",
                "market_address": "桃園市中壢區內定里內定二十街１５巷８號",
                "pay_list": "台灣pay"
            },
            "geometry": {
                "type": "Point",
                "coordinates": [
                    121.23222,
                    25.001045
                ]
            }
        },
        {
            "type": "Feature",
            "properties": {
                "shop": "涼伴堂甜點工作室",
                "category": "糕餅",
                "area": "中壢區",
                "market_address": "桃園市中壢區明德里惠州街１１２號",
                "pay_list": "街口"
            },
            "geometry": {
                "type": "Point",
                "coordinates": [
                    121.231441,
                    24.946386
                ]
            }
        },
        {
            "type": "Feature",
            "properties": {
                "shop": "流石餐飲店",
                "category": "餐飲\/糕餅",
                "area": "中壢區",
                "market_address": "桃園市中壢區幸福里福州二街４１２―１號１、２樓",
                "pay_list": "街口"
            },
            "geometry": {
                "type": "Point",
                "coordinates": [
                    121.229699,
                    24.966176
                ]
            }
        },
        {
            "type": "Feature",
            "properties": {
                "shop": "洪瑞珍傳世有限公司",
                "category": "糕餅",
                "area": "中壢區",
                "market_address": "桃園市中壢區水尾里環北路３５９號１樓",
                "pay_list": "街口"
            },
            "geometry": {
                "type": "Point",
                "coordinates": [
                    121.224918,
                    24.966086
                ]
            }
        },
        {
            "type": "Feature",
            "properties": {
                "shop": "沃德先生烘焙家作館",
                "category": "餐飲\/糕餅",
                "area": "中壢區",
                "market_address": "桃園市中壢區光明里光輝二街２９號１、２樓",
                "pay_list": "台灣pay\/信用卡"
            },
            "geometry": {
                "type": "Point",
                "coordinates": [
                    121.218534,
                    24.963688
                ]
            }
        },
        {
            "type": "Feature",
            "properties": {
                "shop": "歐包烘焙有限公司",
                "category": "糕餅",
                "area": "中壢區",
                "market_address": "桃園市中壢區青埔里春德路２８３號",
                "pay_list": "台灣pay\/一卡通MONEY(原LINE Pay Money)"
            },
            "geometry": {
                "type": "Point",
                "coordinates": [
                    121.211175,
                    25.014309
                ]
            }
        },
        {
            "type": "Feature",
            "properties": {
                "shop": "歐亞諾烘焙坊",
                "category": "糕餅",
                "area": "中壢區",
                "market_address": "桃園市中壢區普忠里實踐路４２―１號１樓",
                "pay_list": "台灣pay\/信用卡"
            },
            "geometry": {
                "type": "Point",
                "coordinates": [
                    121.24232257451,
                    24.954282348118
                ]
            }
        },
        {
            "type": "Feature",
            "properties": {
                "shop": "昌杰食品行",
                "category": "糕餅",
                "area": "中壢區",
                "market_address": "桃園市中壢區自強里莊敬路１３９號１樓",
                "pay_list": "台灣pay\/信用卡\/一卡通MONEY(原LINE Pay Money)"
            },
            "geometry": {
                "type": "Point",
                "coordinates": [
                    121.257576,
                    24.968748
                ]
            }
        },
        {
            "type": "Feature",
            "properties": {
                "shop": "德昌製麵店",
                "category": "糕餅",
                "area": "中壢區",
                "market_address": "桃園市中壢區五福里五穀街１０號",
                "pay_list": "台灣pay\/信用卡"
            },
            "geometry": {
                "type": "Point",
                "coordinates": [
                    121.207892,
                    24.960177
                ]
            }
        },
        {
            "type": "Feature",
            "properties": {
                "shop": "復興空廚股份有限公司中壢營業所",
                "category": "糕餅",
                "area": "中壢區",
                "market_address": "桃園市中壢區青埔里高鐵北路１段５號",
                "pay_list": "一卡通MONEY(原LINE Pay Money)"
            },
            "geometry": {
                "type": "Point",
                "coordinates": [
                    121.214608,
                    25.013855
                ]
            }
        },
        {
            "type": "Feature",
            "properties": {
                "shop": "彭記山東饅頭專賣店",
                "category": "餐飲\/糕餅",
                "area": "中壢區",
                "market_address": "桃園市中壢區東興里中北路２段４號１樓",
                "pay_list": "台灣pay"
            },
            "geometry": {
                "type": "Point",
                "coordinates": [
                    121.223181,
                    24.94956
                ]
            }
        },
        {
            "type": "Feature",
            "properties": {
                "shop": "強毅烘焙",
                "category": "糕餅",
                "area": "中壢區",
                "market_address": "桃園市中壢區興南里新生路１５８號１樓",
                "pay_list": "一卡通MONEY(原LINE Pay Money)"
            },
            "geometry": {
                "type": "Point",
                "coordinates": [
                    121.223084,
                    24.960801
                ]
            }
        },
        {
            "type": "Feature",
            "properties": {
                "shop": "局外人甜點工作室",
                "category": "糕餅",
                "area": "中壢區",
                "market_address": "桃園市中壢區林森里自忠街６６號１樓",
                "pay_list": "台灣pay"
            },
            "geometry": {
                "type": "Point",
                "coordinates": [
                    121.225103,
                    24.94302
                ]
            }
        },
        {
            "type": "Feature",
            "properties": {
                "shop": "小麥麵包店",
                "category": "糕餅",
                "area": "中壢區",
                "market_address": "桃園市中壢區東興里３２鄰中北路２段５１號１樓",
                "pay_list": "台灣pay\/一卡通MONEY(原LINE Pay Money)"
            },
            "geometry": {
                "type": "Point",
                "coordinates": [
                    121.22448,
                    24.950534
                ]
            }
        },
        {
            "type": "Feature",
            "properties": {
                "shop": "宏亞食品股份有限公司中壢分公司",
                "category": "糕餅",
                "area": "中壢區",
                "market_address": "桃園市中壢區中央里延平路４６１號",
                "pay_list": "信用卡\/一卡通MONEY(原LINE Pay Money)"
            },
            "geometry": {
                "type": "Point",
                "coordinates": [
                    121.224181,
                    24.958013
                ]
            }
        },
        {
            "type": "Feature",
            "properties": {
                "shop": "安裕蛋糕烘焙坊",
                "category": "糕餅",
                "area": "中壢區",
                "market_address": "桃園市中壢區中建里延平路４７２號１、２樓，４７４號１、２樓",
                "pay_list": "一卡通MONEY(原LINE Pay Money)"
            },
            "geometry": {
                "type": "Point",
                "coordinates": [
                    121.223748,
                    24.957736
                ]
            }
        },
        {
            "type": "Feature",
            "properties": {
                "shop": "安家咖啡",
                "category": "餐飲\/糕餅",
                "area": "中壢區",
                "market_address": "桃園市中壢區五權里五族二街１１５號１樓",
                "pay_list": "台灣pay\/信用卡\/悠遊卡\/街口\/一卡通MONEY(原LINE Pay Money)"
            },
            "geometry": {
                "type": "Point",
                "coordinates": [
                    121.20607,
                    24.959026
                ]
            }
        },
        {
            "type": "Feature",
            "properties": {
                "shop": "威記食品行",
                "category": "糕餅",
                "area": "中壢區",
                "market_address": "桃園市中壢區正義里中山東路１段２７６巷１２弄１９號１樓",
                "pay_list": "台灣pay\/信用卡\/悠遊卡\/一卡通MONEY(原LINE Pay Money)\/街口\/歐付寶"
            },
            "geometry": {
                "type": "Point",
                "coordinates": [
                    121.234596,
                    24.955843
                ]
            }
        },
        {
            "type": "Feature",
            "properties": {
                "shop": "塔塔家法式點心坊",
                "category": "餐飲\/糕餅",
                "area": "中壢區",
                "market_address": "桃園市中壢區永光里三光路３２７號１樓",
                "pay_list": "台灣pay\/信用卡\/悠遊卡"
            },
            "geometry": {
                "type": "Point",
                "coordinates": [
                    121.214562,
                    24.964334
                ]
            }
        },
        {
            "type": "Feature",
            "properties": {
                "shop": "台灣山崎麵包Yamazaki中壢店",
                "category": "糕餅",
                "area": "中壢區",
                "market_address": "桃園市中壢區元化路357號(SOGO百貨B1)",
                "pay_list": "信用卡\/悠遊卡"
            },
            "geometry": {
                "type": "Point",
                "coordinates": [
                    121.223533,
                    24.962685
                ]
            }
        },
        {
            "type": "Feature",
            "properties": {
                "shop": "台灣伊莎貝爾食品股份有限公司中壢中正店",
                "category": "糕餅",
                "area": "中壢區",
                "market_address": "桃園市中壢區中央里延平路４５５號１樓",
                "pay_list": "一卡通MONEY(原LINE Pay Money)"
            },
            "geometry": {
                "type": "Point",
                "coordinates": [
                    121.224329,
                    24.958262
                ]
            }
        },
        {
            "type": "Feature",
            "properties": {
                "shop": "原選製菓有限公司",
                "category": "糕餅",
                "area": "中壢區",
                "market_address": "桃園市中壢區普仁里實踐路２２５―１０號",
                "pay_list": "台灣pay\/一卡通MONEY(原LINE Pay Money)"
            },
            "geometry": {
                "type": "Point",
                "coordinates": [
                    121.23878097974,
                    24.95745152318
                ]
            }
        },
        {
            "type": "Feature",
            "properties": {
                "shop": "千禾烘焙坊",
                "category": "糕餅",
                "area": "中壢區",
                "market_address": "桃園市中壢區正義里中北路２段４５９號１樓",
                "pay_list": "信用卡"
            },
            "geometry": {
                "type": "Point",
                "coordinates": [
                    121.23283,
                    24.954637
                ]
            }
        },
        {
            "type": "Feature",
            "properties": {
                "shop": "億祥西點麵包店",
                "category": "糕餅",
                "area": "中壢區",
                "market_address": "桃園市中壢區明德里吉長二街１０巷１號",
                "pay_list": "台灣pay\/悠遊卡"
            },
            "geometry": {
                "type": "Point",
                "coordinates": [
                    121.231849,
                    24.94686
                ]
            }
        },
        {
            "type": "Feature",
            "properties": {
                "shop": "仙貝朵烘焙坊",
                "category": "糕餅",
                "area": "中壢區",
                "market_address": "桃園市中壢區龍昌里龍東路４６７號１樓",
                "pay_list": "街口"
            },
            "geometry": {
                "type": "Point",
                "coordinates": [
                    121.256589,
                    24.934737
                ]
            }
        },
        {
            "type": "Feature",
            "properties": {
                "shop": "二十一世紀生活事業股份有限公司內壢家福門市部",
                "category": "糕餅",
                "area": "中壢區",
                "market_address": "桃園市中壢區中原里中華路１段４５０號",
                "pay_list": "信用卡\/一卡通MONEY(原LINE Pay Money)"
            },
            "geometry": {
                "type": "Point",
                "coordinates": [
                    121.258686,
                    24.973002
                ]
            }
        },
        {
            "type": "Feature",
            "properties": {
                "shop": "一覺有限公司桃園分公司",
                "category": "餐飲\/糕餅",
                "area": "中壢區",
                "market_address": "桃園市中壢區青埔里高鐵北路１段６號地下１樓",
                "pay_list": "信用卡"
            },
            "geometry": {
                "type": "Point",
                "coordinates": [
                    121.215142,
                    25.013351
                ]
            }
        },
        {
            "type": "Feature",
            "properties": {
                "shop": "一之鄉股份有限公司中壢分公司",
                "category": "糕餅",
                "area": "中壢區",
                "market_address": "桃園市中壢區興南里延平路４６６號１樓",
                "pay_list": "信用卡\/一卡通MONEY(原LINE Pay Money)"
            },
            "geometry": {
                "type": "Point",
                "coordinates": [
                    121.223907,
                    24.958106
                ]
            }
        },
        {
            "type": "Feature",
            "properties": {
                "shop": "REAL真‧Café‧Bread 中壢海華店",
                "category": "糕餅",
                "area": "中壢區",
                "market_address": "桃園市中壢區金華里九和二街１７、１９號１樓",
                "pay_list": "信用卡\/悠遊卡\/一卡通MONEY(原LINE Pay Money)\/悠遊付"
            },
            "geometry": {
                "type": "Point",
                "coordinates": [
                    121.223162,
                    24.963325
                ]
            }
        },
        {
            "type": "Feature",
            "properties": {
                "shop": "85度C 中壢壢中店",
                "category": "糕餅",
                "area": "中壢區",
                "market_address": "桃園市中壢區光明里三光路８４號１樓",
                "pay_list": "Pi 拍錢包\/台灣pay\/信用卡\/悠遊付\/一卡通MONEY(原LINE Pay Money)"
            },
            "geometry": {
                "type": "Point",
                "coordinates": [
                    121.211391,
                    24.961614
                ]
            }
        },
        {
            "type": "Feature",
            "properties": {
                "shop": "龜記茗品 中壢新生店",
                "category": "餐飲",
                "area": "中壢區",
                "market_address": "桃園市中壢區中央西路一段31號",
                "pay_list": "街口\/一卡通MONEY(原LINE Pay Money)"
            },
            "geometry": {
                "type": "Point",
                "coordinates": [
                    121.22288,
                    24.95739
                ]
            }
        },
        {
            "type": "Feature",
            "properties": {
                "shop": "龜記茗品 中壢中原店",
                "category": "餐飲",
                "area": "中壢區",
                "market_address": "桃園市中壢區普忠里實踐路１１０號１樓",
                "pay_list": "街口\/一卡通MONEY(原LINE Pay Money)"
            },
            "geometry": {
                "type": "Point",
                "coordinates": [
                    121.24034,
                    24.955908
                ]
            }
        },
        {
            "type": "Feature",
            "properties": {
                "shop": "龍茵餐飲店",
                "category": "餐飲",
                "area": "中壢區",
                "market_address": "桃園市中壢區自信里莊敬路８１１巷１６號１樓",
                "pay_list": "台灣pay\/一卡通MONEY(原LINE Pay Money)"
            },
            "geometry": {
                "type": "Point",
                "coordinates": [
                    121.25513610194,
                    24.963716549998
                ]
            }
        },
        {
            "type": "Feature",
            "properties": {
                "shop": "龍米飲食店",
                "category": "餐飲",
                "area": "中壢區",
                "market_address": "桃園市中壢區仁義里福州二街５１５號１樓",
                "pay_list": "台灣pay"
            },
            "geometry": {
                "type": "Point",
                "coordinates": [
                    121.23486652376,
                    24.968602196709
                ]
            }
        },
        {
            "type": "Feature",
            "properties": {
                "shop": "龍川早餐店",
                "category": "餐飲",
                "area": "中壢區",
                "market_address": "桃園市中壢區龍昌里龍川街１８號１樓",
                "pay_list": "台灣pay"
            },
            "geometry": {
                "type": "Point",
                "coordinates": [
                    121.248926,
                    24.934737
                ]
            }
        },
        {
            "type": "Feature",
            "properties": {
                "shop": "龍寶冷飲店",
                "category": "餐飲",
                "area": "中壢區",
                "market_address": "桃園市中壢區龍興里龍岡路３段１５７號１樓",
                "pay_list": "Pi 拍錢包\/街口\/一卡通MONEY(原LINE Pay Money)\/悠遊付\/橘子支付"
            },
            "geometry": {
                "type": "Point",
                "coordinates": [
                    121.233339,
                    24.936413
                ]
            }
        },
        {
            "type": "Feature",
            "properties": {
                "shop": "鼎珍餐飲有限公司九和分公司",
                "category": "餐飲",
                "area": "中壢區",
                "market_address": "桃園市中壢區興南里九和一街６０、６２號１樓",
                "pay_list": "悠遊卡\/一卡通MONEY(原LINE Pay Money)"
            },
            "geometry": {
                "type": "Point",
                "coordinates": [
                    121.224779,
                    24.961451
                ]
            }
        },
        {
            "type": "Feature",
            "properties": {
                "shop": "鼎珍餐飲有限公司",
                "category": "餐飲",
                "area": "中壢區",
                "market_address": "桃園市中壢區興南里九和一街１８號２樓之３",
                "pay_list": "台灣pay\/信用卡\/悠遊卡\/一卡通MONEY(原LINE Pay Money)"
            },
            "geometry": {
                "type": "Point",
                "coordinates": [
                    121.22376481557,
                    24.961554134857
                ]
            }
        },
        {
            "type": "Feature",
            "properties": {
                "shop": "鼎珍旺國際事業有限公司中央分公司",
                "category": "餐飲",
                "area": "中壢區",
                "market_address": "桃園市中壢區新明里中央西路２段２６８號１樓",
                "pay_list": "信用卡\/一卡通MONEY(原LINE Pay Money)"
            },
            "geometry": {
                "type": "Point",
                "coordinates": [
                    121.21149993976,
                    24.96104841079
                ]
            }
        },
        {
            "type": "Feature",
            "properties": {
                "shop": "鼎珍旺國際事業有限公司",
                "category": "餐飲",
                "area": "中壢區",
                "market_address": "桃園市中壢區水尾里環北路３６５號",
                "pay_list": "台灣pay\/信用卡\/悠遊卡\/一卡通MONEY(原LINE Pay Money)"
            },
            "geometry": {
                "type": "Point",
                "coordinates": [
                    121.22517171765,
                    24.966058711539
                ]
            }
        },
        {
            "type": "Feature",
            "properties": {
                "shop": "鼎滿鑫股份有限公司",
                "category": "餐飲",
                "area": "中壢區",
                "market_address": "桃園市中壢區興國里中美路２段８０，８２號",
                "pay_list": "信用卡"
            },
            "geometry": {
                "type": "Point",
                "coordinates": [
                    121.219801,
                    24.960339
                ]
            }
        },
        {
            "type": "Feature",
            "properties": {
                "shop": "鼎崴企業社",
                "category": "餐飲",
                "area": "中壢區",
                "market_address": "桃園市中壢區舊明里中正路４１５號１樓",
                "pay_list": "台灣pay\/信用卡"
            },
            "geometry": {
                "type": "Point",
                "coordinates": [
                    121.21494556547,
                    24.955987126983
                ]
            }
        },
        {
            "type": "Feature",
            "properties": {
                "shop": "黑鬍子牛排",
                "category": "餐飲",
                "area": "中壢區",
                "market_address": "桃園市中壢區光明里新明路１５１號１樓",
                "pay_list": "街口\/一卡通MONEY(原LINE Pay Money)"
            },
            "geometry": {
                "type": "Point",
                "coordinates": [
                    121.21516995112,
                    24.96132926345
                ]
            }
        },
        {
            "type": "Feature",
            "properties": {
                "shop": "黑鍋養生鍋物",
                "category": "餐飲",
                "area": "中壢區",
                "market_address": "桃園市中壢區金華里環北路３６８號",
                "pay_list": "信用卡"
            },
            "geometry": {
                "type": "Point",
                "coordinates": [
                    121.224351,
                    24.965802
                ]
            }
        },
        {
            "type": "Feature",
            "properties": {
                "shop": "黑糖圓圓飲料店",
                "category": "餐飲",
                "area": "中壢區",
                "market_address": "桃園市中壢區興國里元化路２段３號",
                "pay_list": "台灣pay\/信用卡\/悠遊卡\/街口\/一卡通MONEY(原LINE Pay Money)"
            },
            "geometry": {
                "type": "Point",
                "coordinates": [
                    121.22272377854,
                    24.962239505198
                ]
            }
        },
        {
            "type": "Feature",
            "properties": {
                "shop": "黑沃咖啡 中壢龍慈店",
                "category": "餐飲",
                "area": "中壢區",
                "market_address": "桃園市中壢區後寮里龍慈路２０號１樓",
                "pay_list": "信用卡\/悠遊卡\/街口\/一卡通MONEY(原LINE Pay Money)"
            },
            "geometry": {
                "type": "Point",
                "coordinates": [
                    121.247692,
                    24.943873
                ]
            }
        },
        {
            "type": "Feature",
            "properties": {
                "shop": "黑日夢餐飲企業社",
                "category": "餐飲",
                "area": "中壢區",
                "market_address": "桃園市中壢區普仁里實踐路２２５―１４號",
                "pay_list": "一卡通MONEY(原LINE Pay Money)\/街口"
            },
            "geometry": {
                "type": "Point",
                "coordinates": [
                    121.23878097974,
                    24.95745152318
                ]
            }
        },
        {
            "type": "Feature",
            "properties": {
                "shop": "黑宅拉麵",
                "category": "餐飲",
                "area": "中壢區",
                "market_address": "桃園市中壢區普忠里實踐路２１６號１樓",
                "pay_list": "街口"
            },
            "geometry": {
                "type": "Point",
                "coordinates": [
                    121.239273,
                    24.957158
                ]
            }
        },
        {
            "type": "Feature",
            "properties": {
                "shop": "黑丸嫩仙草 中壢莒光店",
                "category": "餐飲",
                "area": "中壢區",
                "market_address": "桃園市中壢區普強里莒光路９４號１樓",
                "pay_list": "信用卡"
            },
            "geometry": {
                "type": "Point",
                "coordinates": [
                    121.23653331128,
                    24.951910415392
                ]
            }
        },
        {
            "type": "Feature",
            "properties": {
                "shop": "麻辣桑義",
                "category": "餐飲",
                "area": "中壢區",
                "market_address": "桃園市中壢區和平里成章二街５９１號１樓",
                "pay_list": "街口"
            },
            "geometry": {
                "type": "Point",
                "coordinates": [
                    121.25139483245,
                    24.97859740883
                ]
            }
        },
        {
            "type": "Feature",
            "properties": {
                "shop": "麥迪森餐飲館",
                "category": "餐飲",
                "area": "中壢區",
                "market_address": "桃園市中壢區普忠里新中北路２４８巷４０號１樓",
                "pay_list": "台灣pay\/一卡通MONEY(原LINE Pay Money)"
            },
            "geometry": {
                "type": "Point",
                "coordinates": [
                    121.23947113406,
                    24.958621486685
                ]
            }
        },
        {
            "type": "Feature",
            "properties": {
                "shop": "麥當勞中壢環中東分公司",
                "category": "餐飲",
                "area": "中壢區",
                "market_address": "桃園市中壢區普強里環中東路２段１７６號",
                "pay_list": "信用卡\/一卡通MONEY(原LINE Pay Money)"
            },
            "geometry": {
                "type": "Point",
                "coordinates": [
                    121.23656082697,
                    24.949310916877
                ]
            }
        },
        {
            "type": "Feature",
            "properties": {
                "shop": "麥當勞中壢環中東二分公司",
                "category": "餐飲",
                "area": "中壢區",
                "market_address": "桃園市中壢區中興里環中東路３０１﹒３０３號",
                "pay_list": "信用卡\/一卡通MONEY(原LINE Pay Money)"
            },
            "geometry": {
                "type": "Point",
                "coordinates": [
                    121.256212,
                    24.962636
                ]
            }
        },
        {
            "type": "Feature",
            "properties": {
                "shop": "麥當勞中壢家樂福門市部",
                "category": "餐飲",
                "area": "中壢區",
                "market_address": "桃園市中壢區後寮里中山東路２段５１０號１樓",
                "pay_list": "信用卡\/一卡通MONEY(原LINE Pay Money)"
            },
            "geometry": {
                "type": "Point",
                "coordinates": [
                    121.24410319477,
                    24.947818635493
                ]
            }
        },
        {
            "type": "Feature",
            "properties": {
                "shop": "麥當勞中壢中華分公司",
                "category": "餐飲",
                "area": "中壢區",
                "market_address": "桃園市中壢區仁義里中華路２段３５８號１樓",
                "pay_list": "信用卡\/一卡通MONEY(原LINE Pay Money)"
            },
            "geometry": {
                "type": "Point",
                "coordinates": [
                    121.23550966186,
                    24.964258081568
                ]
            }
        },
        {
            "type": "Feature",
            "properties": {
                "shop": "麥當勞中壢中正二分公司",
                "category": "餐飲",
                "area": "中壢區",
                "market_address": "桃園市中壢區石頭里中正路９３號１至２樓",
                "pay_list": "信用卡\/一卡通MONEY(原LINE Pay Money)"
            },
            "geometry": {
                "type": "Point",
                "coordinates": [
                    121.22330686098,
                    24.954524144741
                ]
            }
        },
        {
            "type": "Feature",
            "properties": {
                "shop": "麥當勞中壢中央分公司",
                "category": "餐飲",
                "area": "中壢區",
                "market_address": "桃園市中壢區中央里中央東路４９號及復興路５７號１樓",
                "pay_list": "信用卡\/一卡通MONEY(原LINE Pay Money)"
            },
            "geometry": {
                "type": "Point",
                "coordinates": [
                    121.22521074014,
                    24.956425095414
                ]
            }
        },
        {
            "type": "Feature",
            "properties": {
                "shop": "麥當勞中壢中原門市部",
                "category": "餐飲",
                "area": "中壢區",
                "market_address": "桃園市中壢區普忠里中北路２００號活動中心Ｂ１樓",
                "pay_list": "信用卡\/一卡通MONEY(原LINE Pay Money)"
            },
            "geometry": {
                "type": "Point",
                "coordinates": [
                    121.24034894907,
                    24.957278996865
                ]
            }
        },
        {
            "type": "Feature",
            "properties": {
                "shop": "麥基客速食餐飲有限公司",
                "category": "餐飲",
                "area": "中壢區",
                "market_address": "桃園市中壢區石頭里中正路１０２號１－３樓",
                "pay_list": "台灣pay\/信用卡"
            },
            "geometry": {
                "type": "Point",
                "coordinates": [
                    121.22307983861,
                    24.954940874389
                ]
            }
        },
        {
            "type": "Feature",
            "properties": {
                "shop": "鹿旺咖啡飲品店",
                "category": "餐飲",
                "area": "中壢區",
                "market_address": "桃園市中壢區普仁里中北路８７―１號",
                "pay_list": "街口\/一卡通MONEY(原LINE Pay Money)"
            },
            "geometry": {
                "type": "Point",
                "coordinates": [
                    121.23774487842,
                    24.956416902574
                ]
            }
        },
        {
            "type": "Feature",
            "properties": {
                "shop": "鴻赫飲食店",
                "category": "餐飲",
                "area": "中壢區",
                "market_address": "桃園市中壢區五福里民族路２６４巷７弄２號１樓",
                "pay_list": "台灣pay\/信用卡\/一卡通MONEY(原LINE Pay Money)"
            },
            "geometry": {
                "type": "Point",
                "coordinates": [
                    121.20889627413,
                    24.957363445119
                ]
            }
        },
        {
            "type": "Feature",
            "properties": {
                "shop": "鴻翔越食堂",
                "category": "餐飲",
                "area": "中壢區",
                "market_address": "桃園市中壢區普忠里新中北路１９９號１樓",
                "pay_list": "街口"
            },
            "geometry": {
                "type": "Point",
                "coordinates": [
                    121.23875648204,
                    24.958767720079
                ]
            }
        },
        {
            "type": "Feature",
            "properties": {
                "shop": "鴻緯實業",
                "category": "餐飲",
                "area": "中壢區",
                "market_address": "桃園市中壢區龍東里龍昌路３０５號１樓",
                "pay_list": "一卡通MONEY(原LINE Pay Money)"
            },
            "geometry": {
                "type": "Point",
                "coordinates": [
                    121.249489,
                    24.934733
                ]
            }
        },
        {
            "type": "Feature",
            "properties": {
                "shop": "鴻窯店",
                "category": "餐飲",
                "area": "中壢區",
                "market_address": "桃園市中壢區永興里中山路２５０號１樓",
                "pay_list": "街口"
            },
            "geometry": {
                "type": "Point",
                "coordinates": [
                    121.221746,
                    24.957108
                ]
            }
        },
        {
            "type": "Feature",
            "properties": {
                "shop": "鳥一番居酒屋",
                "category": "餐飲",
                "area": "中壢區",
                "market_address": "桃園市中壢區興南里大同路２８號",
                "pay_list": "信用卡\/悠遊卡\/街口"
            },
            "geometry": {
                "type": "Point",
                "coordinates": [
                    121.223899,
                    24.958701
                ]
            }
        },
        {
            "type": "Feature",
            "properties": {
                "shop": "鰻慢來飲食店",
                "category": "餐飲",
                "area": "中壢區",
                "market_address": "桃園市中壢區興南里大同路１６號１樓",
                "pay_list": "台灣pay"
            },
            "geometry": {
                "type": "Point",
                "coordinates": [
                    121.2240616148,
                    24.958864493513
                ]
            }
        },
        {
            "type": "Feature",
            "properties": {
                "shop": "鮮茶道Presotea 青埔棒球場店",
                "category": "餐飲",
                "area": "中壢區",
                "market_address": "桃園市中壢區芝芭里領航南路１段６７號１樓",
                "pay_list": "台灣pay\/信用卡\/悠遊付\/悠遊卡\/街口\/一卡通MONEY(原LINE Pay Money)"
            },
            "geometry": {
                "type": "Point",
                "coordinates": [
                    121.20417478594,
                    25.001020088319
                ]
            }
        },
        {
            "type": "Feature",
            "properties": {
                "shop": "鮮茶道Presotea 中壢龍東店",
                "category": "餐飲",
                "area": "中壢區",
                "market_address": "桃園市中壢區龍平里龍東路２３４號１樓",
                "pay_list": "台灣pay\/悠遊付\/悠遊卡\/街口\/一卡通MONEY(原LINE Pay Money)"
            },
            "geometry": {
                "type": "Point",
                "coordinates": [
                    121.25398967298,
                    24.93027681351
                ]
            }
        },
        {
            "type": "Feature",
            "properties": {
                "shop": "鮮茶道Presotea 中壢延平中正店",
                "category": "餐飲",
                "area": "中壢區",
                "market_address": "桃園市中壢區中建里延平路５６８號１樓",
                "pay_list": "悠遊付\/悠遊卡\/街口\/一卡通MONEY(原LINE Pay Money)"
            },
            "geometry": {
                "type": "Point",
                "coordinates": [
                    121.22252852563,
                    24.955160818102
                ]
            }
        },
        {
            "type": "Feature",
            "properties": {
                "shop": "鮮茶道Presotea 中壢中園店",
                "category": "餐飲",
                "area": "中壢區",
                "market_address": "桃園市中壢區仁義里中園路５３號１樓",
                "pay_list": "台灣pay\/悠遊付\/悠遊卡\/街口\/一卡通MONEY(原LINE Pay Money)"
            },
            "geometry": {
                "type": "Point",
                "coordinates": [
                    121.236245,
                    24.965781
                ]
            }
        },
        {
            "type": "Feature",
            "properties": {
                "shop": "鮮茶道Presotea 中原實踐店",
                "category": "餐飲",
                "area": "中壢區",
                "market_address": "桃園市中壢區普忠里實踐路２６０號１樓",
                "pay_list": "台灣pay\/信用卡\/悠遊付\/悠遊卡\/街口\/一卡通MONEY(原LINE Pay Money)"
            },
            "geometry": {
                "type": "Point",
                "coordinates": [
                    121.239369,
                    24.958022
                ]
            }
        },
        {
            "type": "Feature",
            "properties": {
                "shop": "鮮芋仙 中壢新明店",
                "category": "餐飲",
                "area": "中壢區",
                "market_address": "桃園市中壢區新明里中山路５１５號１樓",
                "pay_list": "一卡通MONEY(原LINE Pay Money)"
            },
            "geometry": {
                "type": "Point",
                "coordinates": [
                    121.214626,
                    24.956994
                ]
            }
        },
        {
            "type": "Feature",
            "properties": {
                "shop": "魔法氛子甜點工作室",
                "category": "餐飲",
                "area": "中壢區",
                "market_address": "桃園市中壢區普仁里力行北街３３號１樓",
                "pay_list": "台灣pay\/街口\/橘子支付\/一卡通MONEY(原LINE Pay Money)"
            },
            "geometry": {
                "type": "Point",
                "coordinates": [
                    121.23989003202,
                    24.954011370955
                ]
            }
        },
        {
            "type": "Feature",
            "properties": {
                "shop": "鬍鬚張股份有限公司中壢環東分公司",
                "category": "餐飲",
                "area": "中壢區",
                "market_address": "桃園市中壢區中興里環中東路２４７號",
                "pay_list": "Pi 拍錢包"
            },
            "geometry": {
                "type": "Point",
                "coordinates": [
                    121.25714643398,
                    24.963353221541
                ]
            }
        },
        {
            "type": "Feature",
            "properties": {
                "shop": "鬍鬚張股份有限公司中壢中山分公司",
                "category": "餐飲",
                "area": "中壢區",
                "market_address": "桃園市中壢區石頭里中山路１４７號",
                "pay_list": "信用卡\/一卡通MONEY(原LINE Pay Money)\/悠遊付"
            },
            "geometry": {
                "type": "Point",
                "coordinates": [
                    121.22426053563,
                    24.955889791196
                ]
            }
        },
        {
            "type": "Feature",
            "properties": {
                "shop": "鬍子兄弟股份有限公司",
                "category": "餐飲",
                "area": "中壢區",
                "market_address": "桃園市中壢區內定里合圳北路２段４７５號",
                "pay_list": "一卡通MONEY(原LINE Pay Money)"
            },
            "geometry": {
                "type": "Point",
                "coordinates": [
                    121.246523,
                    25.006855
                ]
            }
        },
        {
            "type": "Feature",
            "properties": {
                "shop": "高鼎屋事業有限公司",
                "category": "餐飲",
                "area": "中壢區",
                "market_address": "桃園市中壢區中央里中美路１９號１樓",
                "pay_list": "信用卡"
            },
            "geometry": {
                "type": "Point",
                "coordinates": [
                    121.22722991231,
                    24.957925436117
                ]
            }
        },
        {
            "type": "Feature",
            "properties": {
                "shop": "高鼎健康鍋",
                "category": "餐飲",
                "area": "中壢區",
                "market_address": "桃園市中壢區普仁里中山東路２段１８５號１樓",
                "pay_list": "街口\/一卡通MONEY(原LINE Pay Money)"
            },
            "geometry": {
                "type": "Point",
                "coordinates": [
                    121.24004515723,
                    24.952296359305
                ]
            }
        },
        {
            "type": "Feature",
            "properties": {
                "shop": "高銘日式涮涮鍋小吃店",
                "category": "餐飲",
                "area": "中壢區",
                "market_address": "桃園市中壢區正義里中北路２段４８９號１樓、４９１號１樓",
                "pay_list": "一卡通MONEY(原LINE Pay Money)"
            },
            "geometry": {
                "type": "Point",
                "coordinates": [
                    121.233576,
                    24.954933
                ]
            }
        },
        {
            "type": "Feature",
            "properties": {
                "shop": "高梅枝",
                "category": "餐飲",
                "area": "中壢區",
                "market_address": "桃園市中壢區普忠里大仁街２６號１樓",
                "pay_list": "街口"
            },
            "geometry": {
                "type": "Point",
                "coordinates": [
                    121.24066912406,
                    24.956564876464
                ]
            }
        },
        {
            "type": "Feature",
            "properties": {
                "shop": "高名實業社",
                "category": "餐飲",
                "area": "中壢區",
                "market_address": "桃園市中壢區普忠里實踐路１３８號１樓",
                "pay_list": "街口\/一卡通MONEY(原LINE Pay Money)"
            },
            "geometry": {
                "type": "Point",
                "coordinates": [
                    121.239842,
                    24.956323
                ]
            }
        },
        {
            "type": "Feature",
            "properties": {
                "shop": "驚嘆號臭豆腐",
                "category": "餐飲",
                "area": "中壢區",
                "market_address": "桃園市中壢區中壢里中平路２０１號",
                "pay_list": "街口"
            },
            "geometry": {
                "type": "Point",
                "coordinates": [
                    121.22119548924,
                    24.956235376606
                ]
            }
        },
        {
            "type": "Feature",
            "properties": {
                "shop": "騰盛商業有限公司",
                "category": "餐飲",
                "area": "中壢區",
                "market_address": "桃園市中壢區新街里七和一街８３號",
                "pay_list": "台灣pay\/悠遊卡\/街口"
            },
            "geometry": {
                "type": "Point",
                "coordinates": [
                    121.226598,
                    24.963743
                ]
            }
        },
        {
            "type": "Feature",
            "properties": {
                "shop": "騰意餐飲店",
                "category": "餐飲",
                "area": "中壢區",
                "market_address": "桃園市中壢區龍慈里龍和一街２５８號１樓",
                "pay_list": "Pi 拍錢包\/悠遊卡\/一卡通MONEY(原LINE Pay Money)"
            },
            "geometry": {
                "type": "Point",
                "coordinates": [
                    121.245205,
                    24.938799
                ]
            }
        },
        {
            "type": "Feature",
            "properties": {
                "shop": "駿庠餐飲館",
                "category": "餐飲",
                "area": "中壢區",
                "market_address": "桃園市中壢區興南里慈惠三街３０巷２號１樓",
                "pay_list": "一卡通MONEY(原LINE Pay Money)"
            },
            "geometry": {
                "type": "Point",
                "coordinates": [
                    121.224151,
                    24.960919
                ]
            }
        },
        {
            "type": "Feature",
            "properties": {
                "shop": "駿庠有限公司",
                "category": "餐飲",
                "area": "中壢區",
                "market_address": "桃園市中壢區水尾里華夏路１４號２樓",
                "pay_list": "信用卡\/街口\/一卡通MONEY(原LINE Pay Money)"
            },
            "geometry": {
                "type": "Point",
                "coordinates": [
                    121.22420311615,
                    24.971098367978
                ]
            }
        },
        {
            "type": "Feature",
            "properties": {
                "shop": "駿兵衛餐飲有限公司",
                "category": "餐飲",
                "area": "中壢區",
                "market_address": "桃園市中壢區興南里新生路１８２號２樓",
                "pay_list": "信用卡"
            },
            "geometry": {
                "type": "Point",
                "coordinates": [
                    121.22309392693,
                    24.961274539123
                ]
            }
        },
        {
            "type": "Feature",
            "properties": {
                "shop": "馬拉小吃店",
                "category": "餐飲",
                "area": "中壢區",
                "market_address": "桃園市中壢區中正里榮民路２４３號１樓",
                "pay_list": "一卡通MONEY(原LINE Pay Money)"
            },
            "geometry": {
                "type": "Point",
                "coordinates": [
                    121.261433,
                    24.964848
                ]
            }
        },
        {
            "type": "Feature",
            "properties": {
                "shop": "馬叔叔小吃店",
                "category": "餐飲",
                "area": "中壢區",
                "market_address": "桃園市中壢區新街里慈惠三街１１０號１樓",
                "pay_list": "一卡通MONEY(原LINE Pay Money)"
            },
            "geometry": {
                "type": "Point",
                "coordinates": [
                    121.225674,
                    24.963242
                ]
            }
        },
        {
            "type": "Feature",
            "properties": {
                "shop": "馬克美食",
                "category": "餐飲",
                "area": "中壢區",
                "market_address": "桃園市中壢區普仁里中山東路２段７９號",
                "pay_list": "台灣pay\/信用卡\/街口"
            },
            "geometry": {
                "type": "Point",
                "coordinates": [
                    121.23852631808,
                    24.953727360919
                ]
            }
        },
        {
            "type": "Feature",
            "properties": {
                "shop": "馥宇商行",
                "category": "餐飲",
                "area": "中壢區",
                "market_address": "桃園市中壢區永光里環北路８９號地下１層",
                "pay_list": "台灣pay"
            },
            "geometry": {
                "type": "Point",
                "coordinates": [
                    121.218369,
                    24.966425
                ]
            }
        },
        {
            "type": "Feature",
            "properties": {
                "shop": "馥園小吃店",
                "category": "餐飲",
                "area": "中壢區",
                "market_address": "桃園市中壢區普忠里實踐路８６號１樓",
                "pay_list": "街口"
            },
            "geometry": {
                "type": "Point",
                "coordinates": [
                    121.242323,
                    24.954281
                ]
            }
        },
        {
            "type": "Feature",
            "properties": {
                "shop": "馥名商行",
                "category": "餐飲",
                "area": "中壢區",
                "market_address": "桃園市中壢區林森里林森路３７、３９號",
                "pay_list": "街口"
            },
            "geometry": {
                "type": "Point",
                "coordinates": [
                    121.227253,
                    24.943719
                ]
            }
        },
        {
            "type": "Feature",
            "properties": {
                "shop": "馥名商行",
                "category": "餐飲",
                "area": "中壢區",
                "market_address": "桃園市中壢區林森里林森路３７、３９號",
                "pay_list": "一卡通MONEY(原LINE Pay Money)"
            },
            "geometry": {
                "type": "Point",
                "coordinates": [
                    121.227253,
                    24.943719
                ]
            }
        },
        {
            "type": "Feature",
            "properties": {
                "shop": "香米便當",
                "category": "餐飲",
                "area": "中壢區",
                "market_address": "桃園市中壢區五權里中大路３００號",
                "pay_list": "一卡通MONEY(原LINE Pay Money)"
            },
            "geometry": {
                "type": "Point",
                "coordinates": [
                    121.195635,
                    24.968426
                ]
            }
        },
        {
            "type": "Feature",
            "properties": {
                "shop": "香米便當",
                "category": "餐飲",
                "area": "中壢區",
                "market_address": "桃園市中壢區五權里中央路１９０號１樓",
                "pay_list": "台灣pay"
            },
            "geometry": {
                "type": "Point",
                "coordinates": [
                    121.19070341588,
                    24.964064529632
                ]
            }
        },
        {
            "type": "Feature",
            "properties": {
                "shop": "香江發展餐飲股份有限公司",
                "category": "餐飲",
                "area": "中壢區",
                "market_address": "桃園市中壢區永光里環西路２段２９５號１樓",
                "pay_list": "台灣pay\/信用卡"
            },
            "geometry": {
                "type": "Point",
                "coordinates": [
                    121.21403520314,
                    24.965293186477
                ]
            }
        },
        {
            "type": "Feature",
            "properties": {
                "shop": "香城小吃館",
                "category": "餐飲",
                "area": "中壢區",
                "market_address": "桃園市中壢區龍慈里龍和一街２２１號１樓",
                "pay_list": "台灣pay"
            },
            "geometry": {
                "type": "Point",
                "coordinates": [
                    121.2454887806,
                    24.940728074558
                ]
            }
        },
        {
            "type": "Feature",
            "properties": {
                "shop": "首烏客家小館",
                "category": "餐飲",
                "area": "中壢區",
                "market_address": "桃園市中壢區水尾里環北路３３５號１樓",
                "pay_list": "信用卡"
            },
            "geometry": {
                "type": "Point",
                "coordinates": [
                    121.224429,
                    24.966125
                ]
            }
        },
        {
            "type": "Feature",
            "properties": {
                "shop": "饗蒔光商行",
                "category": "餐飲",
                "area": "中壢區",
                "market_address": "桃園市中壢區青埔里青松街３１９號１樓",
                "pay_list": "一卡通MONEY(原LINE Pay Money)"
            },
            "geometry": {
                "type": "Point",
                "coordinates": [
                    121.222476,
                    25.004187
                ]
            }
        },
        {
            "type": "Feature",
            "properties": {
                "shop": "饗樂餐飲店",
                "category": "餐飲",
                "area": "中壢區",
                "market_address": "桃園市中壢區中建里大同路１０５號１樓",
                "pay_list": "台灣pay\/一卡通MONEY(原LINE Pay Money)"
            },
            "geometry": {
                "type": "Point",
                "coordinates": [
                    121.222543,
                    24.95729
                ]
            }
        },
        {
            "type": "Feature",
            "properties": {
                "shop": "饗樂餐飲實業股份有限公司中壢長江分公司",
                "category": "餐飲",
                "area": "中壢區",
                "market_address": "桃園市中壢區中央里長江路３０號",
                "pay_list": "信用卡\/悠遊付\/悠遊卡\/街口\/一卡通MONEY(原LINE Pay Money)"
            },
            "geometry": {
                "type": "Point",
                "coordinates": [
                    121.22809224607,
                    24.95579711999
                ]
            }
        },
        {
            "type": "Feature",
            "properties": {
                "shop": "饗樂餐飲實業股份有限公司中壢榮民分公司",
                "category": "餐飲",
                "area": "中壢區",
                "market_address": "桃園市中壢區中正里榮民路１６６號",
                "pay_list": "信用卡\/悠遊付\/悠遊卡\/街口\/一卡通MONEY(原LINE Pay Money)"
            },
            "geometry": {
                "type": "Point",
                "coordinates": [
                    121.260707,
                    24.966663
                ]
            }
        },
        {
            "type": "Feature",
            "properties": {
                "shop": "饗樂餐飲實業股份有限公司中壢林森分公司",
                "category": "餐飲",
                "area": "中壢區",
                "market_address": "桃園市中壢區新興里龍岡路１段１９６號",
                "pay_list": "信用卡\/悠遊付\/悠遊卡\/街口\/一卡通MONEY(原LINE Pay Money)"
            },
            "geometry": {
                "type": "Point",
                "coordinates": [
                    121.22523760219,
                    24.947727820767
                ]
            }
        },
        {
            "type": "Feature",
            "properties": {
                "shop": "饗樂餐飲實業股份有限公司中壢林森二分公司",
                "category": "餐飲",
                "area": "中壢區",
                "market_address": "桃園市中壢區林森里林森路１６７號",
                "pay_list": "信用卡\/悠遊付\/悠遊卡\/街口\/一卡通MONEY(原LINE Pay Money)"
            },
            "geometry": {
                "type": "Point",
                "coordinates": [
                    121.22673258234,
                    24.944686863953
                ]
            }
        },
        {
            "type": "Feature",
            "properties": {
                "shop": "饗樂餐飲實業股份有限公司中壢弘揚分公司",
                "category": "餐飲",
                "area": "中壢區",
                "market_address": "桃園市中壢區普仁里弘揚路５５號１樓",
                "pay_list": "信用卡\/悠遊卡\/街口\/一卡通MONEY(原LINE Pay Money)"
            },
            "geometry": {
                "type": "Point",
                "coordinates": [
                    121.2406447273,
                    24.953439198488
                ]
            }
        },
        {
            "type": "Feature",
            "properties": {
                "shop": "饌煲食品行",
                "category": "餐飲",
                "area": "中壢區",
                "market_address": "桃園市中壢區興仁里遠東路１３５號（新宿餐廳２樓）",
                "pay_list": "台灣pay\/悠遊卡"
            },
            "geometry": {
                "type": "Point",
                "coordinates": [
                    121.26345606029,
                    24.96989678337
                ]
            }
        },
        {
            "type": "Feature",
            "properties": {
                "shop": "饌園食堂",
                "category": "餐飲",
                "area": "中壢區",
                "market_address": "桃園市中壢區復興里長春路２６５號",
                "pay_list": "一卡通MONEY(原LINE Pay Money)"
            },
            "geometry": {
                "type": "Point",
                "coordinates": [
                    121.24487,
                    24.976547
                ]
            }
        },
        {
            "type": "Feature",
            "properties": {
                "shop": "餘韻餐飲",
                "category": "餐飲",
                "area": "中壢區",
                "market_address": "桃園市中壢區洽溪里永平街６７號",
                "pay_list": "icash pay\/信用卡\/悠遊卡\/街口"
            },
            "geometry": {
                "type": "Point",
                "coordinates": [
                    121.20325624371,
                    25.007719833247
                ]
            }
        },
        {
            "type": "Feature",
            "properties": {
                "shop": "飯穀伙食企業社",
                "category": "餐飲",
                "area": "中壢區",
                "market_address": "桃園市中壢區興國里中美路２段１１６號１樓",
                "pay_list": "街口\/一卡通MONEY(原LINE Pay Money)\/歐付寶"
            },
            "geometry": {
                "type": "Point",
                "coordinates": [
                    121.22132583993,
                    24.960125516125
                ]
            }
        },
        {
            "type": "Feature",
            "properties": {
                "shop": "食鼎香健康鍋",
                "category": "餐飲",
                "area": "中壢區",
                "market_address": "桃園市中壢區中央里建國路１１號",
                "pay_list": "台灣pay"
            },
            "geometry": {
                "type": "Point",
                "coordinates": [
                    121.22571610819,
                    24.95604531864
                ]
            }
        },
        {
            "type": "Feature",
            "properties": {
                "shop": "食院自助餐館",
                "category": "餐飲",
                "area": "中壢區",
                "market_address": "桃園市中壢區中山里榮民路２６０號１樓",
                "pay_list": "一卡通MONEY(原LINE Pay Money)"
            },
            "geometry": {
                "type": "Point",
                "coordinates": [
                    121.261273,
                    24.964407
                ]
            }
        },
        {
            "type": "Feature",
            "properties": {
                "shop": "食御商行",
                "category": "餐飲",
                "area": "中壢區",
                "market_address": "桃園市中壢區中央里元化路１６７號１樓",
                "pay_list": "Pi 拍錢包\/台灣pay\/信用卡\/街口\/一卡通MONEY(原LINE Pay Money)"
            },
            "geometry": {
                "type": "Point",
                "coordinates": [
                    121.22773407699,
                    24.960121453047
                ]
            }
        },
        {
            "type": "Feature",
            "properties": {
                "shop": "風味便當",
                "category": "餐飲",
                "area": "中壢區",
                "market_address": "桃園市中壢區普仁里中北路１８―１號１樓",
                "pay_list": "台灣pay"
            },
            "geometry": {
                "type": "Point",
                "coordinates": [
                    121.23606575969,
                    24.95563311041
                ]
            }
        },
        {
            "type": "Feature",
            "properties": {
                "shop": "頡威商行",
                "category": "餐飲",
                "area": "中壢區",
                "market_address": "桃園市中壢區普忠里實踐路６６號",
                "pay_list": "台灣pay\/悠遊付\/悠遊卡\/街口\/一卡通MONEY(原LINE Pay Money)"
            },
            "geometry": {
                "type": "Point",
                "coordinates": [
                    121.2413380106,
                    24.955099299995
                ]
            }
        },
        {
            "type": "Feature",
            "properties": {
                "shop": "頜仲國際股份有限公司中壢分公司",
                "category": "餐飲",
                "area": "中壢區",
                "market_address": "桃園市中壢區金華里九和三街１號",
                "pay_list": "台灣pay\/信用卡\/一卡通MONEY(原LINE Pay Money)"
            },
            "geometry": {
                "type": "Point",
                "coordinates": [
                    121.223266,
                    24.964026
                ]
            }
        },
        {
            "type": "Feature",
            "properties": {
                "shop": "順口茶舖",
                "category": "餐飲",
                "area": "中壢區",
                "market_address": "桃園市中壢區過嶺里民族路６段３６號１樓",
                "pay_list": "一卡通MONEY(原LINE Pay Money)"
            },
            "geometry": {
                "type": "Point",
                "coordinates": [
                    121.165307,
                    24.958525
                ]
            }
        },
        {
            "type": "Feature",
            "properties": {
                "shop": "音墅飲料店",
                "category": "餐飲",
                "area": "中壢區",
                "market_address": "桃園市中壢區光明里２６鄰中央西路２段２４５號１樓",
                "pay_list": "信用卡\/街口\/一卡通MONEY(原LINE Pay Money)"
            },
            "geometry": {
                "type": "Point",
                "coordinates": [
                    121.212084,
                    24.961148
                ]
            }
        },
        {
            "type": "Feature",
            "properties": {
                "shop": "韓雞飢有限公司",
                "category": "餐飲",
                "area": "中壢區",
                "market_address": "桃園市中壢區興仁里興仁路２段６７巷７３號１樓",
                "pay_list": "信用卡"
            },
            "geometry": {
                "type": "Point",
                "coordinates": [
                    121.263565,
                    24.967295
                ]
            }
        },
        {
            "type": "Feature",
            "properties": {
                "shop": "韓壢有限公司",
                "category": "餐飲",
                "area": "中壢區",
                "market_address": "桃園市中壢區興南里中美路１段４５號",
                "pay_list": "信用卡"
            },
            "geometry": {
                "type": "Point",
                "coordinates": [
                    121.22337570559,
                    24.959418512526
                ]
            }
        },
        {
            "type": "Feature",
            "properties": {
                "shop": "靜點咖啡",
                "category": "餐飲",
                "area": "中壢區",
                "market_address": "桃園市中壢區忠福里南園二路２９６巷５０號１樓",
                "pay_list": "街口"
            },
            "geometry": {
                "type": "Point",
                "coordinates": [
                    121.227889,
                    24.972581
                ]
            }
        },
        {
            "type": "Feature",
            "properties": {
                "shop": "靜芯妃飲料店",
                "category": "餐飲",
                "area": "中壢區",
                "market_address": "桃園市中壢區中壢里中山路３２６號１樓",
                "pay_list": "台灣pay\/信用卡\/一卡通MONEY(原LINE Pay Money)\/街口"
            },
            "geometry": {
                "type": "Point",
                "coordinates": [
                    121.220189,
                    24.956671
                ]
            }
        },
        {
            "type": "Feature",
            "properties": {
                "shop": "青鐵板燒",
                "category": "餐飲",
                "area": "中壢區",
                "market_address": "桃園市中壢區青埔里青溪路１段３８９號",
                "pay_list": "信用卡"
            },
            "geometry": {
                "type": "Point",
                "coordinates": [
                    121.22270618157,
                    25.007295276339
                ]
            }
        },
        {
            "type": "Feature",
            "properties": {
                "shop": "青蔡笠冰飲商行",
                "category": "餐飲",
                "area": "中壢區",
                "market_address": "桃園市中壢區忠孝里忠孝路２６３號１樓",
                "pay_list": "悠遊卡\/一卡通MONEY(原LINE Pay Money)"
            },
            "geometry": {
                "type": "Point",
                "coordinates": [
                    121.254152,
                    24.978704
                ]
            }
        },
        {
            "type": "Feature",
            "properties": {
                "shop": "青樸食早午餐店",
                "category": "餐飲",
                "area": "中壢區",
                "market_address": "桃園市中壢區芝芭里領航南路１段８１號",
                "pay_list": "一卡通MONEY(原LINE Pay Money)"
            },
            "geometry": {
                "type": "Point",
                "coordinates": [
                    121.204725,
                    25.001021
                ]
            }
        },
        {
            "type": "Feature",
            "properties": {
                "shop": "青山町商行",
                "category": "餐飲",
                "area": "中壢區",
                "market_address": "桃園市中壢區洽溪里永裕路７０號",
                "pay_list": "一卡通MONEY(原LINE Pay Money)"
            },
            "geometry": {
                "type": "Point",
                "coordinates": [
                    121.200919,
                    25.008375
                ]
            }
        },
        {
            "type": "Feature",
            "properties": {
                "shop": "青山溡光商行",
                "category": "餐飲",
                "area": "中壢區",
                "market_address": "桃園市中壢區洽溪里永裕路７０號１樓",
                "pay_list": "台灣pay\/信用卡\/一卡通MONEY(原LINE Pay Money)"
            },
            "geometry": {
                "type": "Point",
                "coordinates": [
                    121.200919,
                    25.008375
                ]
            }
        },
        {
            "type": "Feature",
            "properties": {
                "shop": "雷利彼德美式餐廳",
                "category": "餐飲",
                "area": "中壢區",
                "market_address": "桃園市中壢區金華里九和六街３號１樓",
                "pay_list": "街口"
            },
            "geometry": {
                "type": "Point",
                "coordinates": [
                    121.22360053046,
                    24.965291590253
                ]
            }
        },
        {
            "type": "Feature",
            "properties": {
                "shop": "零玖伍參餐廳",
                "category": "餐飲",
                "area": "中壢區",
                "market_address": "桃園市中壢區普強里環中東路２段９０號１樓",
                "pay_list": "街口"
            },
            "geometry": {
                "type": "Point",
                "coordinates": [
                    121.238331,
                    24.950409
                ]
            }
        },
        {
            "type": "Feature",
            "properties": {
                "shop": "雲隆商行",
                "category": "餐飲",
                "area": "中壢區",
                "market_address": "桃園市中壢區普仁里中山東路２段６１號",
                "pay_list": "悠遊卡\/街口\/一卡通MONEY(原LINE Pay Money)"
            },
            "geometry": {
                "type": "Point",
                "coordinates": [
                    121.237941,
                    24.954065
                ]
            }
        },
        {
            "type": "Feature",
            "properties": {
                "shop": "雲鄉米干食品行",
                "category": "餐飲",
                "area": "中壢區",
                "market_address": "桃園市中壢區龍平里龍平路２０７號１樓",
                "pay_list": "悠遊卡"
            },
            "geometry": {
                "type": "Point",
                "coordinates": [
                    121.25373927198,
                    24.928874766641
                ]
            }
        },
        {
            "type": "Feature",
            "properties": {
                "shop": "雲滄小館",
                "category": "餐飲",
                "area": "中壢區",
                "market_address": "桃園市中壢區中堅里中山東路４段１５號１樓",
                "pay_list": "信用卡\/悠遊卡\/街口"
            },
            "geometry": {
                "type": "Point",
                "coordinates": [
                    121.255069723,
                    24.936686491367
                ]
            }
        },
        {
            "type": "Feature",
            "properties": {
                "shop": "雲之滇米干米線店",
                "category": "餐飲",
                "area": "中壢區",
                "market_address": "桃園市中壢區芝芭里領航南路１段１５２號１樓",
                "pay_list": "一卡通MONEY(原LINE Pay Money)"
            },
            "geometry": {
                "type": "Point",
                "coordinates": [
                    121.205733,
                    25.000484
                ]
            }
        },
        {
            "type": "Feature",
            "properties": {
                "shop": "雙饗丼餐館",
                "category": "餐飲",
                "area": "中壢區",
                "market_address": "桃園市中壢區普忠里大仁五街５３號１樓",
                "pay_list": "街口\/一卡通MONEY(原LINE Pay Money)"
            },
            "geometry": {
                "type": "Point",
                "coordinates": [
                    121.23990673089,
                    24.956598427953
                ]
            }
        },
        {
            "type": "Feature",
            "properties": {
                "shop": "集鼎軒飲食店",
                "category": "餐飲",
                "area": "中壢區",
                "market_address": "桃園市中壢區普強里中山東路２段１７６號１樓",
                "pay_list": "信用卡"
            },
            "geometry": {
                "type": "Point",
                "coordinates": [
                    121.23977868133,
                    24.952150077124
                ]
            }
        },
        {
            "type": "Feature",
            "properties": {
                "shop": "集英會食品企業社",
                "category": "餐飲",
                "area": "中壢區",
                "market_address": "桃園市中壢區普仁里三和一街２７號１樓",
                "pay_list": "台灣pay\/一卡通MONEY(原LINE Pay Money)"
            },
            "geometry": {
                "type": "Point",
                "coordinates": [
                    121.241317,
                    24.954609
                ]
            }
        },
        {
            "type": "Feature",
            "properties": {
                "shop": "雅鴿文創股份有限公司壢景町分公司",
                "category": "餐飲",
                "area": "中壢區",
                "market_address": "桃園市中壢區石頭里中和路２９１號",
                "pay_list": "台灣pay\/信用卡"
            },
            "geometry": {
                "type": "Point",
                "coordinates": [
                    121.22234974804,
                    24.953713652961
                ]
            }
        },
        {
            "type": "Feature",
            "properties": {
                "shop": "雅風坊有限公司",
                "category": "餐飲",
                "area": "中壢區",
                "market_address": "桃園市中壢區普忠里實踐路９６號",
                "pay_list": "台灣pay\/信用卡\/街口\/一卡通MONEY(原LINE Pay Money)"
            },
            "geometry": {
                "type": "Point",
                "coordinates": [
                    121.24067695221,
                    24.955701208577
                ]
            }
        },
        {
            "type": "Feature",
            "properties": {
                "shop": "雅素齋蔬食坊",
                "category": "餐飲",
                "area": "中壢區",
                "market_address": "桃園市中壢區永光里１２鄰三光路１３９號１樓",
                "pay_list": "信用卡"
            },
            "geometry": {
                "type": "Point",
                "coordinates": [
                    121.21219323665,
                    24.96309181294
                ]
            }
        },
        {
            "type": "Feature",
            "properties": {
                "shop": "雅米生活企業社",
                "category": "餐飲",
                "area": "中壢區",
                "market_address": "桃園市中壢區普忠里新中北路４２１號",
                "pay_list": "台灣pay\/信用卡\/一卡通MONEY(原LINE Pay Money)"
            },
            "geometry": {
                "type": "Point",
                "coordinates": [
                    121.24402849425,
                    24.95870446377
                ]
            }
        },
        {
            "type": "Feature",
            "properties": {
                "shop": "雅嵐股份有限公司內壢長春50嵐門市",
                "category": "餐飲",
                "area": "中壢區",
                "market_address": "桃園市中壢區長春路75號",
                "pay_list": "信用卡"
            },
            "geometry": {
                "type": "Point",
                "coordinates": [
                    121.248925,
                    24.97837
                ]
            }
        },
        {
            "type": "Feature",
            "properties": {
                "shop": "雅嵐股份有限公司中壢新中北50嵐門市",
                "category": "餐飲",
                "area": "中壢區",
                "market_address": "桃園市中壢區新中北路224號",
                "pay_list": "信用卡"
            },
            "geometry": {
                "type": "Point",
                "coordinates": [
                    121.239382,
                    24.958808
                ]
            }
        },
        {
            "type": "Feature",
            "properties": {
                "shop": "隼食餐飲有限公司",
                "category": "餐飲",
                "area": "中壢區",
                "market_address": "桃園市中壢區青埔里領航南路３段２７９號",
                "pay_list": "台灣pay\/信用卡\/一卡通MONEY(原LINE Pay Money)"
            },
            "geometry": {
                "type": "Point",
                "coordinates": [
                    121.22119724478,
                    25.011256901312
                ]
            }
        },
        {
            "type": "Feature",
            "properties": {
                "shop": "隹又隹早午餐",
                "category": "餐飲",
                "area": "中壢區",
                "market_address": "桃園市中壢區普忠里大仁二街４２－１號１樓",
                "pay_list": "一卡通MONEY(原LINE Pay Money)"
            },
            "geometry": {
                "type": "Point",
                "coordinates": [
                    121.243087,
                    24.955057
                ]
            }
        },
        {
            "type": "Feature",
            "properties": {
                "shop": "陽台咖啡",
                "category": "餐飲",
                "area": "中壢區",
                "market_address": "桃園市中壢區中榮里中正路１７１號",
                "pay_list": "街口"
            },
            "geometry": {
                "type": "Point",
                "coordinates": [
                    121.22120241535,
                    24.955400510851
                ]
            }
        },
        {
            "type": "Feature",
            "properties": {
                "shop": "陸德食品有限公司中壢中正分公司",
                "category": "餐飲",
                "area": "中壢區",
                "market_address": "桃園市中壢區舊明里中正路３６０號",
                "pay_list": "信用卡\/一卡通MONEY(原LINE Pay Money)"
            },
            "geometry": {
                "type": "Point",
                "coordinates": [
                    121.21657799504,
                    24.955572977347
                ]
            }
        },