{
    "type": "FeatureCollection",
    "features": [
        {
            "type": "Feature",
            "properties": {
                "shop": "第一公有零售市場-尚宇商行",
                "category": "夜市\/市場攤販",
                "area": "中區",
                "market_address": "臺中市中區綠川西街135號",
                "pay_list": "LINE Pay Money"
            },
            "geometry": {
                "type": "Point",
                "coordinates": [
                    120.683808,
                    24.139389
                ]
            }
        },
        {
            "type": "Feature",
            "properties": {
                "shop": "第一公有零售市場-益廣通訊行",
                "category": "夜市\/市場攤販",
                "area": "中區",
                "market_address": "臺中市中區綠川西街135號",
                "pay_list": "LINE Pay Money"
            },
            "geometry": {
                "type": "Point",
                "coordinates": [
                    120.683808,
                    24.139389
                ]
            }
        },
        {
            "type": "Feature",
            "properties": {
                "shop": "第一公有零售市場-巨匠鐘錶店",
                "category": "夜市\/市場攤販",
                "area": "中區",
                "market_address": "臺中市中區綠川西街135號",
                "pay_list": "LINE Pay Money"
            },
            "geometry": {
                "type": "Point",
                "coordinates": [
                    120.683808,
                    24.139389
                ]
            }
        },
        {
            "type": "Feature",
            "properties": {
                "shop": "第一公有零售市場-猗妮服飾店",
                "category": "夜市\/市場攤販",
                "area": "中區",
                "market_address": "臺中市中區綠川西街135號",
                "pay_list": "LINE Pay Money"
            },
            "geometry": {
                "type": "Point",
                "coordinates": [
                    120.683808,
                    24.139389
                ]
            }
        },
        {
            "type": "Feature",
            "properties": {
                "shop": "第一公有零售市場-中榮行",
                "category": "夜市\/市場攤販",
                "area": "中區",
                "market_address": "臺中市中區綠川西街135號",
                "pay_list": "LINE Pay Money"
            },
            "geometry": {
                "type": "Point",
                "coordinates": [
                    120.683808,
                    24.139389
                ]
            }
        },
        {
            "type": "Feature",
            "properties": {
                "shop": "第二公有零售市場-林佳瑩",
                "category": "夜市\/市場攤販",
                "area": "中區",
                "market_address": "臺中市中區三民路二段87號",
                "pay_list": "台灣pay\/LINE Pay Money"
            },
            "geometry": {
                "type": "Point",
                "coordinates": [
                    120.679475,
                    24.142136
                ]
            }
        },
        {
            "type": "Feature",
            "properties": {
                "shop": "第二公有零售市場-陳慶榮",
                "category": "夜市\/市場攤販",
                "area": "中區",
                "market_address": "臺中市中區三民路二段87號",
                "pay_list": "台灣pay\/LINE Pay Money"
            },
            "geometry": {
                "type": "Point",
                "coordinates": [
                    120.679475,
                    24.142136
                ]
            }
        },
        {
            "type": "Feature",
            "properties": {
                "shop": "第一公有零售市場-?格西服店",
                "category": "夜市\/市場攤販",
                "area": "中區",
                "market_address": "臺中市中區綠川西街135號",
                "pay_list": "台灣pay\/LINE Pay Money"
            },
            "geometry": {
                "type": "Point",
                "coordinates": [
                    120.683808,
                    24.139389
                ]
            }
        },
        {
            "type": "Feature",
            "properties": {
                "shop": "第一公有零售市場-帥公子男飾店",
                "category": "夜市\/市場攤販",
                "area": "中區",
                "market_address": "臺中市中區綠川西街135號",
                "pay_list": "台灣pay\/LINE Pay Money"
            },
            "geometry": {
                "type": "Point",
                "coordinates": [
                    120.683808,
                    24.139389
                ]
            }
        },
        {
            "type": "Feature",
            "properties": {
                "shop": "第一公有零售市場-金金皮件",
                "category": "夜市\/市場攤販",
                "area": "中區",
                "market_address": "臺中市中區綠川西街135號",
                "pay_list": "LINE Pay Money"
            },
            "geometry": {
                "type": "Point",
                "coordinates": [
                    120.683808,
                    24.139389
                ]
            }
        },
        {
            "type": "Feature",
            "properties": {
                "shop": "第一公有零售市場-大樹布莊",
                "category": "夜市\/市場攤販",
                "area": "中區",
                "market_address": "臺中市中區綠川西街135號",
                "pay_list": "LINE Pay Money"
            },
            "geometry": {
                "type": "Point",
                "coordinates": [
                    120.683808,
                    24.139389
                ]
            }
        },
        {
            "type": "Feature",
            "properties": {
                "shop": "阿仁肉??麵",
                "category": "夜市\/市場攤販",
                "area": "中區",
                "market_address": "臺中市中區繼光里繼光街１３８號",
                "pay_list": "街口"
            },
            "geometry": {
                "type": "Point",
                "coordinates": [
                    120.684075,
                    24.140208
                ]
            }
        },
        {
            "type": "Feature",
            "properties": {
                "shop": "第二公有零售市場-張美如",
                "category": "夜市\/市場攤販",
                "area": "中區",
                "market_address": "臺中市中區三民路二段87號",
                "pay_list": "台灣pay"
            },
            "geometry": {
                "type": "Point",
                "coordinates": [
                    120.679475,
                    24.142136
                ]
            }
        },
        {
            "type": "Feature",
            "properties": {
                "shop": "第二公有零售市場-郭奕君",
                "category": "夜市\/市場攤販",
                "area": "中區",
                "market_address": "臺中市中區三民路二段87號",
                "pay_list": "台灣pay"
            },
            "geometry": {
                "type": "Point",
                "coordinates": [
                    120.679475,
                    24.142136
                ]
            }
        },
        {
            "type": "Feature",
            "properties": {
                "shop": "第二公有零售市場-張素貞",
                "category": "夜市\/市場攤販",
                "area": "中區",
                "market_address": "臺中市中區三民路二段87號",
                "pay_list": "台灣pay\/LINE Pay Money"
            },
            "geometry": {
                "type": "Point",
                "coordinates": [
                    120.679475,
                    24.142136
                ]
            }
        },
        {
            "type": "Feature",
            "properties": {
                "shop": "第二公有零售市場-邱麗芬",
                "category": "夜市\/市場攤販",
                "area": "中區",
                "market_address": "臺中市中區三民路二段87號",
                "pay_list": "台灣pay\/LINE Pay Money"
            },
            "geometry": {
                "type": "Point",
                "coordinates": [
                    120.679475,
                    24.142136
                ]
            }
        },
        {
            "type": "Feature",
            "properties": {
                "shop": "第二公有零售市場-蕭銘隆",
                "category": "夜市\/市場攤販",
                "area": "中區",
                "market_address": "臺中市中區三民路二段87號",
                "pay_list": "LINE Pay Money"
            },
            "geometry": {
                "type": "Point",
                "coordinates": [
                    120.679475,
                    24.142136
                ]
            }
        },
        {
            "type": "Feature",
            "properties": {
                "shop": "第一公有零售市場-洋洋商號",
                "category": "夜市\/市場攤販",
                "area": "中區",
                "market_address": "臺中市中區綠川西街135號",
                "pay_list": "LINE Pay Money"
            },
            "geometry": {
                "type": "Point",
                "coordinates": [
                    120.683808,
                    24.139389
                ]
            }
        },
        {
            "type": "Feature",
            "properties": {
                "shop": "臺中驛鐵道文化園區 (鐵鹿大街)",
                "category": "百貨美食街",
                "area": "中區",
                "market_address": "台中市中區台灣大道一段1段1號",
                "pay_list": "信用卡"
            },
            "geometry": {
                "type": "Point",
                "coordinates": [
                    120.68516330197,
                    24.136926923616
                ]
            }
        },
        {
            "type": "Feature",
            "properties": {
                "shop": "日曜天地OUTLET",
                "category": "百貨美食街",
                "area": "中區",
                "market_address": "臺中市中區公園里自由路２段９４號Ｂ２，Ｂ１，１及２樓",
                "pay_list": "悠遊卡\/iPASS 一卡通\/信用卡"
            },
            "geometry": {
                "type": "Point",
                "coordinates": [
                    120.685289,
                    24.142814
                ]
            }
        },
        {
            "type": "Feature",
            "properties": {
                "shop": "敏秀烘焙坊",
                "category": "糕餅",
                "area": "中區",
                "market_address": "臺中市中區大墩里民族路１３７號１樓",
                "pay_list": "悠遊付\/街口"
            },
            "geometry": {
                "type": "Point",
                "coordinates": [
                    120.678289,
                    24.140564
                ]
            }
        },
        {
            "type": "Feature",
            "properties": {
                "shop": "阿嘟瑪手工烘焙",
                "category": "糕餅",
                "area": "中區",
                "market_address": "臺中市中區中華里中華路一段１７１之８之１４號",
                "pay_list": "信用卡"
            },
            "geometry": {
                "type": "Point",
                "coordinates": [
                    120.677015,
                    24.145744
                ]
            }
        },
        {
            "type": "Feature",
            "properties": {
                "shop": "瑞成糖菓玩具行",
                "category": "糕餅",
                "area": "中區",
                "market_address": "臺中市中區柳川里興中街２２號",
                "pay_list": "台灣pay"
            },
            "geometry": {
                "type": "Point",
                "coordinates": [
                    120.678327,
                    24.142847
                ]
            }
        },
        {
            "type": "Feature",
            "properties": {
                "shop": "義美餅店",
                "category": "糕餅",
                "area": "中區",
                "market_address": "臺中市中區綠川里００８鄰綠川東街３２號１１樓之２５",
                "pay_list": "悠遊付"
            },
            "geometry": {
                "type": "Point",
                "coordinates": [
                    120.682933,
                    24.137274
                ]
            }
        },
        {
            "type": "Feature",
            "properties": {
                "shop": "異香齋",
                "category": "糕餅",
                "area": "中區",
                "market_address": "臺中市中區光復里成功路１８１號",
                "pay_list": "台灣pay"
            },
            "geometry": {
                "type": "Point",
                "coordinates": [
                    120.681309,
                    24.142039
                ]
            }
        },
        {
            "type": "Feature",
            "properties": {
                "shop": "金陵餐廳",
                "category": "糕餅",
                "area": "中區",
                "market_address": "臺中市中區公園里成功路１５４號１樓",
                "pay_list": "台灣pay"
            },
            "geometry": {
                "type": "Point",
                "coordinates": [
                    120.682783,
                    24.141061
                ]
            }
        },
        {
            "type": "Feature",
            "properties": {
                "shop": "一福堂老店",
                "category": "糕餅",
                "area": "中區",
                "market_address": "臺中市中區繼光里中山路５２號",
                "pay_list": "信用卡\/悠遊卡\/台灣pay\/街口"
            },
            "geometry": {
                "type": "Point",
                "coordinates": [
                    120.682593,
                    24.138567
                ]
            }
        },
        {
            "type": "Feature",
            "properties": {
                "shop": "益福堂餅店",
                "category": "糕餅",
                "area": "中區",
                "market_address": "臺中市中區公園里自由路２段１９號１樓",
                "pay_list": "信用卡\/悠遊卡\/台灣pay"
            },
            "geometry": {
                "type": "Point",
                "coordinates": [
                    120.680795,
                    24.138961
                ]
            }
        },
        {
            "type": "Feature",
            "properties": {
                "shop": "瑞典國寶食品行",
                "category": "糕餅",
                "area": "中區",
                "market_address": "臺中市中區大誠里臺灣大道一段５１５號１樓",
                "pay_list": "悠遊付\/街口\/信用卡\/台灣pay"
            },
            "geometry": {
                "type": "Point",
                "coordinates": [
                    120.677176,
                    24.14428
                ]
            }
        },
        {
            "type": "Feature",
            "properties": {
                "shop": "寶基科技股份有限公司",
                "category": "糕餅",
                "area": "中區",
                "market_address": "臺中市中區柳川里興中街１７、１７－１號１樓",
                "pay_list": "信用卡"
            },
            "geometry": {
                "type": "Point",
                "coordinates": [
                    120.679196,
                    24.143446
                ]
            }
        },
        {
            "type": "Feature",
            "properties": {
                "shop": "鑫太陽堂食品股份有限公司",
                "category": "糕餅",
                "area": "中區",
                "market_address": "臺中市中區公園里自由路２段４７，４９，５１號１樓",
                "pay_list": "信用卡\/悠遊卡\/台灣pay"
            },
            "geometry": {
                "type": "Point",
                "coordinates": [
                    120.680257,
                    24.138643
                ]
            }
        },
        {
            "type": "Feature",
            "properties": {
                "shop": "醉月樓沙龍股份有限公司",
                "category": "餐飲\/糕餅",
                "area": "中區",
                "market_address": "臺中市中區綠川里中山路２０號",
                "pay_list": "LINE Pay Money\/iPASS 一卡通\/信用卡\/悠遊卡\/台灣pay"
            },
            "geometry": {
                "type": "Point",
                "coordinates": [
                    120.683539,
                    24.137443
                ]
            }
        },
        {
            "type": "Feature",
            "properties": {
                "shop": "九久太陽食品股份有限公司",
                "category": "糕餅",
                "area": "中區",
                "market_address": "臺中市中區公園里００４鄰臺灣大道一段１７６號１樓",
                "pay_list": "悠遊付\/信用卡\/悠遊卡\/台灣pay\/街口"
            },
            "geometry": {
                "type": "Point",
                "coordinates": [
                    120.682447,
                    24.140118
                ]
            }
        },
        {
            "type": "Feature",
            "properties": {
                "shop": "寶泉食品股份有限公司",
                "category": "糕餅",
                "area": "中區",
                "market_address": "臺中市中區公園里自由路二段３６號３樓",
                "pay_list": "信用卡"
            },
            "geometry": {
                "type": "Point",
                "coordinates": [
                    120.681819,
                    24.139429
                ]
            }
        },
        {
            "type": "Feature",
            "properties": {
                "shop": "牧田實業有限公司",
                "category": "糕餅",
                "area": "中區",
                "market_address": "臺中市中區柳川里００９鄰臺灣大道一段４１３號",
                "pay_list": "台灣pay"
            },
            "geometry": {
                "type": "Point",
                "coordinates": [
                    120.678541,
                    24.143056
                ]
            }
        },
        {
            "type": "Feature",
            "properties": {
                "shop": "新洪瑞珍食品有限公司",
                "category": "糕餅",
                "area": "中區",
                "market_address": "臺中市中區公園里市府路４０－２號１樓及中山路１２５―２號１樓",
                "pay_list": "台灣pay\/信用卡"
            },
            "geometry": {
                "type": "Point",
                "coordinates": [
                    120.680589,
                    24.139827
                ]
            }
        },
        {
            "type": "Feature",
            "properties": {
                "shop": "太陽堂老舖有限公司",
                "category": "糕餅",
                "area": "中區",
                "market_address": "臺中市中區公園里自由路二段２７號一樓",
                "pay_list": "信用卡\/悠遊卡\/台灣pay"
            },
            "geometry": {
                "type": "Point",
                "coordinates": [
                    120.680927,
                    24.139109
                ]
            }
        },
        {
            "type": "Feature",
            "properties": {
                "shop": "太陽堂老店食品有限公司",
                "category": "糕餅",
                "area": "中區",
                "market_address": "臺中市中區公園里自由路二段２５號",
                "pay_list": "信用卡\/悠遊卡\/台灣pay"
            },
            "geometry": {
                "type": "Point",
                "coordinates": [
                    120.680896,
                    24.139085
                ]
            }
        },
        {
            "type": "Feature",
            "properties": {
                "shop": "一五三三小圓餅法式甜點店",
                "category": "糕餅",
                "area": "中區",
                "market_address": "臺中市中區公園里中山路１３１號１樓",
                "pay_list": "信用卡\/悠遊卡"
            },
            "geometry": {
                "type": "Point",
                "coordinates": [
                    120.680348,
                    24.140131
                ]
            }
        },
        {
            "type": "Feature",
            "properties": {
                "shop": "川記食品行",
                "category": "糕餅",
                "area": "中區",
                "market_address": "臺中市中區綠川里建國路１３５號１樓",
                "pay_list": "信用卡"
            },
            "geometry": {
                "type": "Point",
                "coordinates": [
                    120.684794,
                    24.137953
                ]
            }
        },
        {
            "type": "Feature",
            "properties": {
                "shop": "宏亞食品股份有限公司三民分公司",
                "category": "糕餅",
                "area": "中區",
                "market_address": "臺中市中區大墩里三民路２段１３２號",
                "pay_list": "信用卡"
            },
            "geometry": {
                "type": "Point",
                "coordinates": [
                    120.680747,
                    24.143395
                ]
            }
        },
        {
            "type": "Feature",
            "properties": {
                "shop": "犂記實業有限公司中正路店",
                "category": "糕餅",
                "area": "中區",
                "market_address": "臺中市中區綠川里０１３鄰臺灣大道１段４２號",
                "pay_list": "信用卡"
            },
            "geometry": {
                "type": "Point",
                "coordinates": [
                    120.684327,
                    24.138404
                ]
            }
        },
        {
            "type": "Feature",
            "properties": {
                "shop": "吉發饅頭店",
                "category": "糕餅",
                "area": "中區",
                "market_address": "臺中市中區綠川里建國路２１７號１樓",
                "pay_list": "台灣pay"
            },
            "geometry": {
                "type": "Point",
                "coordinates": [
                    120.685909,
                    24.139547
                ]
            }
        },
        {
            "type": "Feature",
            "properties": {
                "shop": "金芝陵食品有限公司",
                "category": "糕餅",
                "area": "中區",
                "market_address": "臺中市中區大墩里三民路二段１７３號１樓",
                "pay_list": "台灣pay\/信用卡"
            },
            "geometry": {
                "type": "Point",
                "coordinates": [
                    120.681025,
                    24.144175
                ]
            }
        },
        {
            "type": "Feature",
            "properties": {
                "shop": "郭元益食品股份有限公司三民分公司",
                "category": "糕餅",
                "area": "中區",
                "market_address": "臺中市中區大墩里三民路２段６８號１樓",
                "pay_list": "信用卡"
            },
            "geometry": {
                "type": "Point",
                "coordinates": [
                    120.679247,
                    24.141833
                ]
            }
        },
        {
            "type": "Feature",
            "properties": {
                "shop": "陳允寶泉食品股份有限公司",
                "category": "糕餅",
                "area": "中區",
                "market_address": "臺中市中區公園里自由路２段３６號１樓",
                "pay_list": "信用卡\/悠遊卡\/歐付寶\/台灣pay"
            },
            "geometry": {
                "type": "Point",
                "coordinates": [
                    120.681819,
                    24.139429
                ]
            }
        },
        {
            "type": "Feature",
            "properties": {
                "shop": "一之鄉股份有限公司台中自由門市部",
                "category": "糕餅",
                "area": "中區",
                "market_address": "臺中市中區公園里自由路二段６９號",
                "pay_list": "信用卡"
            },
            "geometry": {
                "type": "Point",
                "coordinates": [
                    120.681878,
                    24.140018
                ]
            }
        },
        {
            "type": "Feature",
            "properties": {
                "shop": "阿明師老店太陽堂食品有限公司",
                "category": "糕餅",
                "area": "中區",
                "market_address": "臺中市中區公園里自由路２段１１號１樓",
                "pay_list": "信用卡"
            },
            "geometry": {
                "type": "Point",
                "coordinates": [
                    120.680969,
                    24.138605
                ]
            }
        },
        {
            "type": "Feature",
            "properties": {
                "shop": "灃沛茶行",
                "category": "餐飲",
                "area": "中區",
                "market_address": "臺中市中區柳川里公園路２８號１樓",
                "pay_list": "LINE Pay Money\/iPASS 一卡通\/icash pay\/信用卡\/悠遊卡"
            },
            "geometry": {
                "type": "Point",
                "coordinates": [
                    120.681264,
                    24.145244
                ]
            }
        },
        {
            "type": "Feature",
            "properties": {
                "shop": "彩色巴黎視聽歌唱名店",
                "category": "餐飲",
                "area": "中區",
                "market_address": "臺中市中區公園里自由路２段１２９號６樓之１",
                "pay_list": "信用卡"
            },
            "geometry": {
                "type": "Point",
                "coordinates": [
                    120.683622,
                    24.141741
                ]
            }
        },
        {
            "type": "Feature",
            "properties": {
                "shop": "觀世音有機生活館",
                "category": "餐飲",
                "area": "中區",
                "market_address": "臺中市中區綠川里成功路２２號１樓",
                "pay_list": "信用卡"
            },
            "geometry": {
                "type": "Point",
                "coordinates": [
                    120.685558,
                    24.13866
                ]
            }
        },
        {
            "type": "Feature",
            "properties": {
                "shop": "玖良商行",
                "category": "餐飲",
                "area": "中區",
                "market_address": "臺中市中區公園里中山路１０７號１樓",
                "pay_list": "街口"
            },
            "geometry": {
                "type": "Point",
                "coordinates": [
                    120.68097,
                    24.139561
                ]
            }
        },
        {
            "type": "Feature",
            "properties": {
                "shop": "春宅茶行",
                "category": "餐飲",
                "area": "中區",
                "market_address": "臺中市中區中華里中華路一段１０６號１樓",
                "pay_list": "街口"
            },
            "geometry": {
                "type": "Point",
                "coordinates": [
                    120.676391,
                    24.144565
                ]
            }
        },
        {
            "type": "Feature",
            "properties": {
                "shop": "安厚食小飯館",
                "category": "餐飲",
                "area": "中區",
                "market_address": "臺中市中區綠川里建國路１７１號１樓",
                "pay_list": "台灣pay"
            },
            "geometry": {
                "type": "Point",
                "coordinates": [
                    120.685311,
                    24.138386
                ]
            }
        },
        {
            "type": "Feature",
            "properties": {
                "shop": "茶多益茶莊",
                "category": "餐飲",
                "area": "中區",
                "market_address": "臺中市中區中華里中華路一段９９號１樓",
                "pay_list": "台灣pay"
            },
            "geometry": {
                "type": "Point",
                "coordinates": [
                    120.6754,
                    24.144093
                ]
            }
        },
        {
            "type": "Feature",
            "properties": {
                "shop": "鑫禾榮餐飲商行",
                "category": "餐飲",
                "area": "中區",
                "market_address": "臺中市中區繼光里繼光街７５號１樓",
                "pay_list": "街口"
            },
            "geometry": {
                "type": "Point",
                "coordinates": [
                    120.682492,
                    24.13913
                ]
            }
        },
        {
            "type": "Feature",
            "properties": {
                "shop": "台翊商行",
                "category": "餐飲",
                "area": "中區",
                "market_address": "臺中市中區公園里自由路二段１０１號１樓",
                "pay_list": "LINE Pay Money\/iPASS 一卡通\/信用卡\/悠遊卡\/台灣pay\/街口"
            },
            "geometry": {
                "type": "Point",
                "coordinates": [
                    120.682995,
                    24.141137
                ]
            }
        },
        {
            "type": "Feature",
            "properties": {
                "shop": "成功晨食館",
                "category": "餐飲",
                "area": "中區",
                "market_address": "臺中市中區大墩里三民路２段１１６―１號",
                "pay_list": "街口\/信用卡\/台灣pay"
            },
            "geometry": {
                "type": "Point",
                "coordinates": [
                    120.68046511313,
                    24.143126562831
                ]
            }
        },
        {
            "type": "Feature",
            "properties": {
                "shop": "全泓小吃店",
                "category": "餐飲",
                "area": "中區",
                "market_address": "臺中市中區中華里成功路３５８號１樓",
                "pay_list": "台灣pay\/信用卡"
            },
            "geometry": {
                "type": "Point",
                "coordinates": [
                    120.677879,
                    24.145396
                ]
            }
        },
        {
            "type": "Feature",
            "properties": {
                "shop": "德虹商行",
                "category": "餐飲",
                "area": "中區",
                "market_address": "臺中市中區大誠里大誠街５號",
                "pay_list": "台灣pay\/信用卡"
            },
            "geometry": {
                "type": "Point",
                "coordinates": [
                    120.677792,
                    24.144424
                ]
            }
        },
        {
            "type": "Feature",
            "properties": {
                "shop": "大佬堂",
                "category": "餐飲",
                "area": "中區",
                "market_address": "臺中市中區光復里臺灣大道一段２９３號１樓",
                "pay_list": "台灣pay"
            },
            "geometry": {
                "type": "Point",
                "coordinates": [
                    120.680349,
                    24.141525
                ]
            }
        },
        {
            "type": "Feature",
            "properties": {
                "shop": "早捌早餐店",
                "category": "餐飲",
                "area": "中區",
                "market_address": "臺中市中區大誠里柳川西路三段１８號１樓",
                "pay_list": "台灣pay\/信用卡"
            },
            "geometry": {
                "type": "Point",
                "coordinates": [
                    120.676647,
                    24.142683
                ]
            }
        },
        {
            "type": "Feature",
            "properties": {
                "shop": "澤村飲食店",
                "category": "餐飲",
                "area": "中區",
                "market_address": "臺中市中區中華里民族路２００號１樓",
                "pay_list": "信用卡"
            },
            "geometry": {
                "type": "Point",
                "coordinates": [
                    120.675783,
                    24.143075
                ]
            }
        },
        {
            "type": "Feature",
            "properties": {
                "shop": "很多咖啡商行",
                "category": "餐飲",
                "area": "中區",
                "market_address": "臺中市中區中華里篤行路１７號１樓",
                "pay_list": "信用卡\/悠遊卡"
            },
            "geometry": {
                "type": "Point",
                "coordinates": [
                    120.677575,
                    24.146694
                ]
            }
        },
        {
            "type": "Feature",
            "properties": {
                "shop": "日月餐館",
                "category": "餐飲",
                "area": "中區",
                "market_address": "臺中市中區公園里自由路二段７５號１樓、２樓",
                "pay_list": "台灣pay\/信用卡"
            },
            "geometry": {
                "type": "Point",
                "coordinates": [
                    120.682275,
                    24.140439
                ]
            }
        },
        {
            "type": "Feature",
            "properties": {
                "shop": "飯飯燒肉專門店",
                "category": "餐飲",
                "area": "中區",
                "market_address": "臺中市中區綠川里民權路３０號１樓",
                "pay_list": "信用卡"
            },
            "geometry": {
                "type": "Point",
                "coordinates": [
                    120.681955,
                    24.13635
                ]
            }
        },
        {
            "type": "Feature",
            "properties": {
                "shop": "東方露飲品店",
                "category": "餐飲",
                "area": "中區",
                "market_address": "臺中市中區公園里民族路５４號１樓",
                "pay_list": "台灣pay\/街口"
            },
            "geometry": {
                "type": "Point",
                "coordinates": [
                    120.681152,
                    24.138439
                ]
            }
        },
        {
            "type": "Feature",
            "properties": {
                "shop": "力星飲食店",
                "category": "餐飲",
                "area": "中區",
                "market_address": "臺中市中區中華里中華路１段５９號１樓",
                "pay_list": "台灣pay\/街口"
            },
            "geometry": {
                "type": "Point",
                "coordinates": [
                    120.674673,
                    24.143376
                ]
            }
        },
        {
            "type": "Feature",
            "properties": {
                "shop": "夜霧本舖",
                "category": "餐飲",
                "area": "中區",
                "market_address": "臺中市中區大誠里臺灣大道一段５１３號１樓",
                "pay_list": "台灣pay\/信用卡"
            },
            "geometry": {
                "type": "Point",
                "coordinates": [
                    120.6772,
                    24.144259
                ]
            }
        },
        {
            "type": "Feature",
            "properties": {
                "shop": "翔宇早餐店",
                "category": "餐飲",
                "area": "中區",
                "market_address": "臺中市中區綠川里建國路１５５號１樓",
                "pay_list": "街口\/悠遊卡\/台灣pay"
            },
            "geometry": {
                "type": "Point",
                "coordinates": [
                    120.685168,
                    24.138048
                ]
            }
        },
        {
            "type": "Feature",
            "properties": {
                "shop": "種籽早午餐",
                "category": "餐飲",
                "area": "中區",
                "market_address": "臺中市中區繼光里綠川西街５９巷７號１樓",
                "pay_list": "台灣pay"
            },
            "geometry": {
                "type": "Point",
                "coordinates": [
                    120.681293,
                    24.137308
                ]
            }
        },
        {
            "type": "Feature",
            "properties": {
                "shop": "後引食堂",
                "category": "餐飲",
                "area": "中區",
                "market_address": "臺中市中區繼光里００２鄰臺灣大道１段８１巷８號",
                "pay_list": "台灣pay\/信用卡"
            },
            "geometry": {
                "type": "Point",
                "coordinates": [
                    120.683145,
                    24.138888
                ]
            }
        },
        {
            "type": "Feature",
            "properties": {
                "shop": "清心日新冷飲店",
                "category": "餐飲",
                "area": "中區",
                "market_address": "臺中市中區中華里中山路３２１號１樓",
                "pay_list": "悠遊付\/街口\/橘子支付"
            },
            "geometry": {
                "type": "Point",
                "coordinates": [
                    120.675826,
                    24.144107
                ]
            }
        },
        {
            "type": "Feature",
            "properties": {
                "shop": "飛驒高山行",
                "category": "餐飲",
                "area": "中區",
                "market_address": "臺中市中區綠川里臺灣大道一段２３號",
                "pay_list": "橘子支付"
            },
            "geometry": {
                "type": "Point",
                "coordinates": [
                    120.684147,
                    24.138117
                ]
            }
        },
        {
            "type": "Feature",
            "properties": {
                "shop": "大發廚房",
                "category": "餐飲",
                "area": "中區",
                "market_address": "臺中市中區中華里民族路２２９號１樓",
                "pay_list": "悠遊卡"
            },
            "geometry": {
                "type": "Point",
                "coordinates": [
                    120.675271,
                    24.143156
                ]
            }
        },
        {
            "type": "Feature",
            "properties": {
                "shop": "霸元小吃店",
                "category": "餐飲",
                "area": "中區",
                "market_address": "臺中市中區柳川里公園路４５號",
                "pay_list": "台灣pay\/信用卡"
            },
            "geometry": {
                "type": "Point",
                "coordinates": [
                    120.681102,
                    24.145382
                ]
            }
        },
        {
            "type": "Feature",
            "properties": {
                "shop": "馨鮮餐飲店",
                "category": "餐飲",
                "area": "中區",
                "market_address": "臺中市中區光復里平等街８１號１樓",
                "pay_list": "台灣pay"
            },
            "geometry": {
                "type": "Point",
                "coordinates": [
                    120.680246,
                    24.141303
                ]
            }
        },
        {
            "type": "Feature",
            "properties": {
                "shop": "弘大漢堡店",
                "category": "餐飲",
                "area": "中區",
                "market_address": "臺中市中區大誠里大誠街２９號之１一樓",
                "pay_list": "台灣pay\/信用卡"
            },
            "geometry": {
                "type": "Point",
                "coordinates": [
                    120.6781,
                    24.144786
                ]
            }
        },
        {
            "type": "Feature",
            "properties": {
                "shop": "成如冷飲店",
                "category": "餐飲",
                "area": "中區",
                "market_address": "臺中市中區光復里臺灣大道一段３１７號１樓",
                "pay_list": "悠遊付\/街口\/橘子支付"
            },
            "geometry": {
                "type": "Point",
                "coordinates": [
                    120.679987,
                    24.14184
                ]
            }
        },
        {
            "type": "Feature",
            "properties": {
                "shop": "譚家手工麵疙瘩館",
                "category": "餐飲",
                "area": "中區",
                "market_address": "臺中市中區繼光里繼光街１４４號１樓",
                "pay_list": "信用卡\/悠遊卡"
            },
            "geometry": {
                "type": "Point",
                "coordinates": [
                    120.684177,
                    24.140302
                ]
            }
        },
        {
            "type": "Feature",
            "properties": {
                "shop": "育才北冷飲店",
                "category": "餐飲",
                "area": "中區",
                "market_address": "臺中市中區綠川里建國路１５７號",
                "pay_list": "悠遊付\/街口\/橘子支付"
            },
            "geometry": {
                "type": "Point",
                "coordinates": [
                    120.685197,
                    24.138083
                ]
            }
        },
        {
            "type": "Feature",
            "properties": {
                "shop": "波依任視聽歌唱名店",
                "category": "餐飲",
                "area": "中區",
                "market_address": "臺中市中區大誠里大誠街１５號",
                "pay_list": "信用卡"
            },
            "geometry": {
                "type": "Point",
                "coordinates": [
                    120.677944,
                    24.144575
                ]
            }
        },
        {
            "type": "Feature",
            "properties": {
                "shop": "陸樓飲酒店",
                "category": "餐飲",
                "area": "中區",
                "market_address": "臺中市中區繼光里中山路６０號６樓之１",
                "pay_list": "信用卡"
            },
            "geometry": {
                "type": "Point",
                "coordinates": [
                    120.682254,
                    24.1388
                ]
            }
        },
        {
            "type": "Feature",
            "properties": {
                "shop": "督醍咖啡",
                "category": "餐飲",
                "area": "中區",
                "market_address": "臺中市中區柳川里中山路２４７號１樓",
                "pay_list": "台灣pay\/悠遊卡"
            },
            "geometry": {
                "type": "Point",
                "coordinates": [
                    120.677964,
                    24.14223
                ]
            }
        },
        {
            "type": "Feature",
            "properties": {
                "shop": "一樓視聽歌唱店",
                "category": "餐飲",
                "area": "中區",
                "market_address": "臺中市中區繼光里臺灣大道１段１４１巷２３號１樓及地下一層",
                "pay_list": "信用卡"
            },
            "geometry": {
                "type": "Point",
                "coordinates": [
                    120.682199,
                    24.139194
                ]
            }
        },
        {
            "type": "Feature",
            "properties": {
                "shop": "驛站房東北酸白菜火鍋",
                "category": "餐飲",
                "area": "中區",
                "market_address": "臺中市中區柳川里柳川東路３段５號１樓",
                "pay_list": "信用卡\/悠遊卡"
            },
            "geometry": {
                "type": "Point",
                "coordinates": [
                    120.676714,
                    24.141518
                ]
            }
        },
        {
            "type": "Feature",
            "properties": {
                "shop": "德利麵食館",
                "category": "餐飲",
                "area": "中區",
                "market_address": "臺中市中區繼光里繼光街１２９號１樓",
                "pay_list": "街口"
            },
            "geometry": {
                "type": "Point",
                "coordinates": [
                    120.683892,
                    24.140364
                ]
            }
        },
        {
            "type": "Feature",
            "properties": {
                "shop": "莊陶記餐飲店",
                "category": "餐飲",
                "area": "中區",
                "market_address": "臺中市中區柳川里００８鄰臺灣大道１段４２５號１樓",
                "pay_list": "台灣pay\/信用卡"
            },
            "geometry": {
                "type": "Point",
                "coordinates": [
                    120.678404,
                    24.143204
                ]
            }
        },
        {
            "type": "Feature",
            "properties": {
                "shop": "灰姑娘商行",
                "category": "餐飲",
                "area": "中區",
                "market_address": "臺中市中區大墩里０１３鄰臺灣大道１段３６１號",
                "pay_list": "台灣pay\/信用卡"
            },
            "geometry": {
                "type": "Point",
                "coordinates": [
                    120.679292,
                    24.142458
                ]
            }
        },
        {
            "type": "Feature",
            "properties": {
                "shop": "森活食堂實業股份有限公司",
                "category": "餐飲",
                "area": "中區",
                "market_address": "臺中市中區綠川里建國路１９１號",
                "pay_list": "信用卡\/悠遊卡\/台灣pay"
            },
            "geometry": {
                "type": "Point",
                "coordinates": [
                    120.685911,
                    24.138977
                ]
            }
        },
        {
            "type": "Feature",
            "properties": {
                "shop": "胖子哈利股份有限公司",
                "category": "餐飲",
                "area": "中區",
                "market_address": "臺中市中區大墩里臺灣大道１段３７６號",
                "pay_list": "台灣pay\/信用卡"
            },
            "geometry": {
                "type": "Point",
                "coordinates": [
                    120.679333,
                    24.142828
                ]
            }
        },
        {
            "type": "Feature",
            "properties": {
                "shop": "醉月樓沙龍股份有限公司",
                "category": "餐飲\/糕餅",
                "area": "中區",
                "market_address": "臺中市中區綠川里中山路２０號",
                "pay_list": "LINE Pay Money\/iPASS 一卡通\/信用卡\/悠遊卡\/台灣pay"
            },
            "geometry": {
                "type": "Point",
                "coordinates": [
                    120.683539,
                    24.137443
                ]
            }
        },
        {
            "type": "Feature",
            "properties": {
                "shop": "好味食飲股份有限公司起家雞台中中正分店",
                "category": "餐飲",
                "area": "中區",
                "market_address": "臺中市中區光復里臺灣大道１段３１３號１、２、３樓",
                "pay_list": "台灣pay\/信用卡"
            },
            "geometry": {
                "type": "Point",
                "coordinates": [
                    120.680007,
                    24.141793
                ]
            }
        },
        {
            "type": "Feature",
            "properties": {
                "shop": "不現實生活有限公司",
                "category": "餐飲",
                "area": "中區",
                "market_address": "臺中市中區中華里民族路２０８號１樓",
                "pay_list": "街口\/信用卡"
            },
            "geometry": {
                "type": "Point",
                "coordinates": [
                    120.675693,
                    24.143197
                ]
            }
        },
        {
            "type": "Feature",
            "properties": {
                "shop": "老司機餐飲有限公司",
                "category": "餐飲",
                "area": "中區",
                "market_address": "臺中市中區公園里光復路８５號２樓之１",
                "pay_list": "信用卡"
            },
            "geometry": {
                "type": "Point",
                "coordinates": [
                    120.683779,
                    24.141242
                ]
            }
        },
        {
            "type": "Feature",
            "properties": {
                "shop": "味無味有限公司",
                "category": "餐飲",
                "area": "中區",
                "market_address": "臺中市中區柳川里中山路２４９號",
                "pay_list": "信用卡"
            },
            "geometry": {
                "type": "Point",
                "coordinates": [
                    120.67792,
                    24.142243
                ]
            }
        },
        {
            "type": "Feature",
            "properties": {
                "shop": "瑩采餐飲有限公司",
                "category": "餐飲",
                "area": "中區",
                "market_address": "臺中市中區大墩里臺灣大道一段３２９號１樓",
                "pay_list": "信用卡"
            },
            "geometry": {
                "type": "Point",
                "coordinates": [
                    120.6798,
                    24.141981
                ]
            }
        },
        {
            "type": "Feature",
            "properties": {
                "shop": "酒賺有限公司",
                "category": "餐飲",
                "area": "中區",
                "market_address": "臺中市中區繼光里繼光街４０號地下室",
                "pay_list": "信用卡"
            },
            "geometry": {
                "type": "Point",
                "coordinates": [
                    120.681191,
                    24.137435
                ]
            }
        },
        {
            "type": "Feature",
            "properties": {
                "shop": "老麥餐飲有限公司",
                "category": "餐飲",
                "area": "中區",
                "market_address": "臺中市中區繼光里繼光街７１號",
                "pay_list": "信用卡"
            },
            "geometry": {
                "type": "Point",
                "coordinates": [
                    120.682364,
                    24.138964
                ]
            }
        },
        {
            "type": "Feature",
            "properties": {
                "shop": "真味饌食品有限公司",
                "category": "餐飲",
                "area": "中區",
                "market_address": "臺中市中區綠川里民權路１６、１８號",
                "pay_list": "信用卡"
            },
            "geometry": {
                "type": "Point",
                "coordinates": [
                    120.682132,
                    24.136267
                ]
            }
        },
        {
            "type": "Feature",
            "properties": {
                "shop": "河內越南餐廳",
                "category": "餐飲",
                "area": "中區",
                "market_address": "臺中市中區綠川里綠川西街１３５號３樓３１８及３４４至３４７室",
                "pay_list": "街口"
            },
            "geometry": {
                "type": "Point",
                "coordinates": [
                    120.683808,
                    24.139389
                ]
            }
        },
        {
            "type": "Feature",
            "properties": {
                "shop": "桔滋早餐店",
                "category": "餐飲",
                "area": "中區",
                "market_address": "臺中市中區光復里民族路９６號１樓",
                "pay_list": "台灣pay"
            },
            "geometry": {
                "type": "Point",
                "coordinates": [
                    120.679074,
                    24.14017
                ]
            }
        },
        {
            "type": "Feature",
            "properties": {
                "shop": "醇豐茶業有限公司",
                "category": "餐飲",
                "area": "中區",
                "market_address": "臺中市中區大墩里臺灣大道１段３６６號",
                "pay_list": "街口\/信用卡\/台灣pay"
            },
            "geometry": {
                "type": "Point",
                "coordinates": [
                    120.679469,
                    24.142709
                ]
            }
        },
        {
            "type": "Feature",
            "properties": {
                "shop": "芳華興業國際有限公司",
                "category": "餐飲",
                "area": "中區",
                "market_address": "臺中市中區公園里中山路１０９號１樓",
                "pay_list": "台灣pay\/信用卡"
            },
            "geometry": {
                "type": "Point",
                "coordinates": [
                    120.680936,
                    24.139596
                ]
            }
        },
        {
            "type": "Feature",
            "properties": {
                "shop": "丁山股份有限公司",
                "category": "餐飲",
                "area": "中區",
                "market_address": "臺中市中區大墩里臺灣大道１段３７０號",
                "pay_list": "信用卡\/悠遊卡\/台灣pay\/街口"
            },
            "geometry": {
                "type": "Point",
                "coordinates": [
                    120.679417,
                    24.142785
                ]
            }
        },
        {
            "type": "Feature",
            "properties": {
                "shop": "一徹餐飲事業有限公司",
                "category": "餐飲",
                "area": "中區",
                "market_address": "臺中市中區中華里民族路２２７號１樓",
                "pay_list": "台灣pay\/信用卡"
            },
            "geometry": {
                "type": "Point",
                "coordinates": [
                    120.67525,
                    24.143097
                ]
            }
        },
        {
            "type": "Feature",
            "properties": {
                "shop": "元本澤國際餐飲有限公司",
                "category": "餐飲",
                "area": "中區",
                "market_address": "臺中市中區綠川里建國路１２５巷４號",
                "pay_list": "信用卡"
            },
            "geometry": {
                "type": "Point",
                "coordinates": [
                    120.683946,
                    24.137792
                ]
            }
        },
        {
            "type": "Feature",
            "properties": {
                "shop": "羅仁豪",
                "category": "餐飲",
                "area": "中區",
                "market_address": "臺中市中區中華里中華路一段１０４號１樓",
                "pay_list": "台灣pay\/街口"
            },
            "geometry": {
                "type": "Point",
                "coordinates": [
                    120.676362,
                    24.144537
                ]
            }
        },
        {
            "type": "Feature",
            "properties": {
                "shop": "一飲一啄行",
                "category": "餐飲",
                "area": "中區",
                "market_address": "臺中市中區繼光里民權路６０號１樓",
                "pay_list": "信用卡\/悠遊卡\/台灣pay"
            },
            "geometry": {
                "type": "Point",
                "coordinates": [
                    120.680942,
                    24.137198
                ]
            }
        },
        {
            "type": "Feature",
            "properties": {
                "shop": "新富町食堂",
                "category": "餐飲",
                "area": "中區",
                "market_address": "臺中市中區柳川里臺灣大道一段４０５號１樓",
                "pay_list": "台灣pay\/信用卡"
            },
            "geometry": {
                "type": "Point",
                "coordinates": [
                    120.67867,
                    24.142965
                ]
            }
        },
        {
            "type": "Feature",
            "properties": {
                "shop": "三商餐飲股份有限公司台中中正分公司",
                "category": "餐飲",
                "area": "中區",
                "market_address": "臺中市中區綠川里００９鄰臺灣大道１段２２號１樓",
                "pay_list": "悠遊付\/信用卡"
            },
            "geometry": {
                "type": "Point",
                "coordinates": [
                    120.684538,
                    24.138145
                ]
            }
        },
        {
            "type": "Feature",
            "properties": {
                "shop": "三商餐飲股份有限公司台中門市部",
                "category": "餐飲",
                "area": "中區",
                "market_address": "臺中市中區綠川里０１３鄰臺灣大道１段５２號２，３樓",
                "pay_list": "悠遊付"
            },
            "geometry": {
                "type": "Point",
                "coordinates": [
                    120.684225,
                    24.138558
                ]
            }
        },
        {
            "type": "Feature",
            "properties": {
                "shop": "興旺商行",
                "category": "餐飲",
                "area": "中區",
                "market_address": "臺中市中區柳川里民族路１８０號１樓",
                "pay_list": "台灣pay\/信用卡"
            },
            "geometry": {
                "type": "Point",
                "coordinates": [
                    120.677098,
                    24.141947
                ]
            }
        },
        {
            "type": "Feature",
            "properties": {
                "shop": "小庭找茶第貳市場店",
                "category": "餐飲",
                "area": "中區",
                "market_address": "臺中市中區大墩里三民路２段８１號８３號",
                "pay_list": "信用卡"
            },
            "geometry": {
                "type": "Point",
                "coordinates": [
                    120.678937,
                    24.142035
                ]
            }
        },
        {
            "type": "Feature",
            "properties": {
                "shop": "川園迷你火鍋專賣店",
                "category": "餐飲",
                "area": "中區",
                "market_address": "臺中市中區中華里中華路一段１４１、１４３號１樓",
                "pay_list": "街口"
            },
            "geometry": {
                "type": "Point",
                "coordinates": [
                    120.674342,
                    24.143148
                ]
            }
        },
        {
            "type": "Feature",
            "properties": {
                "shop": "沁園春餐廳",
                "category": "餐飲",
                "area": "中區",
                "market_address": "臺中市中區繼光里００１鄰臺灣大道１段１２９號１樓",
                "pay_list": "台灣pay\/信用卡"
            },
            "geometry": {
                "type": "Point",
                "coordinates": [
                    120.682695,
                    24.139478
                ]
            }
        },
        {
            "type": "Feature",
            "properties": {
                "shop": "饗厚小吃店",
                "category": "餐飲",
                "area": "中區",
                "market_address": "臺中市中區大誠里０１５鄰臺灣大道一段５１６號１樓",
                "pay_list": "信用卡\/悠遊卡"
            },
            "geometry": {
                "type": "Point",
                "coordinates": [
                    120.677397,
                    24.144549
                ]
            }
        },
        {
            "type": "Feature",
            "properties": {
                "shop": "和德昌股份有限公司台中中正路分公司",
                "category": "餐飲",
                "area": "中區",
                "market_address": "臺中市中區綠川里０１３鄰臺灣大道１段３６號１～３樓",
                "pay_list": "信用卡"
            },
            "geometry": {
                "type": "Point",
                "coordinates": [
                    120.684404,
                    24.138321
                ]
            }
        },
        {
            "type": "Feature",
            "properties": {
                "shop": "區肯小吃店",
                "category": "餐飲",
                "area": "中區",
                "market_address": "臺中市中區中華里中華路一段１３５號１樓",
                "pay_list": "台灣pay"
            },
            "geometry": {
                "type": "Point",
                "coordinates": [
                    120.676153,
                    24.144849
                ]
            }
        },
        {
            "type": "Feature",
            "properties": {
                "shop": "就愛冰沙店",
                "category": "餐飲",
                "area": "中區",
                "market_address": "臺中市中區民生路３６８巷２弄１２號前市集編號１６號空地",
                "pay_list": "街口"
            },
            "geometry": {
                "type": "Point",
                "coordinates": [
                    120.66304860529,
                    24.144543769416
                ]
            }
        },
        {
            "type": "Feature",
            "properties": {
                "shop": "景璿飲料店",
                "category": "餐飲",
                "area": "中區",
                "market_address": "臺中市中區大誠里中華路二段５７號１樓",
                "pay_list": "街口\/悠遊卡"
            },
            "geometry": {
                "type": "Point",
                "coordinates": [
                    120.679329,
                    24.147926
                ]
            }
        },
        {
            "type": "Feature",
            "properties": {
                "shop": "品旺餐館",
                "category": "餐飲",
                "area": "中區",
                "market_address": "臺中市中區大誠里公園路７２號１樓",
                "pay_list": "信用卡"
            },
            "geometry": {
                "type": "Point",
                "coordinates": [
                    120.678855,
                    24.147479
                ]
            }
        },
        {
            "type": "Feature",
            "properties": {
                "shop": "品華食品商行",
                "category": "餐飲",
                "area": "中區",
                "market_address": "臺中市中區中華里中華路１段９４號",
                "pay_list": "台灣pay"
            },
            "geometry": {
                "type": "Point",
                "coordinates": [
                    120.676201,
                    24.14443
                ]
            }
        },
        {
            "type": "Feature",
            "properties": {
                "shop": "台灣自助小吃",
                "category": "餐飲",
                "area": "中區",
                "market_address": "臺中市中區綠川里臺灣大道１段８１巷２５號１樓中２層",
                "pay_list": "台灣pay"
            },
            "geometry": {
                "type": "Point",
                "coordinates": [
                    120.683029,
                    24.138618
                ]
            }
        },
        {
            "type": "Feature",
            "properties": {
                "shop": "交通部臺灣鐵路管理局餐旅服務總所臺中鐵路餐廳",
                "category": "餐飲",
                "area": "中區",
                "market_address": "臺中市中區綠川里００１鄰臺灣大道１段１號",
                "pay_list": "iPASS 一卡通\/信用卡\/台灣pay"
            },
            "geometry": {
                "type": "Point",
                "coordinates": [
                    120.685163,
                    24.136927
                ]
            }
        },
        {
            "type": "Feature",
            "properties": {
                "shop": "茶會商行",
                "category": "餐飲",
                "area": "中區",
                "market_address": "臺中市中區綠川里臺灣大道１段３５號１樓",
                "pay_list": "街口"
            },
            "geometry": {
                "type": "Point",
                "coordinates": [
                    120.683995,
                    24.138342
                ]
            }
        },
        {
            "type": "Feature",
            "properties": {
                "shop": "美惠繼光臭豆腐店",
                "category": "餐飲",
                "area": "中區",
                "market_address": "臺中市中區繼光里繼光街１４０號１樓",
                "pay_list": "悠遊付"
            },
            "geometry": {
                "type": "Point",
                "coordinates": [
                    120.684111,
                    24.140242
                ]
            }
        },
        {
            "type": "Feature",
            "properties": {
                "shop": "藍寶食餐飲股份有限公司",
                "category": "餐飲",
                "area": "中區",
                "market_address": "臺中市中區綠川里民族路１０號１樓",
                "pay_list": "街口\/信用卡"
            },
            "geometry": {
                "type": "Point",
                "coordinates": [
                    120.682265,
                    24.137384
                ]
            }
        },
        {
            "type": "Feature",
            "properties": {
                "shop": "加倍奉還有限公司",
                "category": "餐飲",
                "area": "中區",
                "market_address": "臺中市中區繼光里民族路３４號１樓",
                "pay_list": "悠遊付"
            },
            "geometry": {
                "type": "Point",
                "coordinates": [
                    120.681704,
                    24.137936
                ]
            }
        },
        {
            "type": "Feature",
            "properties": {
                "shop": "沂星有限公司",
                "category": "餐飲",
                "area": "中區",
                "market_address": "臺中市中區大墩里臺灣大道１段３６２號１樓",
                "pay_list": "LINE Pay Money\/iPASS 一卡通\/信用卡\/悠遊卡\/台灣pay\/街口"
            },
            "geometry": {
                "type": "Point",
                "coordinates": [
                    120.679503,
                    24.142676
                ]
            }
        },
        {
            "type": "Feature",
            "properties": {
                "shop": "春瑾國際有限公司",
                "category": "餐飲",
                "area": "中區",
                "market_address": "臺中市中區中華里中華路１段８４號１樓",
                "pay_list": "街口"
            },
            "geometry": {
                "type": "Point",
                "coordinates": [
                    120.675756,
                    24.14402
                ]
            }
        },
        {
            "type": "Feature",
            "properties": {
                "shop": "騷包餐飲有限公司",
                "category": "餐飲",
                "area": "中區",
                "market_address": "臺中市中區中華里民族路２０２號１樓",
                "pay_list": "信用卡"
            },
            "geometry": {
                "type": "Point",
                "coordinates": [
                    120.675737,
                    24.143115
                ]
            }
        },
        {
            "type": "Feature",
            "properties": {
                "shop": "鴻聚全國際商行",
                "category": "夜市\/市場攤販\/餐飲",
                "area": "北區",
                "market_address": "臺中市北區錦祥里育祥街１７號",
                "pay_list": "LINE Pay Money\/iPASS 一卡通\/icash pay\/悠遊付\/信用卡\/悠遊卡\/街口"
            },
            "geometry": {
                "type": "Point",
                "coordinates": [
                    120.692533,
                    24.156445
                ]
            }
        },
        {
            "type": "Feature",
            "properties": {
                "shop": "饗初企業社",
                "category": "夜市\/市場攤販",
                "area": "北區",
                "market_address": "臺中市北區賴旺里文心路四段１７２號８樓之３",
                "pay_list": "街口"
            },
            "geometry": {
                "type": "Point",
                "coordinates": [
                    120.674359,
                    24.173611
                ]
            }
        },
        {
            "type": "Feature",
            "properties": {
                "shop": "文品茶棧",
                "category": "夜市\/市場攤販",
                "area": "北區",
                "market_address": "臺中市北區新北里太平路２２號１樓",
                "pay_list": "信用卡\/Pi 拍錢包"
            },
            "geometry": {
                "type": "Point",
                "coordinates": [
                    120.685376,
                    24.147812
                ]
            }
        },
        {
            "type": "Feature",
            "properties": {
                "shop": "古玥茶棧",
                "category": "夜市\/市場攤販",
                "area": "北區",
                "market_address": "臺中市北區新北里三民路３段１１４號１樓",
                "pay_list": "信用卡\/Pi 拍錢包"
            },
            "geometry": {
                "type": "Point",
                "coordinates": [
                    120.684342,
                    24.149889
                ]
            }
        },
        {
            "type": "Feature",
            "properties": {
                "shop": "三佳早點豆漿店",
                "category": "夜市\/市場攤販",
                "area": "北區",
                "market_address": "臺中市北區建興里健行路４３６號１樓",
                "pay_list": "台灣pay\/信用卡"
            },
            "geometry": {
                "type": "Point",
                "coordinates": [
                    120.681297,
                    24.159281
                ]
            }
        },
        {
            "type": "Feature",
            "properties": {
                "shop": "邱倩怡",
                "category": "夜市\/市場攤販",
                "area": "北區",
                "market_address": "臺中市北區育德里美德街２２０號騎樓",
                "pay_list": "街口"
            },
            "geometry": {
                "type": "Point",
                "coordinates": [
                    120.678889,
                    24.158311
                ]
            }
        },
        {
            "type": "Feature",
            "properties": {
                "shop": "簡正昌",
                "category": "夜市\/市場攤販",
                "area": "北區",
                "market_address": "臺中市北區新北里太平路２２－６號",
                "pay_list": "街口"
            },
            "geometry": {
                "type": "Point",
                "coordinates": [
                    120.685357,
                    24.147791
                ]
            }
        },
        {
            "type": "Feature",
            "properties": {
                "shop": "佳和小吃攤",
                "category": "夜市\/市場攤販",
                "area": "北區",
                "market_address": "臺中市北區賴旺里天津路２段４９巷１０號６樓",
                "pay_list": "街口"
            },
            "geometry": {
                "type": "Point",
                "coordinates": [
                    120.673816,
                    24.170217
                ]
            }
        },
        {
            "type": "Feature",
            "properties": {
                "shop": "雄爺雞蛋糕",
                "category": "夜市\/市場攤販",
                "area": "北區",
                "market_address": "臺中市北區新興里一中街８號前",
                "pay_list": "信用卡\/台灣pay"
            },
            "geometry": {
                "type": "Point",
                "coordinates": [
                    120.68403,
                    24.14665
                ]
            }
        },
        {
            "type": "Feature",
            "properties": {
                "shop": "萊澤咖啡飲品",
                "category": "夜市\/市場攤販",
                "area": "北區",
                "market_address": "臺中市北區新北里育才南街３３號１樓前",
                "pay_list": "悠遊卡\/街口"
            },
            "geometry": {
                "type": "Point",
                "coordinates": [
                    120.68541,
                    24.148254
                ]
            }
        },
        {
            "type": "Feature",
            "properties": {
                "shop": "一中北京茶燻魯味攤",
                "category": "夜市\/市場攤販",
                "area": "北區",
                "market_address": "臺中市北區新北里一中街５２號前",
                "pay_list": "台灣pay"
            },
            "geometry": {
                "type": "Point",
                "coordinates": [
                    120.684726,
                    24.148243
                ]
            }
        },
        {
            "type": "Feature",
            "properties": {
                "shop": "一心公有零售市場-愛麗絲工作花坊",
                "category": "夜市\/市場攤販",
                "area": "北區",
                "market_address": "臺中市北區錦南街50-2號",
                "pay_list": "LINE Pay Money"
            },
            "geometry": {
                "type": "Point",
                "coordinates": [
                    120.686843,
                    24.154665
                ]
            }
        },
        {
            "type": "Feature",
            "properties": {
                "shop": "一心公有零售市場-天祥珠寶有限公司",
                "category": "夜市\/市場攤販",
                "area": "北區",
                "market_address": "臺中市北區錦南街50-2號",
                "pay_list": "LINE Pay Money"
            },
            "geometry": {
                "type": "Point",
                "coordinates": [
                    120.686843,
                    24.154665
                ]
            }
        },
        {
            "type": "Feature",
            "properties": {
                "shop": "一心公有零售市場-日產數位相機專賣店",
                "category": "夜市\/市場攤販",
                "area": "北區",
                "market_address": "臺中市北區錦南街50-2號",
                "pay_list": "LINE Pay Money"
            },
            "geometry": {
                "type": "Point",
                "coordinates": [
                    120.686843,
                    24.154665
                ]
            }
        },
        {
            "type": "Feature",
            "properties": {
                "shop": "中友百貨公司(美食街)",
                "category": "餐飲\/百貨美食街",
                "area": "北區",
                "market_address": "臺中市北區錦平里三民路三段１６９號１３樓之１",
                "pay_list": "信用卡\/悠遊卡\/台灣pay\/街口"
            },
            "geometry": {
                "type": "Point",
                "coordinates": [
                    120.683085,
                    24.147886
                ]
            }
        },
        {
            "type": "Feature",
            "properties": {
                "shop": "家樂福 台中漢口店",
                "category": "百貨美食街",
                "area": "北區",
                "market_address": "臺中市北區梅川里漢口路４段２９５號",
                "pay_list": "悠遊卡\/台灣pay\/信用卡"
            },
            "geometry": {
                "type": "Point",
                "coordinates": [
                    120.68041994282,
                    24.16727602014
                ]
            }
        },
        {
            "type": "Feature",
            "properties": {
                "shop": "大潤發 台中店",
                "category": "百貨美食街",
                "area": "北區",
                "market_address": "臺中市北區明德里忠明路４９９號１丶２樓，底層",
                "pay_list": "悠遊卡\/信用卡\/橘子支付"
            },
            "geometry": {
                "type": "Point",
                "coordinates": [
                    120.67200450557,
                    24.163468764959
                ]
            }
        },
        {
            "type": "Feature",
            "properties": {
                "shop": "中友百貨股份有限公司台中分公司",
                "category": "百貨美食街",
                "area": "北區",
                "market_address": "臺中市北區錦平里三民路３段１６１號",
                "pay_list": "悠遊卡\/街口\/台灣pay\/信用卡\/Pi 拍錢包"
            },
            "geometry": {
                "type": "Point",
                "coordinates": [
                    120.683085,
                    24.147886
                ]
            }
        },
        {
            "type": "Feature",
            "properties": {
                "shop": "家樂福 台中進化店",
                "category": "百貨美食街",
                "area": "北區",
                "market_address": "臺中市北區金華里進化路３７９號",
                "pay_list": "悠遊卡\/台灣pay\/信用卡"
            },
            "geometry": {
                "type": "Point",
                "coordinates": [
                    120.69411451131,
                    24.154638839253
                ]
            }
        },
        {
            "type": "Feature",
            "properties": {
                "shop": "福井西點麵包坊",
                "category": "糕餅",
                "area": "北區",
                "market_address": "臺中市北區長青里陝西路３７號",
                "pay_list": "悠遊付\/街口"
            },
            "geometry": {
                "type": "Point",
                "coordinates": [
                    120.66815,
                    24.168386
                ]
            }
        },
        {
            "type": "Feature",
            "properties": {
                "shop": "水點心美食坊",
                "category": "糕餅",
                "area": "北區",
                "market_address": "臺中市北區賴福里太原路２段１９０―１號",
                "pay_list": "信用卡"
            },
            "geometry": {
                "type": "Point",
                "coordinates": [
                    120.68094007066,
                    24.164905313526
                ]
            }
        },
        {
            "type": "Feature",
            "properties": {
                "shop": "千田商號",
                "category": "糕餅",
                "area": "北區",
                "market_address": "臺中市北區新北里一中街１１１號１樓",
                "pay_list": "台灣pay"
            },
            "geometry": {
                "type": "Point",
                "coordinates": [
                    120.685497,
                    24.150659
                ]
            }
        },
        {
            "type": "Feature",
            "properties": {
                "shop": "貝蕾特甜點屋",
                "category": "糕餅",
                "area": "北區",
                "market_address": "臺中市北區育德里健行路４９１號１樓",
                "pay_list": "街口\/信用卡\/台灣pay"
            },
            "geometry": {
                "type": "Point",
                "coordinates": [
                    120.677811,
                    24.159043
                ]
            }
        },
        {
            "type": "Feature",
            "properties": {
                "shop": "松本家好彩頭酥食品行",
                "category": "糕餅",
                "area": "北區",
                "market_address": "臺中市北區建興里崇德路１段１４１號",
                "pay_list": "台灣pay"
            },
            "geometry": {
                "type": "Point",
                "coordinates": [
                    120.684837,
                    24.161318
                ]
            }
        },
        {
            "type": "Feature",
            "properties": {
                "shop": "茉爾烘焙柒拾陸號",
                "category": "糕餅",
                "area": "北區",
                "market_address": "臺中市北區賴厝里漢口路四段７６號１樓",
                "pay_list": "台灣pay"
            },
            "geometry": {
                "type": "Point",
                "coordinates": [
                    120.676025,
                    24.16686
                ]
            }
        },
        {
            "type": "Feature",
            "properties": {
                "shop": "尚和田烘焙坊",
                "category": "糕餅",
                "area": "北區",
                "market_address": "臺中市北區賴福里太原路二段９０號１樓及９２號１樓",
                "pay_list": "信用卡"
            },
            "geometry": {
                "type": "Point",
                "coordinates": [
                    120.679543,
                    24.165009
                ]
            }
        },
        {
            "type": "Feature",
            "properties": {
                "shop": "吉貓商行",
                "category": "糕餅",
                "area": "北區",
                "market_address": "臺中市北區健行里忠太西路１０號",
                "pay_list": "信用卡"
            },
            "geometry": {
                "type": "Point",
                "coordinates": [
                    120.667784,
                    24.159936
                ]
            }
        },
        {
            "type": "Feature",
            "properties": {
                "shop": "禾豐麵包店",
                "category": "糕餅",
                "area": "北區",
                "market_address": "臺中市北區賴村里梅亭街４３３號１樓",
                "pay_list": "悠遊卡"
            },
            "geometry": {
                "type": "Point",
                "coordinates": [
                    120.678079,
                    24.160246
                ]
            }
        },
        {
            "type": "Feature",
            "properties": {
                "shop": "愛食客股份有限公司",
                "category": "餐飲\/糕餅",
                "area": "北區",
                "market_address": "臺中市北區淡溝里臺灣大道二段３６０號５樓之１",
                "pay_list": "信用卡"
            },
            "geometry": {
                "type": "Point",
                "coordinates": [
                    120.66527,
                    24.154468
                ]
            }
        },
        {
            "type": "Feature",
            "properties": {
                "shop": "分享家食品股份有限公司",
                "category": "餐飲\/糕餅",
                "area": "北區",
                "market_address": "臺中市北區淡溝里臺灣大道二段３６０號５樓之１",
                "pay_list": "台灣pay\/信用卡"
            },
            "geometry": {
                "type": "Point",
                "coordinates": [
                    120.66527,
                    24.154468
                ]
            }
        },
        {
            "type": "Feature",
            "properties": {
                "shop": "犂記實業有限公司",
                "category": "糕餅",
                "area": "北區",
                "market_address": "臺中市北區賴旺里１２鄰中清路１段７８８號１樓",
                "pay_list": "信用卡"
            },
            "geometry": {
                "type": "Point",
                "coordinates": [
                    120.672335,
                    24.171064
                ]
            }
        },
        {
            "type": "Feature",
            "properties": {
                "shop": "混董創食國際有限公司",
                "category": "餐飲\/糕餅",
                "area": "北區",
                "market_address": "臺中市北區新興里太平路６７號６樓",
                "pay_list": "台灣pay"
            },
            "geometry": {
                "type": "Point",
                "coordinates": [
                    120.68422,
                    24.147911
                ]
            }
        },
        {
            "type": "Feature",
            "properties": {
                "shop": "艾士珀食品興業有限公司",
                "category": "糕餅",
                "area": "北區",
                "market_address": "臺中市北區賴村里梅亭街３０７號",
                "pay_list": "台灣pay"
            },
            "geometry": {
                "type": "Point",
                "coordinates": [
                    120.680047,
                    24.160243
                ]
            }
        },
        {
            "type": "Feature",
            "properties": {
                "shop": "抱陽工坊",
                "category": "糕餅",
                "area": "北區",
                "market_address": "臺中市北區新北里錦南街６０號１樓",
                "pay_list": "台灣pay"
            },
            "geometry": {
                "type": "Point",
                "coordinates": [
                    120.686571,
                    24.154738
                ]
            }
        },
        {
            "type": "Feature",
            "properties": {
                "shop": "卡但屋食品有限公司",
                "category": "糕餅",
                "area": "北區",
                "market_address": "臺中市北區淡溝里民權路４０８號１Ｆ",
                "pay_list": "台灣pay"
            },
            "geometry": {
                "type": "Point",
                "coordinates": [
                    120.670674,
                    24.15607
                ]
            }
        },
        {
            "type": "Feature",
            "properties": {
                "shop": "麥仕佳食品股份有限公司漢口分公司",
                "category": "糕餅",
                "area": "北區",
                "market_address": "臺中市北區賴厝里漢口路四段２２０號",
                "pay_list": "悠遊卡"
            },
            "geometry": {
                "type": "Point",
                "coordinates": [
                    120.680896,
                    24.16691
                ]
            }
        },
        {
            "type": "Feature",
            "properties": {
                "shop": "三商餐飲股份有限公司台中學士分公司",
                "category": "餐飲\/糕餅",
                "area": "北區",
                "market_address": "臺中市北區五常里學士路８１號１樓",
                "pay_list": "悠遊付\/信用卡"
            },
            "geometry": {
                "type": "Point",
                "coordinates": [
                    120.681638,
                    24.155007
                ]
            }
        },
        {
            "type": "Feature",
            "properties": {
                "shop": "玫森烘培工作室",
                "category": "糕餅",
                "area": "北區",
                "market_address": "臺中市北區邱厝里永興街２３號１樓",
                "pay_list": "台灣pay"
            },
            "geometry": {
                "type": "Point",
                "coordinates": [
                    120.682219,
                    24.158802
                ]
            }
        },
        {
            "type": "Feature",
            "properties": {
                "shop": "松業有限公司",
                "category": "糕餅",
                "area": "北區",
                "market_address": "臺中市北區賴旺里北平路二段７８號１樓",
                "pay_list": "悠遊付\/街口\/信用卡\/Pi 拍錢包"
            },
            "geometry": {
                "type": "Point",
                "coordinates": [
                    120.674537,
                    24.171391
                ]
            }
        },
        {
            "type": "Feature",
            "properties": {
                "shop": "馬可先生第三股份有限公司崇德門市部",
                "category": "糕餅",
                "area": "北區",
                "market_address": "臺中市北區頂厝里崇德路一段５１１號",
                "pay_list": "LINE Pay Money\/iPASS 一卡通\/信用卡\/悠遊卡\/台灣pay\/街口"
            },
            "geometry": {
                "type": "Point",
                "coordinates": [
                    120.6848,
                    24.164743
                ]
            }
        },
        {
            "type": "Feature",
            "properties": {
                "shop": "薪火相傳創意經典烘焙坊",
                "category": "糕餅",
                "area": "北區",
                "market_address": "臺中市北區長青里天津路１段２１８號１樓",
                "pay_list": "台灣pay\/悠遊卡"
            },
            "geometry": {
                "type": "Point",
                "coordinates": [
                    120.66999,
                    24.16992
                ]
            }
        },
        {
            "type": "Feature",
            "properties": {
                "shop": "大樹饅頭店",
                "category": "糕餅",
                "area": "北區",
                "market_address": "臺中市北區邱厝里學士路１６０號１樓",
                "pay_list": "台灣pay"
            },
            "geometry": {
                "type": "Point",
                "coordinates": [
                    120.681138,
                    24.158797
                ]
            }
        },
        {
            "type": "Feature",
            "properties": {
                "shop": "馥熳麵包坊",
                "category": "糕餅",
                "area": "北區",
                "market_address": "臺中市北區賴村里學士路２５１號１樓",
                "pay_list": "LINE Pay Money\/iPASS 一卡通\/icash pay\/信用卡\/悠遊卡"
            },
            "geometry": {
                "type": "Point",
                "coordinates": [
                    120.680802,
                    24.160572
                ]
            }
        },
        {
            "type": "Feature",
            "properties": {
                "shop": "優汁台茶食品行",
                "category": "餐飲\/糕餅",
                "area": "北區",
                "market_address": "臺中市北區育德里五常街１５６號１樓",
                "pay_list": "街口"
            },
            "geometry": {
                "type": "Point",
                "coordinates": [
                    120.680126,
                    24.158377
                ]
            }
        },
        {
            "type": "Feature",
            "properties": {
                "shop": "馬可先生第三股份有限公司",
                "category": "糕餅",
                "area": "北區",
                "market_address": "臺中市北區光大里五權路１８２號",
                "pay_list": "LINE Pay Money\/iPASS 一卡通\/信用卡\/悠遊卡\/台灣pay\/街口"
            },
            "geometry": {
                "type": "Point",
                "coordinates": [
                    120.675921,
                    24.149576
                ]
            }
        },
        {
            "type": "Feature",
            "properties": {
                "shop": "台灣星豆有限公司學士分公司",
                "category": "餐飲\/糕餅",
                "area": "北區",
                "market_address": "臺中市北區賴村里學士路２８１號１樓",
                "pay_list": "信用卡"
            },
            "geometry": {
                "type": "Point",
                "coordinates": [
                    120.680829,
                    24.162649
                ]
            }
        },
        {
            "type": "Feature",
            "properties": {
                "shop": "立達啓能訓練中心附設實習商店",
                "category": "糕餅",
                "area": "北區",
                "market_address": "臺中市北區賴村里學士路２６７號",
                "pay_list": "悠遊卡\/信用卡\/街口\/台灣pay"
            },
            "geometry": {
                "type": "Point",
                "coordinates": [
                    120.680657,
                    24.16235
                ]
            }
        },
        {
            "type": "Feature",
            "properties": {
                "shop": "馬可先生第三股份有限公司中清門市部",
                "category": "糕餅",
                "area": "北區",
                "market_address": "臺中市北區賴旺里中清路１段８２８號",
                "pay_list": "LINE Pay Money\/iPASS 一卡通\/信用卡\/悠遊卡\/台灣pay\/街口"
            },
            "geometry": {
                "type": "Point",
                "coordinates": [
                    120.671903,
                    24.172446
                ]
            }
        },
        {
            "type": "Feature",
            "properties": {
                "shop": "社團法人台灣陽光婦女協會",
                "category": "糕餅",
                "area": "北區",
                "market_address": "臺中市北區賴明里漢口路四段３５號８樓之１",
                "pay_list": "信用卡"
            },
            "geometry": {
                "type": "Point",
                "coordinates": [
                    120.675407,
                    24.16709
                ]
            }
        },
        {
            "type": "Feature",
            "properties": {
                "shop": "典茶冷熱飲店",
                "category": "餐飲",
                "area": "北區",
                "market_address": "臺中市北區金龍里北屯路２１號１樓",
                "pay_list": "悠遊卡"
            },
            "geometry": {
                "type": "Point",
                "coordinates": [
                    120.691452,
                    24.159969
                ]
            }
        },
        {
            "type": "Feature",
            "properties": {
                "shop": "瑪奇早午餐",
                "category": "餐飲",
                "area": "北區",
                "market_address": "臺中市北區淡溝里育德路２１７號",
                "pay_list": "台灣pay\/信用卡"
            },
            "geometry": {
                "type": "Point",
                "coordinates": [
                    120.669264,
                    24.15709
                ]
            }
        },
        {
            "type": "Feature",
            "properties": {
                "shop": "嵐嵐茶行",
                "category": "餐飲",
                "area": "北區",
                "market_address": "臺中市北區長青里漢口路３段２２３號１樓",
                "pay_list": "LINE Pay Money\/iPASS 一卡通\/icash pay\/信用卡\/悠遊卡"
            },
            "geometry": {
                "type": "Point",
                "coordinates": [
                    120.671682,
                    24.167041
                ]
            }
        },
        {
            "type": "Feature",
            "properties": {
                "shop": "艾克商行",
                "category": "餐飲",
                "area": "北區",
                "market_address": "臺中市北區新北里三民路３段２１０―７號１樓",
                "pay_list": "台灣pay\/信用卡"
            },
            "geometry": {
                "type": "Point",
                "coordinates": [
                    120.68600778304,
                    24.153805402151
                ]
            }
        },
        {
            "type": "Feature",
            "properties": {
                "shop": "霏你不渴商行",
                "category": "餐飲",
                "area": "北區",
                "market_address": "臺中市北區明德里漢口路３段８４―３號１樓",
                "pay_list": "台灣pay\/信用卡\/Pi 拍錢包"
            },
            "geometry": {
                "type": "Point",
                "coordinates": [
                    120.66875397096,
                    24.166674080402
                ]
            }
        },
        {
            "type": "Feature",
            "properties": {
                "shop": "小新贊餐館",
                "category": "餐飲",
                "area": "北區",
                "market_address": "臺中市北區淡溝里民權路４０６號１樓",
                "pay_list": "信用卡"
            },
            "geometry": {
                "type": "Point",
                "coordinates": [
                    120.670675,
                    24.155977
                ]
            }
        },
        {
            "type": "Feature",
            "properties": {
                "shop": "盈羽茶飲專賣店",
                "category": "餐飲",
                "area": "北區",
                "market_address": "臺中市北區邱厝里學士路１５２號１樓",
                "pay_list": "LINE Pay Money\/iPASS 一卡通\/信用卡\/悠遊卡\/台灣pay\/街口"
            },
            "geometry": {
                "type": "Point",
                "coordinates": [
                    120.68113,
                    24.158643
                ]
            }
        },
        {
            "type": "Feature",
            "properties": {
                "shop": "義起初麵麵",
                "category": "餐飲",
                "area": "北區",
                "market_address": "臺中市北區育德里五常街１６８號１樓",
                "pay_list": "街口"
            },
            "geometry": {
                "type": "Point",
                "coordinates": [
                    120.680131,
                    24.158753
                ]
            }
        },
        {
            "type": "Feature",
            "properties": {
                "shop": "約翰食雞行",
                "category": "餐飲",
                "area": "北區",
                "market_address": "臺中市北區賴旺里北平路二段８３―１號１樓",
                "pay_list": "台灣pay\/街口"
            },
            "geometry": {
                "type": "Point",
                "coordinates": [
                    120.67483381079,
                    24.171674647872
                ]
            }
        },
        {
            "type": "Feature",
            "properties": {
                "shop": "凱毅茶坊",
                "category": "餐飲",
                "area": "北區",
                "market_address": "臺中市北區賴興里北平路二段２１２號１樓",
                "pay_list": "街口"
            },
            "geometry": {
                "type": "Point",
                "coordinates": [
                    120.678866,
                    24.171106
                ]
            }
        },
        {
            "type": "Feature",
            "properties": {
                "shop": "澄大商行",
                "category": "餐飲",
                "area": "北區",
                "market_address": "臺中市北區建興里永興街９０號１樓",
                "pay_list": "歐付寶"
            },
            "geometry": {
                "type": "Point",
                "coordinates": [
                    120.682495,
                    24.160948
                ]
            }
        },
        {
            "type": "Feature",
            "properties": {
                "shop": "帶午晨走食舖",
                "category": "餐飲",
                "area": "北區",
                "market_address": "臺中市北區崇德里太原路三段６９號１樓",
                "pay_list": "街口"
            },
            "geometry": {
                "type": "Point",
                "coordinates": [
                    120.68772,
                    24.165313
                ]
            }
        },
        {
            "type": "Feature",
            "properties": {
                "shop": "漂蔦手作料理店",
                "category": "餐飲",
                "area": "北區",
                "market_address": "臺中市北區賴村里五常街２０２號１樓",
                "pay_list": "台灣pay\/信用卡"
            },
            "geometry": {
                "type": "Point",
                "coordinates": [
                    120.680025,
                    24.159794
                ]
            }
        },
        {
            "type": "Feature",
            "properties": {
                "shop": "馹桂食坊",
                "category": "餐飲",
                "area": "北區",
                "market_address": "臺中市北區頂厝里崇德路一段５３９號１樓",
                "pay_list": "台灣pay"
            },
            "geometry": {
                "type": "Point",
                "coordinates": [
                    120.684859,
                    24.165735
                ]
            }
        },
        {
            "type": "Feature",
            "properties": {
                "shop": "晴天茶坊",
                "category": "餐飲",
                "area": "北區",
                "market_address": "臺中市北區頂厝里漢口路四段３７５―６號１樓",
                "pay_list": "街口"
            },
            "geometry": {
                "type": "Point",
                "coordinates": [
                    120.68366913667,
                    24.167124708129
                ]
            }
        },
        {
            "type": "Feature",
            "properties": {
                "shop": "茶潤廷商行",
                "category": "餐飲",
                "area": "北區",
                "market_address": "臺中市北區新北里錦新街７０號１樓",
                "pay_list": "街口\/悠遊卡\/台灣pay"
            },
            "geometry": {
                "type": "Point",
                "coordinates": [
                    120.686933,
                    24.153137
                ]
            }
        },
        {
            "type": "Feature",
            "properties": {
                "shop": "煥玉飲料店",
                "category": "餐飲",
                "area": "北區",
                "market_address": "臺中市北區錦平里五權路５７８號１樓",
                "pay_list": "街口"
            },
            "geometry": {
                "type": "Point",
                "coordinates": [
                    120.684876,
                    24.153957
                ]
            }
        },
        {
            "type": "Feature",
            "properties": {
                "shop": "鼎盛揚商行",
                "category": "餐飲",
                "area": "北區",
                "market_address": "臺中市北區建興里德化街２６２－１號１樓",
                "pay_list": "信用卡"
            },
            "geometry": {
                "type": "Point",
                "coordinates": [
                    120.683372,
                    24.161633
                ]
            }
        },
        {
            "type": "Feature",
            "properties": {
                "shop": "家赫商行",
                "category": "餐飲",
                "area": "北區",
                "market_address": "臺中市北區頂厝里漢口路四段３８６號１樓",
                "pay_list": "台灣pay"
            },
            "geometry": {
                "type": "Point",
                "coordinates": [
                    120.68427,
                    24.166855
                ]
            }
        },
        {
            "type": "Feature",
            "properties": {
                "shop": "波櫟商行",
                "category": "餐飲",
                "area": "北區",
                "market_address": "臺中市北區賴福里衛道二街２巷１１號１樓",
                "pay_list": "街口"
            },
            "geometry": {
                "type": "Point",
                "coordinates": [
                    120.681388,
                    24.163957
                ]
            }
        },
        {
            "type": "Feature",
            "properties": {
                "shop": "錚好飲品商號",
                "category": "餐飲",
                "area": "北區",
                "market_address": "臺中市北區明新里漢口路３段１７２號１樓",
                "pay_list": "台灣pay\/信用卡"
            },
            "geometry": {
                "type": "Point",
                "coordinates": [
                    120.671863,
                    24.166726
                ]
            }
        },
        {
            "type": "Feature",
            "properties": {
                "shop": "茶典商行",
                "category": "餐飲",
                "area": "北區",
                "market_address": "臺中市北區健行里西屯路一段４２８號",
                "pay_list": "街口\/信用卡\/台灣pay"
            },
            "geometry": {
                "type": "Point",
                "coordinates": [
                    120.665041,
                    24.16119
                ]
            }
        },
        {
            "type": "Feature",
            "properties": {
                "shop": "藝惠企業",
                "category": "餐飲",
                "area": "北區",
                "market_address": "臺中市北區賴村里健行路６０６號１樓",
                "pay_list": "街口\/信用卡\/台灣pay"
            },
            "geometry": {
                "type": "Point",
                "coordinates": [
                    120.676761,
                    24.159361
                ]
            }
        },
        {
            "type": "Feature",
            "properties": {
                "shop": "佳立果茶店",
                "category": "餐飲",
                "area": "北區",
                "market_address": "臺中市北區金華里雙十路二段２０９號１樓",
                "pay_list": "悠遊付\/街口"
            },
            "geometry": {
                "type": "Point",
                "coordinates": [
                    120.690838,
                    24.158249
                ]
            }
        },
        {
            "type": "Feature",
            "properties": {
                "shop": "十分燒餃子專賣店",
                "category": "餐飲",
                "area": "北區",
                "market_address": "臺中市北區健行里民權路５４３號１樓",
                "pay_list": "街口"
            },
            "geometry": {
                "type": "Point",
                "coordinates": [
                    120.670336,
                    24.161207
                ]
            }
        },
        {
            "type": "Feature",
            "properties": {
                "shop": "梅厝商行",
                "category": "餐飲",
                "area": "北區",
                "market_address": "臺中市北區賴厝里太原路２段２２９號１樓",
                "pay_list": "悠遊付\/街口"
            },
            "geometry": {
                "type": "Point",
                "coordinates": [
                    120.682129,
                    24.165457
                ]
            }
        },
        {
            "type": "Feature",
            "properties": {
                "shop": "私蓋創意雞肉料理坊",
                "category": "餐飲",
                "area": "北區",
                "market_address": "臺中市北區梅川里梅川西路４段１８３號",
                "pay_list": "iPASS 一卡通\/LINE Pay Money"
            },
            "geometry": {
                "type": "Point",
                "coordinates": [
                    120.678938,
                    24.169561
                ]
            }
        },