{
    "type": "FeatureCollection",
    "features": [
        {
            "type": "Feature",
            "properties": {
                "shop": "下營公有零售市場-青果",
                "category": "夜市\/市場攤販",
                "area": "下營區",
                "market_address": "臺南市下營區中山路二段39號",
                "pay_list": "iPASS 一卡通"
            },
            "geometry": {
                "type": "Point",
                "coordinates": [
                    120.261326,
                    23.233871
                ]
            }
        },
        {
            "type": "Feature",
            "properties": {
                "shop": "下營公有零售市場-青果",
                "category": "夜市\/市場攤販",
                "area": "下營區",
                "market_address": "臺南市下營區中山路二段39號",
                "pay_list": "信用卡"
            },
            "geometry": {
                "type": "Point",
                "coordinates": [
                    120.261326,
                    23.233871
                ]
            }
        },
        {
            "type": "Feature",
            "properties": {
                "shop": "府城小巴行動餐車",
                "category": "夜市\/市場攤販",
                "area": "下營區",
                "market_address": "臺南市下營區開化里７３號",
                "pay_list": "台灣pay"
            },
            "geometry": {
                "type": "Point",
                "coordinates": [
                    120.273191,
                    23.214115
                ]
            }
        },
        {
            "type": "Feature",
            "properties": {
                "shop": "下營公有零售市場-百貨",
                "category": "夜市\/市場攤販",
                "area": "下營區",
                "market_address": "臺南市下營區中山路二段39號",
                "pay_list": "信用卡"
            },
            "geometry": {
                "type": "Point",
                "coordinates": [
                    120.261326,
                    23.233871
                ]
            }
        },
        {
            "type": "Feature",
            "properties": {
                "shop": "下營公有零售市場-百貨",
                "category": "夜市\/市場攤販",
                "area": "下營區",
                "market_address": "臺南市下營區中山路二段39號",
                "pay_list": "iPASS 一卡通"
            },
            "geometry": {
                "type": "Point",
                "coordinates": [
                    120.261326,
                    23.233871
                ]
            }
        },
        {
            "type": "Feature",
            "properties": {
                "shop": "亞諾囍餅蛋糕",
                "category": "糕餅",
                "area": "下營區",
                "market_address": "臺南市下營區下營里中正南路９號１樓",
                "pay_list": "台灣pay\/信用卡"
            },
            "geometry": {
                "type": "Point",
                "coordinates": [
                    120.262919,
                    23.234922
                ]
            }
        },
        {
            "type": "Feature",
            "properties": {
                "shop": "震泰商行",
                "category": "餐飲",
                "area": "下營區",
                "market_address": "臺南市下營區下營里７鄰中山路１段１６１號１樓",
                "pay_list": "台灣pay\/信用卡"
            },
            "geometry": {
                "type": "Point",
                "coordinates": [
                    120.264967,
                    23.236118
                ]
            }
        },
        {
            "type": "Feature",
            "properties": {
                "shop": "慧縉小吃",
                "category": "餐飲",
                "area": "下營區",
                "market_address": "臺南市下營區紅甲里紅毛厝７４―３１號１樓",
                "pay_list": "台灣pay"
            },
            "geometry": {
                "type": "Point",
                "coordinates": [
                    120.26831729604,
                    23.246419896327
                ]
            }
        },
        {
            "type": "Feature",
            "properties": {
                "shop": "億萱茶行",
                "category": "餐飲",
                "area": "下營區",
                "market_address": "臺南市下營區下營里中山路１段７６號１樓",
                "pay_list": "悠遊付\/街口\/悠遊卡\/台灣pay"
            },
            "geometry": {
                "type": "Point",
                "coordinates": [
                    120.262635,
                    23.235091
                ]
            }
        },
        {
            "type": "Feature",
            "properties": {
                "shop": "洲子鵝湖餐飲事業有限公司門市部",
                "category": "餐飲",
                "area": "下營區",
                "market_address": "臺南市下營區新興里中興南路２１號",
                "pay_list": "LINE Pay Money\/iPASS 一卡通\/歐付寶\/信用卡\/悠遊卡\/台灣pay\/街口"
            },
            "geometry": {
                "type": "Point",
                "coordinates": [
                    120.274476,
                    23.239971
                ]
            }
        },
        {
            "type": "Feature",
            "properties": {
                "shop": "風華絕色餐飲店",
                "category": "夜市\/市場攤販\/餐飲",
                "area": "中西區",
                "market_address": "臺南市中西區府前里海安路１段２０９號１樓",
                "pay_list": "台灣pay\/街口"
            },
            "geometry": {
                "type": "Point",
                "coordinates": [
                    120.195813,
                    22.993023
                ]
            }
        },
        {
            "type": "Feature",
            "properties": {
                "shop": "二囍麻辣串",
                "category": "夜市\/市場攤販",
                "area": "中西區",
                "market_address": "臺南市中西區南廠里建安街５６號",
                "pay_list": "台灣pay"
            },
            "geometry": {
                "type": "Point",
                "coordinates": [
                    120.195329,
                    22.988768
                ]
            }
        },
        {
            "type": "Feature",
            "properties": {
                "shop": "正泰小吃店",
                "category": "夜市\/市場攤販\/餐飲",
                "area": "中西區",
                "market_address": "臺南市中西區五妃街２０９號１樓",
                "pay_list": "台灣pay\/信用卡"
            },
            "geometry": {
                "type": "Point",
                "coordinates": [
                    120.20422,
                    22.982534
                ]
            }
        },
        {
            "type": "Feature",
            "properties": {
                "shop": "忠義干鍋店",
                "category": "夜市\/市場攤販",
                "area": "中西區",
                "market_address": "臺南市中西區南美里忠義路２段１３９號１樓",
                "pay_list": "台灣pay"
            },
            "geometry": {
                "type": "Point",
                "coordinates": [
                    120.20336974429,
                    22.994709366481
                ]
            }
        },
        {
            "type": "Feature",
            "properties": {
                "shop": "復興公有零售市場-0085",
                "category": "夜市\/市場攤販",
                "area": "中西區",
                "market_address": "台南市中西區府前路一段31號",
                "pay_list": "icash pay"
            },
            "geometry": {
                "type": "Point",
                "coordinates": [
                    120.21016993128,
                    22.989046930289
                ]
            }
        },
        {
            "type": "Feature",
            "properties": {
                "shop": "東菜市公有零售市場-0288",
                "category": "夜市\/市場攤販",
                "area": "中西區",
                "market_address": "台南市中西區青年路164巷26號",
                "pay_list": "icash pay"
            },
            "geometry": {
                "type": "Point",
                "coordinates": [
                    120.20999273256,
                    22.991256356067
                ]
            }
        },
        {
            "type": "Feature",
            "properties": {
                "shop": "東菜市公有零售市場-0280",
                "category": "夜市\/市場攤販",
                "area": "中西區",
                "market_address": "台南市中西區青年路164巷26號",
                "pay_list": "icash pay"
            },
            "geometry": {
                "type": "Point",
                "coordinates": [
                    120.20999273256,
                    22.991256356067
                ]
            }
        },
        {
            "type": "Feature",
            "properties": {
                "shop": "東菜市公有零售市場-0278",
                "category": "夜市\/市場攤販",
                "area": "中西區",
                "market_address": "台南市中西區青年路164巷26號",
                "pay_list": "icash pay"
            },
            "geometry": {
                "type": "Point",
                "coordinates": [
                    120.20999273256,
                    22.991256356067
                ]
            }
        },
        {
            "type": "Feature",
            "properties": {
                "shop": "東菜市公有零售市場-0272",
                "category": "夜市\/市場攤販",
                "area": "中西區",
                "market_address": "台南市中西區青年路164巷26號",
                "pay_list": "icash pay"
            },
            "geometry": {
                "type": "Point",
                "coordinates": [
                    120.20999273256,
                    22.991256356067
                ]
            }
        },
        {
            "type": "Feature",
            "properties": {
                "shop": "東菜市公有零售市場-0201",
                "category": "夜市\/市場攤販",
                "area": "中西區",
                "market_address": "台南市中西區青年路164巷26號",
                "pay_list": "iPASS 一卡通"
            },
            "geometry": {
                "type": "Point",
                "coordinates": [
                    120.20999273256,
                    22.991256356067
                ]
            }
        },
        {
            "type": "Feature",
            "properties": {
                "shop": "東菜市公有零售市場-0122",
                "category": "夜市\/市場攤販",
                "area": "中西區",
                "market_address": "台南市中西區青年路164巷26號",
                "pay_list": "icash pay"
            },
            "geometry": {
                "type": "Point",
                "coordinates": [
                    120.20999273256,
                    22.991256356067
                ]
            }
        },
        {
            "type": "Feature",
            "properties": {
                "shop": "東菜市公有零售市場-0110",
                "category": "夜市\/市場攤販",
                "area": "中西區",
                "market_address": "台南市中西區青年路164巷26號",
                "pay_list": "icash pay"
            },
            "geometry": {
                "type": "Point",
                "coordinates": [
                    120.20999273256,
                    22.991256356067
                ]
            }
        },
        {
            "type": "Feature",
            "properties": {
                "shop": "東菜市公有零售市場-0013",
                "category": "夜市\/市場攤販",
                "area": "中西區",
                "market_address": "台南市中西區青年路164巷26號",
                "pay_list": "icash pay"
            },
            "geometry": {
                "type": "Point",
                "coordinates": [
                    120.20999273256,
                    22.991256356067
                ]
            }
        },
        {
            "type": "Feature",
            "properties": {
                "shop": "水仙宮公有零售市場-0145-1",
                "category": "夜市\/市場攤販",
                "area": "中西區",
                "market_address": "臺南市中西區海安路2段230號",
                "pay_list": "iPASS 一卡通"
            },
            "geometry": {
                "type": "Point",
                "coordinates": [
                    120.197483,
                    22.996967
                ]
            }
        },
        {
            "type": "Feature",
            "properties": {
                "shop": "美味求真股份有限公司－鷲嶺營業處",
                "category": "夜市\/市場攤販",
                "area": "中西區",
                "market_address": "臺南市中西區赤嵌里忠義路二段８４巷１８號",
                "pay_list": "街口\/信用卡"
            },
            "geometry": {
                "type": "Point",
                "coordinates": [
                    120.20411501648,
                    22.993748062123
                ]
            }
        },
        {
            "type": "Feature",
            "properties": {
                "shop": "東菜市公有零售市場-0112",
                "category": "夜市\/市場攤販",
                "area": "中西區",
                "market_address": "台南市中西區青年路164巷26號",
                "pay_list": "信用卡"
            },
            "geometry": {
                "type": "Point",
                "coordinates": [
                    120.20999273256,
                    22.991256356067
                ]
            }
        },
        {
            "type": "Feature",
            "properties": {
                "shop": "東菜市公有零售市場-0107",
                "category": "夜市\/市場攤販",
                "area": "中西區",
                "market_address": "台南市中西區青年路164巷26號",
                "pay_list": "台灣pay"
            },
            "geometry": {
                "type": "Point",
                "coordinates": [
                    120.20999273256,
                    22.991256356067
                ]
            }
        },
        {
            "type": "Feature",
            "properties": {
                "shop": "東菜市公有零售市場-0049",
                "category": "夜市\/市場攤販",
                "area": "中西區",
                "market_address": "台南市中西區青年路164巷26號",
                "pay_list": "台灣pay"
            },
            "geometry": {
                "type": "Point",
                "coordinates": [
                    120.20999273256,
                    22.991256356067
                ]
            }
        },
        {
            "type": "Feature",
            "properties": {
                "shop": "東菜市公有零售市場-0013",
                "category": "夜市\/市場攤販",
                "area": "中西區",
                "market_address": "台南市中西區青年路164巷26號",
                "pay_list": "街口"
            },
            "geometry": {
                "type": "Point",
                "coordinates": [
                    120.20999273256,
                    22.991256356067
                ]
            }
        },
        {
            "type": "Feature",
            "properties": {
                "shop": "東菜市公有零售市場-0007",
                "category": "夜市\/市場攤販",
                "area": "中西區",
                "market_address": "台南市中西區青年路164巷26號",
                "pay_list": "信用卡"
            },
            "geometry": {
                "type": "Point",
                "coordinates": [
                    120.20999273256,
                    22.991256356067
                ]
            }
        },
        {
            "type": "Feature",
            "properties": {
                "shop": "沙卡里巴公有零售市場-226",
                "category": "夜市\/市場攤販",
                "area": "中西區",
                "market_address": "臺南市友愛街206巷6號",
                "pay_list": "信用卡"
            },
            "geometry": {
                "type": "Point",
                "coordinates": [
                    120.19647935531,
                    22.992641163342
                ]
            }
        },
        {
            "type": "Feature",
            "properties": {
                "shop": "沙卡里巴公有零售市場-222",
                "category": "夜市\/市場攤販",
                "area": "中西區",
                "market_address": "臺南市友愛街206巷6號",
                "pay_list": "信用卡"
            },
            "geometry": {
                "type": "Point",
                "coordinates": [
                    120.19647935531,
                    22.992641163342
                ]
            }
        },
        {
            "type": "Feature",
            "properties": {
                "shop": "沙卡里巴公有零售市場-170",
                "category": "夜市\/市場攤販",
                "area": "中西區",
                "market_address": "臺南市友愛街206巷6號",
                "pay_list": "台灣pay\/街口"
            },
            "geometry": {
                "type": "Point",
                "coordinates": [
                    120.19647935531,
                    22.992641163342
                ]
            }
        },
        {
            "type": "Feature",
            "properties": {
                "shop": "沙卡里巴公有零售市場-168",
                "category": "夜市\/市場攤販",
                "area": "中西區",
                "market_address": "臺南市友愛街206巷6號",
                "pay_list": "台灣pay\/街口"
            },
            "geometry": {
                "type": "Point",
                "coordinates": [
                    120.19647935531,
                    22.992641163342
                ]
            }
        },
        {
            "type": "Feature",
            "properties": {
                "shop": "沙卡里巴公有零售市場-164",
                "category": "夜市\/市場攤販",
                "area": "中西區",
                "market_address": "臺南市友愛街206巷6號",
                "pay_list": "台灣pay\/街口"
            },
            "geometry": {
                "type": "Point",
                "coordinates": [
                    120.19647935531,
                    22.992641163342
                ]
            }
        },
        {
            "type": "Feature",
            "properties": {
                "shop": "西門淺草公有零售市場-C002",
                "category": "夜市\/市場攤販",
                "area": "中西區",
                "market_address": "臺南市中西區國華街3段26號",
                "pay_list": "信用卡"
            },
            "geometry": {
                "type": "Point",
                "coordinates": [
                    120.19766562535,
                    22.99382605841
                ]
            }
        },
        {
            "type": "Feature",
            "properties": {
                "shop": "復興公有零售市場-0085",
                "category": "夜市\/市場攤販",
                "area": "中西區",
                "market_address": "台南市中西區府前路一段31號",
                "pay_list": "街口"
            },
            "geometry": {
                "type": "Point",
                "coordinates": [
                    120.21016993128,
                    22.989046930289
                ]
            }
        },
        {
            "type": "Feature",
            "properties": {
                "shop": "第一小康公有零售市場-0048",
                "category": "夜市\/市場攤販",
                "area": "中西區",
                "market_address": "臺南市中西區文賢路197號",
                "pay_list": "信用卡"
            },
            "geometry": {
                "type": "Point",
                "coordinates": [
                    120.193503,
                    23.003518
                ]
            }
        },
        {
            "type": "Feature",
            "properties": {
                "shop": "第一小康公有零售市場-0022",
                "category": "夜市\/市場攤販",
                "area": "中西區",
                "market_address": "臺南市中西區文賢路197號",
                "pay_list": "街口"
            },
            "geometry": {
                "type": "Point",
                "coordinates": [
                    120.193503,
                    23.003518
                ]
            }
        },
        {
            "type": "Feature",
            "properties": {
                "shop": "第一小康公有零售市場-0010",
                "category": "夜市\/市場攤販",
                "area": "中西區",
                "market_address": "臺南市中西區文賢路197號",
                "pay_list": "街口"
            },
            "geometry": {
                "type": "Point",
                "coordinates": [
                    120.193503,
                    23.003518
                ]
            }
        },
        {
            "type": "Feature",
            "properties": {
                "shop": "第一小康公有零售市場-0001",
                "category": "夜市\/市場攤販",
                "area": "中西區",
                "market_address": "臺南市中西區文賢路197號",
                "pay_list": "街口"
            },
            "geometry": {
                "type": "Point",
                "coordinates": [
                    120.193503,
                    23.003518
                ]
            }
        },
        {
            "type": "Feature",
            "properties": {
                "shop": "保安公有零售市場-2230",
                "category": "夜市\/市場攤販",
                "area": "中西區",
                "market_address": "臺南市中西區郡西路35號",
                "pay_list": "街口"
            },
            "geometry": {
                "type": "Point",
                "coordinates": [
                    120.194166,
                    22.988486
                ]
            }
        },
        {
            "type": "Feature",
            "properties": {
                "shop": "保安公有零售市場-1122",
                "category": "夜市\/市場攤販",
                "area": "中西區",
                "market_address": "臺南市中西區郡西路35號",
                "pay_list": "街口"
            },
            "geometry": {
                "type": "Point",
                "coordinates": [
                    120.194166,
                    22.988486
                ]
            }
        },
        {
            "type": "Feature",
            "properties": {
                "shop": "東菜市公有零售市場-0278",
                "category": "夜市\/市場攤販",
                "area": "中西區",
                "market_address": "台南市中西區青年路164巷26號",
                "pay_list": "街口"
            },
            "geometry": {
                "type": "Point",
                "coordinates": [
                    120.20999273256,
                    22.991256356067
                ]
            }
        },
        {
            "type": "Feature",
            "properties": {
                "shop": "東菜市公有零售市場-0207",
                "category": "夜市\/市場攤販",
                "area": "中西區",
                "market_address": "台南市中西區青年路164巷26號",
                "pay_list": "台灣pay"
            },
            "geometry": {
                "type": "Point",
                "coordinates": [
                    120.20999273256,
                    22.991256356067
                ]
            }
        },
        {
            "type": "Feature",
            "properties": {
                "shop": "東菜市公有零售市場-0201",
                "category": "夜市\/市場攤販",
                "area": "中西區",
                "market_address": "台南市中西區青年路164巷26號",
                "pay_list": "信用卡"
            },
            "geometry": {
                "type": "Point",
                "coordinates": [
                    120.20999273256,
                    22.991256356067
                ]
            }
        },
        {
            "type": "Feature",
            "properties": {
                "shop": "東菜市公有零售市場-0200",
                "category": "夜市\/市場攤販",
                "area": "中西區",
                "market_address": "台南市中西區青年路164巷26號",
                "pay_list": "台灣pay"
            },
            "geometry": {
                "type": "Point",
                "coordinates": [
                    120.20999273256,
                    22.991256356067
                ]
            }
        },
        {
            "type": "Feature",
            "properties": {
                "shop": "東菜市公有零售市場-0184",
                "category": "夜市\/市場攤販",
                "area": "中西區",
                "market_address": "台南市中西區青年路164巷26號",
                "pay_list": "台灣pay"
            },
            "geometry": {
                "type": "Point",
                "coordinates": [
                    120.20999273256,
                    22.991256356067
                ]
            }
        },
        {
            "type": "Feature",
            "properties": {
                "shop": "東菜市公有零售市場-0122",
                "category": "夜市\/市場攤販",
                "area": "中西區",
                "market_address": "台南市中西區青年路164巷26號",
                "pay_list": "街口"
            },
            "geometry": {
                "type": "Point",
                "coordinates": [
                    120.20999273256,
                    22.991256356067
                ]
            }
        },
        {
            "type": "Feature",
            "properties": {
                "shop": "東菜市公有零售市場-0110",
                "category": "夜市\/市場攤販",
                "area": "中西區",
                "market_address": "台南市中西區青年路164巷26號",
                "pay_list": "台灣pay\/街口"
            },
            "geometry": {
                "type": "Point",
                "coordinates": [
                    120.20999273256,
                    22.991256356067
                ]
            }
        },
        {
            "type": "Feature",
            "properties": {
                "shop": "東菜市公有零售市場-0092",
                "category": "夜市\/市場攤販",
                "area": "中西區",
                "market_address": "台南市中西區青年路164巷26號",
                "pay_list": "台灣pay"
            },
            "geometry": {
                "type": "Point",
                "coordinates": [
                    120.20999273256,
                    22.991256356067
                ]
            }
        },
        {
            "type": "Feature",
            "properties": {
                "shop": "東菜市公有零售市場-0045",
                "category": "夜市\/市場攤販",
                "area": "中西區",
                "market_address": "台南市中西區青年路164巷26號",
                "pay_list": "台灣pay"
            },
            "geometry": {
                "type": "Point",
                "coordinates": [
                    120.20999273256,
                    22.991256356067
                ]
            }
        },
        {
            "type": "Feature",
            "properties": {
                "shop": "沙卡里巴公有零售市場-180",
                "category": "夜市\/市場攤販",
                "area": "中西區",
                "market_address": "臺南市友愛街206巷6號",
                "pay_list": "信用卡"
            },
            "geometry": {
                "type": "Point",
                "coordinates": [
                    120.19647935531,
                    22.992641163342
                ]
            }
        },
        {
            "type": "Feature",
            "properties": {
                "shop": "沙卡里巴公有零售市場-169",
                "category": "夜市\/市場攤販",
                "area": "中西區",
                "market_address": "臺南市友愛街206巷6號",
                "pay_list": "台灣pay\/街口"
            },
            "geometry": {
                "type": "Point",
                "coordinates": [
                    120.19647935531,
                    22.992641163342
                ]
            }
        },
        {
            "type": "Feature",
            "properties": {
                "shop": "西門淺草公有零售市場-D001",
                "category": "夜市\/市場攤販",
                "area": "中西區",
                "market_address": "臺南市中西區國華街3段26號",
                "pay_list": "街口"
            },
            "geometry": {
                "type": "Point",
                "coordinates": [
                    120.19766562535,
                    22.99382605841
                ]
            }
        },
        {
            "type": "Feature",
            "properties": {
                "shop": "西門淺草公有零售市場-B037",
                "category": "夜市\/市場攤販",
                "area": "中西區",
                "market_address": "臺南市中西區國華街3段26號",
                "pay_list": "信用卡"
            },
            "geometry": {
                "type": "Point",
                "coordinates": [
                    120.19766562535,
                    22.99382605841
                ]
            }
        },
        {
            "type": "Feature",
            "properties": {
                "shop": "西門淺草公有零售市場-B023",
                "category": "夜市\/市場攤販",
                "area": "中西區",
                "market_address": "臺南市中西區國華街3段26號",
                "pay_list": "信用卡\/街口"
            },
            "geometry": {
                "type": "Point",
                "coordinates": [
                    120.19766562535,
                    22.99382605841
                ]
            }
        },
        {
            "type": "Feature",
            "properties": {
                "shop": "西門淺草公有零售市場-A018",
                "category": "夜市\/市場攤販",
                "area": "中西區",
                "market_address": "臺南市中西區國華街3段26號",
                "pay_list": "信用卡"
            },
            "geometry": {
                "type": "Point",
                "coordinates": [
                    120.19766562535,
                    22.99382605841
                ]
            }
        },
        {
            "type": "Feature",
            "properties": {
                "shop": "西門淺草公有零售市場-A008",
                "category": "夜市\/市場攤販",
                "area": "中西區",
                "market_address": "臺南市中西區國華街3段26號",
                "pay_list": "台灣pay"
            },
            "geometry": {
                "type": "Point",
                "coordinates": [
                    120.19766562535,
                    22.99382605841
                ]
            }
        },
        {
            "type": "Feature",
            "properties": {
                "shop": "西門淺草公有零售市場-A006",
                "category": "夜市\/市場攤販",
                "area": "中西區",
                "market_address": "臺南市中西區國華街3段26號",
                "pay_list": "街口"
            },
            "geometry": {
                "type": "Point",
                "coordinates": [
                    120.19766562535,
                    22.99382605841
                ]
            }
        },
        {
            "type": "Feature",
            "properties": {
                "shop": "西門公有零售市場-291",
                "category": "夜市\/市場攤販",
                "area": "中西區",
                "market_address": "台南市中西區西門路2段177號",
                "pay_list": "街口"
            },
            "geometry": {
                "type": "Point",
                "coordinates": [
                    120.19923809217,
                    22.994180771447
                ]
            }
        },
        {
            "type": "Feature",
            "properties": {
                "shop": "西門公有零售市場-231",
                "category": "夜市\/市場攤販",
                "area": "中西區",
                "market_address": "台南市中西區西門路2段177號",
                "pay_list": "信用卡"
            },
            "geometry": {
                "type": "Point",
                "coordinates": [
                    120.19923809217,
                    22.994180771447
                ]
            }
        },
        {
            "type": "Feature",
            "properties": {
                "shop": "紅中發財煎餅店",
                "category": "夜市\/市場攤販",
                "area": "中西區",
                "market_address": "臺南市中西區府前里國華街２段１４０號１樓",
                "pay_list": "街口"
            },
            "geometry": {
                "type": "Point",
                "coordinates": [
                    120.19695659925,
                    22.991009311037
                ]
            }
        },
        {
            "type": "Feature",
            "properties": {
                "shop": "復興公有零售市場-0084",
                "category": "夜市\/市場攤販",
                "area": "中西區",
                "market_address": "台南市中西區府前路一段31號",
                "pay_list": "信用卡\/台灣pay"
            },
            "geometry": {
                "type": "Point",
                "coordinates": [
                    120.21016993128,
                    22.989046930289
                ]
            }
        },
        {
            "type": "Feature",
            "properties": {
                "shop": "復興公有零售市場-0058",
                "category": "夜市\/市場攤販",
                "area": "中西區",
                "market_address": "台南市中西區府前路一段31號",
                "pay_list": "信用卡"
            },
            "geometry": {
                "type": "Point",
                "coordinates": [
                    120.21016993128,
                    22.989046930289
                ]
            }
        },
        {
            "type": "Feature",
            "properties": {
                "shop": "保安公有零售市場-1103",
                "category": "夜市\/市場攤販",
                "area": "中西區",
                "market_address": "臺南市中西區郡西路35號",
                "pay_list": "街口"
            },
            "geometry": {
                "type": "Point",
                "coordinates": [
                    120.194166,
                    22.988486
                ]
            }
        },
        {
            "type": "Feature",
            "properties": {
                "shop": "東菜市公有零售市場-0302",
                "category": "夜市\/市場攤販",
                "area": "中西區",
                "market_address": "台南市中西區青年路164巷26號",
                "pay_list": "台灣pay"
            },
            "geometry": {
                "type": "Point",
                "coordinates": [
                    120.20999273256,
                    22.991256356067
                ]
            }
        },
        {
            "type": "Feature",
            "properties": {
                "shop": "東菜市公有零售市場-0288",
                "category": "夜市\/市場攤販",
                "area": "中西區",
                "market_address": "台南市中西區青年路164巷26號",
                "pay_list": "街口"
            },
            "geometry": {
                "type": "Point",
                "coordinates": [
                    120.20999273256,
                    22.991256356067
                ]
            }
        },
        {
            "type": "Feature",
            "properties": {
                "shop": "東菜市公有零售市場-0275",
                "category": "夜市\/市場攤販",
                "area": "中西區",
                "market_address": "台南市中西區青年路164巷26號",
                "pay_list": "台灣pay"
            },
            "geometry": {
                "type": "Point",
                "coordinates": [
                    120.20999273256,
                    22.991256356067
                ]
            }
        },
        {
            "type": "Feature",
            "properties": {
                "shop": "東菜市公有零售市場-0263",
                "category": "夜市\/市場攤販",
                "area": "中西區",
                "market_address": "台南市中西區青年路164巷26號",
                "pay_list": "台灣pay"
            },
            "geometry": {
                "type": "Point",
                "coordinates": [
                    120.20999273256,
                    22.991256356067
                ]
            }
        },
        {
            "type": "Feature",
            "properties": {
                "shop": "東菜市公有零售市場-0256",
                "category": "夜市\/市場攤販",
                "area": "中西區",
                "market_address": "台南市中西區青年路164巷26號",
                "pay_list": "信用卡\/台灣pay"
            },
            "geometry": {
                "type": "Point",
                "coordinates": [
                    120.20999273256,
                    22.991256356067
                ]
            }
        },
        {
            "type": "Feature",
            "properties": {
                "shop": "東菜市公有零售市場-0255",
                "category": "夜市\/市場攤販",
                "area": "中西區",
                "market_address": "台南市中西區青年路164巷26號",
                "pay_list": "台灣pay"
            },
            "geometry": {
                "type": "Point",
                "coordinates": [
                    120.20999273256,
                    22.991256356067
                ]
            }
        },
        {
            "type": "Feature",
            "properties": {
                "shop": "東菜市公有零售市場-0240",
                "category": "夜市\/市場攤販",
                "area": "中西區",
                "market_address": "台南市中西區青年路164巷26號",
                "pay_list": "信用卡"
            },
            "geometry": {
                "type": "Point",
                "coordinates": [
                    120.20999273256,
                    22.991256356067
                ]
            }
        },
        {
            "type": "Feature",
            "properties": {
                "shop": "東菜市公有零售市場-0060",
                "category": "夜市\/市場攤販",
                "area": "中西區",
                "market_address": "台南市中西區青年路164巷26號",
                "pay_list": "台灣pay"
            },
            "geometry": {
                "type": "Point",
                "coordinates": [
                    120.20999273256,
                    22.991256356067
                ]
            }
        },
        {
            "type": "Feature",
            "properties": {
                "shop": "東菜市公有零售市場-0059",
                "category": "夜市\/市場攤販",
                "area": "中西區",
                "market_address": "台南市中西區青年路164巷26號",
                "pay_list": "台灣pay"
            },
            "geometry": {
                "type": "Point",
                "coordinates": [
                    120.20999273256,
                    22.991256356067
                ]
            }
        },
        {
            "type": "Feature",
            "properties": {
                "shop": "東菜市公有零售市場-0015",
                "category": "夜市\/市場攤販",
                "area": "中西區",
                "market_address": "台南市中西區青年路164巷26號",
                "pay_list": "台灣pay"
            },
            "geometry": {
                "type": "Point",
                "coordinates": [
                    120.20999273256,
                    22.991256356067
                ]
            }
        },
        {
            "type": "Feature",
            "properties": {
                "shop": "西門淺草公有零售市場-B033",
                "category": "夜市\/市場攤販",
                "area": "中西區",
                "market_address": "臺南市中西區國華街3段26號",
                "pay_list": "信用卡"
            },
            "geometry": {
                "type": "Point",
                "coordinates": [
                    120.19766562535,
                    22.99382605841
                ]
            }
        },
        {
            "type": "Feature",
            "properties": {
                "shop": "西門淺草公有零售市場-B004",
                "category": "夜市\/市場攤販",
                "area": "中西區",
                "market_address": "臺南市中西區國華街3段26號",
                "pay_list": "信用卡"
            },
            "geometry": {
                "type": "Point",
                "coordinates": [
                    120.19766562535,
                    22.99382605841
                ]
            }
        },
        {
            "type": "Feature",
            "properties": {
                "shop": "西門淺草公有零售市場-A017",
                "category": "夜市\/市場攤販",
                "area": "中西區",
                "market_address": "臺南市中西區國華街3段26號",
                "pay_list": "信用卡"
            },
            "geometry": {
                "type": "Point",
                "coordinates": [
                    120.19766562535,
                    22.99382605841
                ]
            }
        },
        {
            "type": "Feature",
            "properties": {
                "shop": "西門淺草公有零售市場-A005",
                "category": "夜市\/市場攤販",
                "area": "中西區",
                "market_address": "臺南市中西區國華街3段26號",
                "pay_list": "信用卡"
            },
            "geometry": {
                "type": "Point",
                "coordinates": [
                    120.19766562535,
                    22.99382605841
                ]
            }
        },
        {
            "type": "Feature",
            "properties": {
                "shop": "西門公有零售市場-300",
                "category": "夜市\/市場攤販",
                "area": "中西區",
                "market_address": "台南市中西區西門路2段177號",
                "pay_list": "街口"
            },
            "geometry": {
                "type": "Point",
                "coordinates": [
                    120.19923809217,
                    22.994180771447
                ]
            }
        },
        {
            "type": "Feature",
            "properties": {
                "shop": "西門公有零售市場-209",
                "category": "夜市\/市場攤販",
                "area": "中西區",
                "market_address": "台南市中西區西門路2段177號",
                "pay_list": "信用卡"
            },
            "geometry": {
                "type": "Point",
                "coordinates": [
                    120.19923809217,
                    22.994180771447
                ]
            }
        },
        {
            "type": "Feature",
            "properties": {
                "shop": "永樂公有零售市場-199",
                "category": "夜市\/市場攤販",
                "area": "中西區",
                "market_address": "台南市國華街3段1234-234號",
                "pay_list": "信用卡"
            },
            "geometry": {
                "type": "Point",
                "coordinates": [
                    120.19984293439,
                    22.999972046938
                ]
            }
        },
        {
            "type": "Feature",
            "properties": {
                "shop": "水仙宮公有零售市場-0145-1",
                "category": "夜市\/市場攤販",
                "area": "中西區",
                "market_address": "臺南市中西區海安路2段230號",
                "pay_list": "信用卡"
            },
            "geometry": {
                "type": "Point",
                "coordinates": [
                    120.197483,
                    22.996967
                ]
            }
        },
        {
            "type": "Feature",
            "properties": {
                "shop": "復興公有零售市場-0084",
                "category": "夜市\/市場攤販",
                "area": "中西區",
                "market_address": "台南市中西區府前路一段31號",
                "pay_list": "iPASS 一卡通"
            },
            "geometry": {
                "type": "Point",
                "coordinates": [
                    120.21016993128,
                    22.989046930289
                ]
            }
        },
        {
            "type": "Feature",
            "properties": {
                "shop": "復興公有零售市場-0058",
                "category": "夜市\/市場攤販",
                "area": "中西區",
                "market_address": "台南市中西區府前路一段31號",
                "pay_list": "iPASS 一卡通"
            },
            "geometry": {
                "type": "Point",
                "coordinates": [
                    120.21016993128,
                    22.989046930289
                ]
            }
        },
        {
            "type": "Feature",
            "properties": {
                "shop": "第一小康公有零售市場-48",
                "category": "夜市\/市場攤販",
                "area": "中西區",
                "market_address": "臺南市中西區文賢路197號",
                "pay_list": "iPASS 一卡通"
            },
            "geometry": {
                "type": "Point",
                "coordinates": [
                    120.193503,
                    23.003518
                ]
            }
        },
        {
            "type": "Feature",
            "properties": {
                "shop": "第一小康公有零售市場-22",
                "category": "夜市\/市場攤販",
                "area": "中西區",
                "market_address": "臺南市中西區文賢路197號",
                "pay_list": "icash pay"
            },
            "geometry": {
                "type": "Point",
                "coordinates": [
                    120.193503,
                    23.003518
                ]
            }
        },
        {
            "type": "Feature",
            "properties": {
                "shop": "第一小康公有零售市場-10",
                "category": "夜市\/市場攤販",
                "area": "中西區",
                "market_address": "臺南市中西區文賢路197號",
                "pay_list": "icash pay"
            },
            "geometry": {
                "type": "Point",
                "coordinates": [
                    120.193503,
                    23.003518
                ]
            }
        },
        {
            "type": "Feature",
            "properties": {
                "shop": "第一小康公有零售市場-1",
                "category": "夜市\/市場攤販",
                "area": "中西區",
                "market_address": "臺南市中西區文賢路197號",
                "pay_list": "icash pay"
            },
            "geometry": {
                "type": "Point",
                "coordinates": [
                    120.193503,
                    23.003518
                ]
            }
        },
        {
            "type": "Feature",
            "properties": {
                "shop": "保安公有零售市場-2230",
                "category": "夜市\/市場攤販",
                "area": "中西區",
                "market_address": "臺南市中西區郡西路35號",
                "pay_list": "icash pay"
            },
            "geometry": {
                "type": "Point",
                "coordinates": [
                    120.194166,
                    22.988486
                ]
            }
        },
        {
            "type": "Feature",
            "properties": {
                "shop": "保安公有零售市場-1122",
                "category": "夜市\/市場攤販",
                "area": "中西區",
                "market_address": "臺南市中西區郡西路35號",
                "pay_list": "icash pay"
            },
            "geometry": {
                "type": "Point",
                "coordinates": [
                    120.194166,
                    22.988486
                ]
            }
        },
        {
            "type": "Feature",
            "properties": {
                "shop": "保安公有零售市場-1103",
                "category": "夜市\/市場攤販",
                "area": "中西區",
                "market_address": "臺南市中西區郡西路35號",
                "pay_list": "icash pay"
            },
            "geometry": {
                "type": "Point",
                "coordinates": [
                    120.194166,
                    22.988486
                ]
            }
        },
        {
            "type": "Feature",
            "properties": {
                "shop": "東菜市公有零售市場-0256",
                "category": "夜市\/市場攤販",
                "area": "中西區",
                "market_address": "台南市中西區青年路164巷26號",
                "pay_list": "iPASS 一卡通"
            },
            "geometry": {
                "type": "Point",
                "coordinates": [
                    120.20999273256,
                    22.991256356067
                ]
            }
        },
        {
            "type": "Feature",
            "properties": {
                "shop": "東菜市公有零售市場-0240",
                "category": "夜市\/市場攤販",
                "area": "中西區",
                "market_address": "台南市中西區青年路164巷26號",
                "pay_list": "iPASS 一卡通"
            },
            "geometry": {
                "type": "Point",
                "coordinates": [
                    120.20999273256,
                    22.991256356067
                ]
            }
        },
        {
            "type": "Feature",
            "properties": {
                "shop": "東菜市公有零售市場-0112",
                "category": "夜市\/市場攤販",
                "area": "中西區",
                "market_address": "台南市中西區青年路164巷26號",
                "pay_list": "iPASS 一卡通"
            },
            "geometry": {
                "type": "Point",
                "coordinates": [
                    120.20999273256,
                    22.991256356067
                ]
            }
        },
        {
            "type": "Feature",
            "properties": {
                "shop": "東菜市公有零售市場-0059",
                "category": "夜市\/市場攤販",
                "area": "中西區",
                "market_address": "台南市中西區青年路164巷26號",
                "pay_list": "icash pay"
            },
            "geometry": {
                "type": "Point",
                "coordinates": [
                    120.20999273256,
                    22.991256356067
                ]
            }
        },
        {
            "type": "Feature",
            "properties": {
                "shop": "東菜市公有零售市場-0015",
                "category": "夜市\/市場攤販",
                "area": "中西區",
                "market_address": "台南市中西區青年路164巷26號",
                "pay_list": "icash pay"
            },
            "geometry": {
                "type": "Point",
                "coordinates": [
                    120.20999273256,
                    22.991256356067
                ]
            }
        },
        {
            "type": "Feature",
            "properties": {
                "shop": "東菜市公有零售市場-0007",
                "category": "夜市\/市場攤販",
                "area": "中西區",
                "market_address": "台南市中西區青年路164巷26號",
                "pay_list": "iPASS 一卡通"
            },
            "geometry": {
                "type": "Point",
                "coordinates": [
                    120.20999273256,
                    22.991256356067
                ]
            }
        },
        {
            "type": "Feature",
            "properties": {
                "shop": "沙卡里巴公有零售市場-226",
                "category": "夜市\/市場攤販",
                "area": "中西區",
                "market_address": "臺南市友愛街206巷6號",
                "pay_list": "iPASS 一卡通"
            },
            "geometry": {
                "type": "Point",
                "coordinates": [
                    120.19647935531,
                    22.992641163342
                ]
            }
        },
        {
            "type": "Feature",
            "properties": {
                "shop": "沙卡里巴公有零售市場-222",
                "category": "夜市\/市場攤販",
                "area": "中西區",
                "market_address": "臺南市友愛街206巷6號",
                "pay_list": "iPASS 一卡通"
            },
            "geometry": {
                "type": "Point",
                "coordinates": [
                    120.19647935531,
                    22.992641163342
                ]
            }
        },
        {
            "type": "Feature",
            "properties": {
                "shop": "沙卡里巴公有零售市場-180",
                "category": "夜市\/市場攤販",
                "area": "中西區",
                "market_address": "臺南市友愛街206巷6號",
                "pay_list": "iPASS 一卡通"
            },
            "geometry": {
                "type": "Point",
                "coordinates": [
                    120.19647935531,
                    22.992641163342
                ]
            }
        },
        {
            "type": "Feature",
            "properties": {
                "shop": "沙卡里巴公有零售市場-170",
                "category": "夜市\/市場攤販",
                "area": "中西區",
                "market_address": "臺南市友愛街206巷6號",
                "pay_list": "icash pay"
            },
            "geometry": {
                "type": "Point",
                "coordinates": [
                    120.19647935531,
                    22.992641163342
                ]
            }
        },
        {
            "type": "Feature",
            "properties": {
                "shop": "沙卡里巴公有零售市場-169",
                "category": "夜市\/市場攤販",
                "area": "中西區",
                "market_address": "臺南市友愛街206巷6號",
                "pay_list": "icash pay"
            },
            "geometry": {
                "type": "Point",
                "coordinates": [
                    120.19647935531,
                    22.992641163342
                ]
            }
        },
        {
            "type": "Feature",
            "properties": {
                "shop": "沙卡里巴公有零售市場-168",
                "category": "夜市\/市場攤販",
                "area": "中西區",
                "market_address": "臺南市友愛街206巷6號",
                "pay_list": "icash pay"
            },
            "geometry": {
                "type": "Point",
                "coordinates": [
                    120.19647935531,
                    22.992641163342
                ]
            }
        },
        {
            "type": "Feature",
            "properties": {
                "shop": "沙卡里巴公有零售市場-164",
                "category": "夜市\/市場攤販",
                "area": "中西區",
                "market_address": "臺南市友愛街206巷6號",
                "pay_list": "icash pay"
            },
            "geometry": {
                "type": "Point",
                "coordinates": [
                    120.19647935531,
                    22.992641163342
                ]
            }
        },
        {
            "type": "Feature",
            "properties": {
                "shop": "西門淺草公有零售市場-D001",
                "category": "夜市\/市場攤販",
                "area": "中西區",
                "market_address": "臺南市中西區國華街3段26號",
                "pay_list": "icash pay"
            },
            "geometry": {
                "type": "Point",
                "coordinates": [
                    120.19766562535,
                    22.99382605841
                ]
            }
        },
        {
            "type": "Feature",
            "properties": {
                "shop": "西門淺草公有零售市場-C002",
                "category": "夜市\/市場攤販",
                "area": "中西區",
                "market_address": "臺南市中西區國華街3段26號",
                "pay_list": "iPASS 一卡通"
            },
            "geometry": {
                "type": "Point",
                "coordinates": [
                    120.19766562535,
                    22.99382605841
                ]
            }
        },
        {
            "type": "Feature",
            "properties": {
                "shop": "西門淺草公有零售市場-B037",
                "category": "夜市\/市場攤販",
                "area": "中西區",
                "market_address": "臺南市中西區國華街3段26號",
                "pay_list": "iPASS 一卡通"
            },
            "geometry": {
                "type": "Point",
                "coordinates": [
                    120.19766562535,
                    22.99382605841
                ]
            }
        },
        {
            "type": "Feature",
            "properties": {
                "shop": "西門淺草公有零售市場-B033",
                "category": "夜市\/市場攤販",
                "area": "中西區",
                "market_address": "臺南市中西區國華街3段26號",
                "pay_list": "iPASS 一卡通"
            },
            "geometry": {
                "type": "Point",
                "coordinates": [
                    120.19766562535,
                    22.99382605841
                ]
            }
        },
        {
            "type": "Feature",
            "properties": {
                "shop": "西門淺草公有零售市場-B023",
                "category": "夜市\/市場攤販",
                "area": "中西區",
                "market_address": "臺南市中西區國華街3段26號",
                "pay_list": "icash pay\/iPASS 一卡通"
            },
            "geometry": {
                "type": "Point",
                "coordinates": [
                    120.19766562535,
                    22.99382605841
                ]
            }
        },
        {
            "type": "Feature",
            "properties": {
                "shop": "西門淺草公有零售市場-B004",
                "category": "夜市\/市場攤販",
                "area": "中西區",
                "market_address": "臺南市中西區國華街3段26號",
                "pay_list": "iPASS 一卡通"
            },
            "geometry": {
                "type": "Point",
                "coordinates": [
                    120.19766562535,
                    22.99382605841
                ]
            }
        },
        {
            "type": "Feature",
            "properties": {
                "shop": "西門淺草公有零售市場-A018",
                "category": "夜市\/市場攤販",
                "area": "中西區",
                "market_address": "臺南市中西區國華街3段26號",
                "pay_list": "iPASS 一卡通"
            },
            "geometry": {
                "type": "Point",
                "coordinates": [
                    120.19766562535,
                    22.99382605841
                ]
            }
        },
        {
            "type": "Feature",
            "properties": {
                "shop": "西門淺草公有零售市場-A017",
                "category": "夜市\/市場攤販",
                "area": "中西區",
                "market_address": "臺南市中西區國華街3段26號",
                "pay_list": "iPASS 一卡通"
            },
            "geometry": {
                "type": "Point",
                "coordinates": [
                    120.19766562535,
                    22.99382605841
                ]
            }
        },
        {
            "type": "Feature",
            "properties": {
                "shop": "西門淺草公有零售市場-A006",
                "category": "夜市\/市場攤販",
                "area": "中西區",
                "market_address": "臺南市中西區國華街3段26號",
                "pay_list": "icash pay"
            },
            "geometry": {
                "type": "Point",
                "coordinates": [
                    120.19766562535,
                    22.99382605841
                ]
            }
        },
        {
            "type": "Feature",
            "properties": {
                "shop": "西門淺草公有零售市場-A005",
                "category": "夜市\/市場攤販",
                "area": "中西區",
                "market_address": "臺南市中西區國華街3段26號",
                "pay_list": "iPASS 一卡通"
            },
            "geometry": {
                "type": "Point",
                "coordinates": [
                    120.19766562535,
                    22.99382605841
                ]
            }
        },
        {
            "type": "Feature",
            "properties": {
                "shop": "西門公有零售市場-300",
                "category": "夜市\/市場攤販",
                "area": "中西區",
                "market_address": "台南市中西區西門路2段177號",
                "pay_list": "icash pay"
            },
            "geometry": {
                "type": "Point",
                "coordinates": [
                    120.19923809217,
                    22.994180771447
                ]
            }
        },
        {
            "type": "Feature",
            "properties": {
                "shop": "西門公有零售市場-291",
                "category": "夜市\/市場攤販",
                "area": "中西區",
                "market_address": "台南市中西區西門路2段177號",
                "pay_list": "icash pay"
            },
            "geometry": {
                "type": "Point",
                "coordinates": [
                    120.19923809217,
                    22.994180771447
                ]
            }
        },
        {
            "type": "Feature",
            "properties": {
                "shop": "西門公有零售市場-231",
                "category": "夜市\/市場攤販",
                "area": "中西區",
                "market_address": "台南市中西區西門路2段177號",
                "pay_list": "iPASS 一卡通"
            },
            "geometry": {
                "type": "Point",
                "coordinates": [
                    120.19923809217,
                    22.994180771447
                ]
            }
        },
        {
            "type": "Feature",
            "properties": {
                "shop": "西門公有零售市場-209",
                "category": "夜市\/市場攤販",
                "area": "中西區",
                "market_address": "台南市中西區西門路2段177號",
                "pay_list": "iPASS 一卡通"
            },
            "geometry": {
                "type": "Point",
                "coordinates": [
                    120.19923809217,
                    22.994180771447
                ]
            }
        },
        {
            "type": "Feature",
            "properties": {
                "shop": "永樂公有零售市場-199",
                "category": "夜市\/市場攤販",
                "area": "中西區",
                "market_address": "台南市國華街3段1234-234號",
                "pay_list": "iPASS 一卡通"
            },
            "geometry": {
                "type": "Point",
                "coordinates": [
                    120.19984293439,
                    22.999972046938
                ]
            }
        },
        {
            "type": "Feature",
            "properties": {
                "shop": "FOCUS時尚流行館",
                "category": "百貨美食街",
                "area": "中西區",
                "market_address": "臺南市中西區中山路１６６號",
                "pay_list": "街口\/台灣pay\/信用卡\/Pi 拍錢包"
            },
            "geometry": {
                "type": "Point",
                "coordinates": [
                    120.21016704795,
                    22.995629891827
                ]
            }
        },
        {
            "type": "Feature",
            "properties": {
                "shop": "新光三越台南中山店",
                "category": "百貨美食街",
                "area": "中西區",
                "market_address": "臺南市中西區城隍里中山路１６２號",
                "pay_list": "悠遊卡\/信用卡"
            },
            "geometry": {
                "type": "Point",
                "coordinates": [
                    120.209898,
                    22.995462
                ]
            }
        },
        {
            "type": "Feature",
            "properties": {
                "shop": "新光三越台南新天地",
                "category": "百貨美食街",
                "area": "中西區",
                "market_address": "臺南市中西區小西門里西門路１段６５８號",
                "pay_list": "悠遊卡\/信用卡"
            },
            "geometry": {
                "type": "Point",
                "coordinates": [
                    120.198867,
                    22.98673
                ]
            }
        },
        {
            "type": "Feature",
            "properties": {
                "shop": "家樂福 台南中華西店",
                "category": "百貨美食街",
                "area": "中西區",
                "market_address": "臺南市中西區光賢里中華西路２段５０２號",
                "pay_list": "悠遊卡\/台灣pay\/信用卡"
            },
            "geometry": {
                "type": "Point",
                "coordinates": [
                    120.18719780383,
                    23.001559147743
                ]
            }
        },
        {
            "type": "Feature",
            "properties": {
                "shop": "比漾廣場Beyond Plaza台南分店",
                "category": "百貨美食街",
                "area": "中西區",
                "market_address": "臺南市中西區正興街７７巷１０號１樓",
                "pay_list": "悠遊卡\/街口\/信用卡"
            },
            "geometry": {
                "type": "Point",
                "coordinates": [
                    120.19676,
                    22.993812
                ]
            }
        },
        {
            "type": "Feature",
            "properties": {
                "shop": "林百貨",
                "category": "百貨美食街",
                "area": "中西區",
                "market_address": "700台南市中西區忠義路二段63號",
                "pay_list": "台灣pay\/信用卡\/Pi 拍錢包"
            },
            "geometry": {
                "type": "Point",
                "coordinates": [
                    120.20261124949,
                    22.991708539599
                ]
            }
        },
        {
            "type": "Feature",
            "properties": {
                "shop": "FOCUS時尚流行館",
                "category": "百貨美食街",
                "area": "中西區",
                "market_address": "臺南市中西區中山路１６６號",
                "pay_list": "街口\/台灣pay\/信用卡\/Pi 拍錢包"
            },
            "geometry": {
                "type": "Point",
                "coordinates": [
                    120.21016704795,
                    22.995629891827
                ]
            }
        },
        {
            "type": "Feature",
            "properties": {
                "shop": "FOCUS時尚流行館臺南美術館門市",
                "category": "百貨美食街",
                "area": "中西區",
                "market_address": "臺南市中西區南美里忠義路２段１號",
                "pay_list": "街口\/台灣pay\/信用卡\/Pi 拍錢包"
            },
            "geometry": {
                "type": "Point",
                "coordinates": [
                    120.201804,
                    22.990297
                ]
            }
        },
        {
            "type": "Feature",
            "properties": {
                "shop": "新光三越台南中山店",
                "category": "百貨美食街",
                "area": "中西區",
                "market_address": "臺南市中西區城隍里中山路１６２號",
                "pay_list": "悠遊卡\/信用卡"
            },
            "geometry": {
                "type": "Point",
                "coordinates": [
                    120.209898,
                    22.995462
                ]
            }
        },
        {
            "type": "Feature",
            "properties": {
                "shop": "新光三越台南新天地",
                "category": "百貨美食街",
                "area": "中西區",
                "market_address": "臺南市中西區小西門里西門路１段６５８號",
                "pay_list": "悠遊卡\/信用卡"
            },
            "geometry": {
                "type": "Point",
                "coordinates": [
                    120.198867,
                    22.98673
                ]
            }
        },
        {
            "type": "Feature",
            "properties": {
                "shop": "FOCUS時尚流行館臺南美術館門市",
                "category": "百貨美食街",
                "area": "中西區",
                "market_address": "臺南市中西區南美里忠義路２段１號",
                "pay_list": "街口\/台灣pay\/信用卡\/Pi 拍錢包"
            },
            "geometry": {
                "type": "Point",
                "coordinates": [
                    120.201804,
                    22.990297
                ]
            }
        },
        {
            "type": "Feature",
            "properties": {
                "shop": "家樂福 安平店",
                "category": "百貨美食街",
                "area": "中西區",
                "market_address": "臺南市中西區大涼里中華西路２段１６號",
                "pay_list": "悠遊卡\/台灣pay\/信用卡"
            },
            "geometry": {
                "type": "Point",
                "coordinates": [
                    120.187181,
                    22.987915
                ]
            }
        },
        {
            "type": "Feature",
            "properties": {
                "shop": "遠百大台南公園店",
                "category": "百貨美食街",
                "area": "中西區",
                "market_address": "臺南市中西區赤嵌里公園路６０號地下２樓至地上４樓",
                "pay_list": "悠遊卡\/信用卡"
            },
            "geometry": {
                "type": "Point",
                "coordinates": [
                    120.205827,
                    22.995359
                ]
            }
        },
        {
            "type": "Feature",
            "properties": {
                "shop": "FOCUS時尚流行館",
                "category": "百貨美食街",
                "area": "中西區",
                "market_address": "臺南市中西區中山路１６６號",
                "pay_list": "街口\/台灣pay\/信用卡\/Pi 拍錢包"
            },
            "geometry": {
                "type": "Point",
                "coordinates": [
                    120.21016704795,
                    22.995629891827
                ]
            }
        },
        {
            "type": "Feature",
            "properties": {
                "shop": "新光三越台南新天地二館",
                "category": "百貨美食街",
                "area": "中西區",
                "market_address": "臺南市中西區西門路１段６５８之１號１樓、地下１～３樓、永福路１段１８９號地下４樓及和意路３號１樓",
                "pay_list": "悠遊卡\/信用卡"
            },
            "geometry": {
                "type": "Point",
                "coordinates": [
                    120.198947,
                    22.986943
                ]
            }
        },
        {
            "type": "Feature",
            "properties": {
                "shop": "拾柒號手感烘焙坊",
                "category": "餐飲\/糕餅",
                "area": "中西區",
                "market_address": "臺南市中西區西湖里湖美二街６２巷４號１樓",
                "pay_list": "街口\/信用卡\/台灣pay"
            },
            "geometry": {
                "type": "Point",
                "coordinates": [
                    120.182215,
                    23.00164
                ]
            }
        },
        {
            "type": "Feature",
            "properties": {
                "shop": "就是甜點",
                "category": "糕餅",
                "area": "中西區",
                "market_address": "臺南市中西區南廠里大智街１４１號１樓",
                "pay_list": "LINE Pay Money\/iPASS 一卡通\/悠遊卡\/台灣pay\/街口"
            },
            "geometry": {
                "type": "Point",
                "coordinates": [
                    120.192977,
                    22.988916
                ]
            }
        },
        {
            "type": "Feature",
            "properties": {
                "shop": "晴邦商行",
                "category": "餐飲\/糕餅",
                "area": "中西區",
                "market_address": "臺南市中西區兌悅里成功路５１５號１，２樓",
                "pay_list": "Pi 拍錢包\/悠遊付\/信用卡\/台灣pay\/街口"
            },
            "geometry": {
                "type": "Point",
                "coordinates": [
                    120.194739,
                    23.002174
                ]
            }
        },
        {
            "type": "Feature",
            "properties": {
                "shop": "蒔蒔商店",
                "category": "糕餅",
                "area": "中西區",
                "market_address": "臺南市中西區南美里永福路２段５９之１號",
                "pay_list": "信用卡"
            },
            "geometry": {
                "type": "Point",
                "coordinates": [
                    120.200575,
                    22.991772
                ]
            }
        },
        {
            "type": "Feature",
            "properties": {
                "shop": "小桔商行",
                "category": "糕餅",
                "area": "中西區",
                "market_address": "臺南市中西區南廠里保安路１２７號",
                "pay_list": "台灣pay"
            },
            "geometry": {
                "type": "Point",
                "coordinates": [
                    120.194802,
                    22.990556
                ]
            }
        },
        {
            "type": "Feature",
            "properties": {
                "shop": "南房狀元趣味手作實驗工房",
                "category": "糕餅",
                "area": "中西區",
                "market_address": "臺南市中西區赤崁里赤嵌里１鄰中山路７９巷１６號１樓",
                "pay_list": "台灣pay"
            },
            "geometry": {
                "type": "Point",
                "coordinates": [
                    120.207176,
                    22.994327
                ]
            }
        },
        {
            "type": "Feature",
            "properties": {
                "shop": "長生本舖",
                "category": "糕餅",
                "area": "中西區",
                "market_address": "臺南市中西區城隍里北門路１段１１３號１樓",
                "pay_list": "信用卡"
            },
            "geometry": {
                "type": "Point",
                "coordinates": [
                    120.211676,
                    22.994665
                ]
            }
        },
        {
            "type": "Feature",
            "properties": {
                "shop": "福樂國際烘焙坊",
                "category": "糕餅",
                "area": "中西區",
                "market_address": "臺南市中西區南美里忠義路２段１１３號１樓",
                "pay_list": "台灣pay\/信用卡"
            },
            "geometry": {
                "type": "Point",
                "coordinates": [
                    120.203205,
                    22.994167
                ]
            }
        },
        {
            "type": "Feature",
            "properties": {
                "shop": "町之戶工作坊",
                "category": "餐飲\/糕餅",
                "area": "中西區",
                "market_address": "臺南市中西區城隍里民族路２段５７巷１號３樓",
                "pay_list": "歐付寶"
            },
            "geometry": {
                "type": "Point",
                "coordinates": [
                    120.210154,
                    22.993983
                ]
            }
        },
        {
            "type": "Feature",
            "properties": {
                "shop": "橘香合烘焙坊",
                "category": "糕餅",
                "area": "中西區",
                "market_address": "臺南市中西區光賢里和善街１２５巷３４弄４號",
                "pay_list": "街口\/悠遊卡"
            },
            "geometry": {
                "type": "Point",
                "coordinates": [
                    120.191059,
                    23.003634
                ]
            }
        },
        {
            "type": "Feature",
            "properties": {
                "shop": "小草堂",
                "category": "餐飲\/糕餅",
                "area": "中西區",
                "market_address": "臺南市中西區赤嵌里新美街１８９號１樓",
                "pay_list": "街口\/信用卡"
            },
            "geometry": {
                "type": "Point",
                "coordinates": [
                    120.201511,
                    22.998519
                ]
            }
        },
        {
            "type": "Feature",
            "properties": {
                "shop": "拾參馬卡龍烘焙坊",
                "category": "糕餅",
                "area": "中西區",
                "market_address": "臺南市中西區淺草里正興街６３號１樓",
                "pay_list": "LINE Pay Money\/台灣pay\/街口\/iPASS 一卡通"
            },
            "geometry": {
                "type": "Point",
                "coordinates": [
                    120.197194,
                    22.994201
                ]
            }
        },
        {
            "type": "Feature",
            "properties": {
                "shop": "阿吽坊咖啡",
                "category": "餐飲\/糕餅",
                "area": "中西區",
                "market_address": "臺南市中西區南廠里國華街二段７３號",
                "pay_list": "信用卡\/悠遊卡\/街口"
            },
            "geometry": {
                "type": "Point",
                "coordinates": [
                    120.19649,
                    22.98963
                ]
            }
        },
        {
            "type": "Feature",
            "properties": {
                "shop": "鮮爆精緻蝦餅",
                "category": "糕餅",
                "area": "中西區",
                "market_address": "臺南市中西區赤嵌里民族路二段２２６號",
                "pay_list": "台灣pay\/信用卡"
            },
            "geometry": {
                "type": "Point",
                "coordinates": [
                    120.201842,
                    22.99723
                ]
            }
        },
        {
            "type": "Feature",
            "properties": {
                "shop": "阿茂烘焙坊",
                "category": "糕餅",
                "area": "中西區",
                "market_address": "臺南市中西區府前里友愛街２６４號１樓",
                "pay_list": "信用卡\/歐付寶"
            },
            "geometry": {
                "type": "Point",
                "coordinates": [
                    120.195341,
                    22.992401
                ]
            }
        },
        {
            "type": "Feature",
            "properties": {
                "shop": "安堤生烘焙麵包坊",
                "category": "糕餅",
                "area": "中西區",
                "market_address": "臺南市中西區南門里南門路４６－１５號１樓",
                "pay_list": "台灣pay\/信用卡"
            },
            "geometry": {
                "type": "Point",
                "coordinates": [
                    120.20398,
                    22.984856
                ]
            }
        },
        {
            "type": "Feature",
            "properties": {
                "shop": "阿爸的情人商行",
                "category": "糕餅",
                "area": "中西區",
                "market_address": "臺南市中西區永華里府中街１０５號１樓",
                "pay_list": "信用卡"
            },
            "geometry": {
                "type": "Point",
                "coordinates": [
                    120.205933,
                    22.990088
                ]
            }
        },
        {
            "type": "Feature",
            "properties": {
                "shop": "靚遠國際股份有限公司",
                "category": "糕餅",
                "area": "中西區",
                "market_address": "臺南市中西區大涼里中華西路２段１２巷３０號１樓",
                "pay_list": "台灣pay\/信用卡"
            },
            "geometry": {
                "type": "Point",
                "coordinates": [
                    120.187244,
                    22.987248
                ]
            }
        },
        {
            "type": "Feature",
            "properties": {
                "shop": "艾塔菲食品有限公司台南民族門市",
                "category": "糕餅",
                "area": "中西區",
                "market_address": "臺南市中西區民族路２段７２之１號",
                "pay_list": "信用卡"
            },
            "geometry": {
                "type": "Point",
                "coordinates": [
                    120.209438,
                    22.994661
                ]
            }
        },
        {
            "type": "Feature",
            "properties": {
                "shop": "台灣阿信農場股份有限公司台南營業處",
                "category": "餐飲\/糕餅",
                "area": "中西區",
                "market_address": "臺南市中西區永華里０１２鄰南門路５１號１樓",
                "pay_list": "信用卡"
            },
            "geometry": {
                "type": "Point",
                "coordinates": [
                    120.204853,
                    22.990129
                ]
            }
        },
        {
            "type": "Feature",
            "properties": {
                "shop": "小林煎餅股份有限公司台南門市部",
                "category": "糕餅",
                "area": "中西區",
                "market_address": "臺南市中西區南美里中正路８９號１樓",
                "pay_list": "信用卡"
            },
            "geometry": {
                "type": "Point",
                "coordinates": [
                    120.20094,
                    22.992172
                ]
            }
        },
        {
            "type": "Feature",
            "properties": {
                "shop": "三希堂食品有限公司",
                "category": "糕餅",
                "area": "中西區",
                "market_address": "臺南市中西區南美里永福路２段１９０號１樓",
                "pay_list": "台灣pay"
            },
            "geometry": {
                "type": "Point",
                "coordinates": [
                    120.202083,
                    22.995978
                ]
            }
        },
        {
            "type": "Feature",
            "properties": {
                "shop": "馨茂國際有限公司",
                "category": "餐飲\/糕餅",
                "area": "中西區",
                "market_address": "臺南市中西區赤嵌里民族路二段２２０號",
                "pay_list": "信用卡\/悠遊卡"
            },
            "geometry": {
                "type": "Point",
                "coordinates": [
                    120.201958,
                    22.997191
                ]
            }
        },
        {
            "type": "Feature",
            "properties": {
                "shop": "金宏明食品有限公司",
                "category": "餐飲\/糕餅",
                "area": "中西區",
                "market_address": "臺南市中西區青年路２２８號",
                "pay_list": "街口\/信用卡\/台灣pay"
            },
            "geometry": {
                "type": "Point",
                "coordinates": [
                    120.211249,
                    22.991465
                ]
            }
        },
        {
            "type": "Feature",
            "properties": {
                "shop": "米多尼商業有限公司",
                "category": "糕餅",
                "area": "中西區",
                "market_address": "臺南市中西區南廠里永華路１段３６號６樓之１３",
                "pay_list": "悠遊卡"
            },
            "geometry": {
                "type": "Point",
                "coordinates": [
                    120.196208,
                    22.987752
                ]
            }
        },
        {
            "type": "Feature",
            "properties": {
                "shop": "克林姆之屋",
                "category": "糕餅",
                "area": "中西區",
                "market_address": "臺南市中西區南廠里西門路１段７１３號１樓",
                "pay_list": "信用卡"
            },
            "geometry": {
                "type": "Point",
                "coordinates": [
                    120.197194,
                    22.988838
                ]
            }
        },
        {
            "type": "Feature",
            "properties": {
                "shop": "華姸國際有限公司台南忠義店",
                "category": "餐飲\/糕餅",
                "area": "中西區",
                "market_address": "臺南市中西區南美里忠義路２段６７號",
                "pay_list": "信用卡"
            },
            "geometry": {
                "type": "Point",
                "coordinates": [
                    120.202712,
                    22.992221
                ]
            }
        },
        {
            "type": "Feature",
            "properties": {
                "shop": "茗尚堂有限公司",
                "category": "餐飲\/糕餅",
                "area": "中西區",
                "market_address": "臺南市中西區西湖里頂美二街７６巷２２號１樓",
                "pay_list": "台灣pay"
            },
            "geometry": {
                "type": "Point",
                "coordinates": [
                    120.185077,
                    23.00138
                ]
            }
        },
        {
            "type": "Feature",
            "properties": {
                "shop": "蘇格蕾有限公司",
                "category": "糕餅",
                "area": "中西區",
                "market_address": "臺南市中西區赤嵌里慈音街２０號",
                "pay_list": "信用卡"
            },
            "geometry": {
                "type": "Point",
                "coordinates": [
                    120.205928,
                    22.996804
                ]
            }
        },
        {
            "type": "Feature",
            "properties": {
                "shop": "財團法人喜憨兒社會福利基金會生機好鍋台南南門店",
                "category": "糕餅\/餐飲",
                "area": "中西區",
                "market_address": "臺南市中西區郡王里南門路１９１號",
                "pay_list": "悠遊卡\/信用卡\/iPASS 一卡通\/LINE Pay Money"
            },
            "geometry": {
                "type": "Point",
                "coordinates": [
                    120.20428,
                    22.985413
                ]
            }
        },
        {
            "type": "Feature",
            "properties": {
                "shop": "帕莎蒂娜國際有限公司台南官邸分公司",
                "category": "餐飲\/糕餅",
                "area": "中西區",
                "market_address": "臺南市中西區郡王里南門路２３９號",
                "pay_list": "信用卡"
            },
            "geometry": {
                "type": "Point",
                "coordinates": [
                    120.204058,
                    22.983044
                ]
            }
        },
        {
            "type": "Feature",
            "properties": {
                "shop": "豆胖餐飲",
                "category": "糕餅",
                "area": "中西區",
                "market_address": "臺南市中西區民權路２段１７６號",
                "pay_list": "悠遊卡"
            },
            "geometry": {
                "type": "Point",
                "coordinates": [
                    120.202378,
                    22.995304
                ]
            }
        },
        {
            "type": "Feature",
            "properties": {
                "shop": "新葡吉喜餅蛋糕",
                "category": "糕餅",
                "area": "中西區",
                "market_address": "臺南市中西區赤嵌里成功路２５３號",
                "pay_list": "信用卡"
            },
            "geometry": {
                "type": "Point",
                "coordinates": [
                    120.202241,
                    22.999148
                ]
            }
        },
        {
            "type": "Feature",
            "properties": {
                "shop": "喬郁實業股份有限公司",
                "category": "餐飲\/糕餅",
                "area": "中西區",
                "market_address": "臺南市中西區北門路１段４９號１樓",
                "pay_list": "台灣pay\/信用卡"
            },
            "geometry": {
                "type": "Point",
                "coordinates": [
                    120.211401,
                    22.990164
                ]
            }
        },
        {
            "type": "Feature",
            "properties": {
                "shop": "馬可先生第四股份有限公司",
                "category": "糕餅",
                "area": "中西區",
                "market_address": "臺南市中西區南美里中正路７４號１樓",
                "pay_list": "LINE Pay Money\/iPASS 一卡通\/信用卡\/悠遊卡\/台灣pay\/街口"
            },
            "geometry": {
                "type": "Point",
                "coordinates": [
                    120.201276,
                    22.992315
                ]
            }
        },
        {
            "type": "Feature",
            "properties": {
                "shop": "頂津小吃店",
                "category": "餐飲",
                "area": "中西區",
                "market_address": "臺南市中西區法華里大同路１段１８８號１樓",
                "pay_list": "台灣pay\/悠遊卡"
            },
            "geometry": {
                "type": "Point",
                "coordinates": [
                    120.210956,
                    22.983269
                ]
            }
        },
        {
            "type": "Feature",
            "properties": {
                "shop": "微風餐飲店",
                "category": "餐飲",
                "area": "中西區",
                "market_address": "臺南市中西區赤嵌里忠義路２段１７５號１樓",
                "pay_list": "信用卡"
            },
            "geometry": {
                "type": "Point",
                "coordinates": [
                    120.204052,
                    22.996655
                ]
            }
        },
        {
            "type": "Feature",
            "properties": {
                "shop": "吉成蝦仁飯小吃店",
                "category": "餐飲",
                "area": "中西區",
                "market_address": "臺南市中西區南廠里海安路１段１０７號１樓",
                "pay_list": "台灣pay"
            },
            "geometry": {
                "type": "Point",
                "coordinates": [
                    120.195082,
                    22.990212
                ]
            }
        },
        {
            "type": "Feature",
            "properties": {
                "shop": "樺屋冷飲店",
                "category": "餐飲",
                "area": "中西區",
                "market_address": "臺南市中西區南美里民族路２段２８５號",
                "pay_list": "信用卡"
            },
            "geometry": {
                "type": "Point",
                "coordinates": [
                    120.203491,
                    22.996402
                ]
            }
        },
        {
            "type": "Feature",
            "properties": {
                "shop": "風華絕色餐飲店",
                "category": "夜市\/市場攤販\/餐飲",
                "area": "中西區",
                "market_address": "臺南市中西區府前里海安路１段２０９號１樓",
                "pay_list": "台灣pay\/街口"
            },
            "geometry": {
                "type": "Point",
                "coordinates": [
                    120.195813,
                    22.993023
                ]
            }
        },
        {
            "type": "Feature",
            "properties": {
                "shop": "仟丸滬企業社",
                "category": "餐飲",
                "area": "中西區",
                "market_address": "臺南市中西區淺草里正興街９０號１樓",
                "pay_list": "台灣pay"
            },
            "geometry": {
                "type": "Point",
                "coordinates": [
                    120.196977,
                    22.994506
                ]
            }
        },
        {
            "type": "Feature",
            "properties": {
                "shop": "奉茶茶坊",
                "category": "餐飲",
                "area": "中西區",
                "market_address": "臺南市中西區赤嵌里公園路８號",
                "pay_list": "悠遊卡"
            },
            "geometry": {
                "type": "Point",
                "coordinates": [
                    120.205392,
                    22.993618
                ]
            }
        },
        {
            "type": "Feature",
            "properties": {
                "shop": "私之家壽司",
                "category": "餐飲",
                "area": "中西區",
                "market_address": "臺南市中西區城隍里青年路１７８號",
                "pay_list": "台灣pay\/街口"
            },
            "geometry": {
                "type": "Point",
                "coordinates": [
                    120.210218,
                    22.991641
                ]
            }
        },
        {
            "type": "Feature",
            "properties": {
                "shop": "丹尼爾健康餐盒",
                "category": "餐飲",
                "area": "中西區",
                "market_address": "臺南市中西區城隍里青年路２０９號１樓",
                "pay_list": "台灣pay"
            },
            "geometry": {
                "type": "Point",
                "coordinates": [
                    120.211222,
                    22.991727
                ]
            }
        },
        {
            "type": "Feature",
            "properties": {
                "shop": "時刻商行",
                "category": "餐飲",
                "area": "中西區",
                "market_address": "臺南市中西區法華里健康路１段２６號１樓",
                "pay_list": "信用卡"
            },
            "geometry": {
                "type": "Point",
                "coordinates": [
                    120.210955,
                    22.981466
                ]
            }
        },
        {
            "type": "Feature",
            "properties": {
                "shop": "家和魯麵",
                "category": "餐飲",
                "area": "中西區",
                "market_address": "臺南市中西區城隍里民權路一段２０８號１樓",
                "pay_list": "台灣pay"
            },
            "geometry": {
                "type": "Point",
                "coordinates": [
                    120.207731,
                    22.992248
                ]
            }
        },
        {
            "type": "Feature",
            "properties": {
                "shop": "五分鐘找餐商行",
                "category": "餐飲",
                "area": "中西區",
                "market_address": "臺南市中西區藥王里民生路２段３４０號１樓",
                "pay_list": "街口"
            },
            "geometry": {
                "type": "Point",
                "coordinates": [
                    120.189966,
                    22.99754
                ]
            }
        },
        {
            "type": "Feature",
            "properties": {
                "shop": "阿杰溫體牛肉湯",
                "category": "餐飲",
                "area": "中西區",
                "market_address": "臺南市中西區五條港里西門路二段４２１號",
                "pay_list": "街口"
            },
            "geometry": {
                "type": "Point",
                "coordinates": [
                    120.200811,
                    22.999258
                ]
            }
        },
        {
            "type": "Feature",
            "properties": {
                "shop": "玉昇工作室",
                "category": "餐飲",
                "area": "中西區",
                "market_address": "臺南市中西區五條港里西門路２段３６５巷１號",
                "pay_list": "台灣pay\/街口"
            },
            "geometry": {
                "type": "Point",
                "coordinates": [
                    120.199989,
                    22.998166
                ]
            }
        },
        {
            "type": "Feature",
            "properties": {
                "shop": "時方商行",
                "category": "餐飲",
                "area": "中西區",
                "market_address": "臺南市中西區府前里府前路２段２５號１樓",
                "pay_list": "台灣pay"
            },
            "geometry": {
                "type": "Point",
                "coordinates": [
                    120.196928,
                    22.990577
                ]
            }
        },
        {
            "type": "Feature",
            "properties": {
                "shop": "小豆皮飲食企業社",
                "category": "餐飲",
                "area": "中西區",
                "market_address": "臺南市中西區赤嵌里忠義路２段１８３號１樓",
                "pay_list": "信用卡"
            },
            "geometry": {
                "type": "Point",
                "coordinates": [
                    120.20412,
                    22.996839
                ]
            }
        },
        {
            "type": "Feature",
            "properties": {
                "shop": "碳嘎複合餐廳",
                "category": "餐飲",
                "area": "中西區",
                "market_address": "臺南市中西區大涼里中華西路２段４６號１樓",
                "pay_list": "信用卡"
            },
            "geometry": {
                "type": "Point",
                "coordinates": [
                    120.187049,
                    22.993234
                ]
            }
        },
        {
            "type": "Feature",
            "properties": {
                "shop": "好芯情餐飲企業社",
                "category": "餐飲",
                "area": "中西區",
                "market_address": "臺南市中西區西湖里民權路４段４０號１樓",
                "pay_list": "街口"
            },
            "geometry": {
                "type": "Point",
                "coordinates": [
                    120.186121,
                    22.999126
                ]
            }
        },
        {
            "type": "Feature",
            "properties": {
                "shop": "喬立茶坊",
                "category": "餐飲",
                "area": "中西區",
                "market_address": "臺南市中西區南門里樹林街２段３１８號１樓",
                "pay_list": "LINE Pay Money\/iPASS 一卡通\/icash pay\/信用卡\/悠遊卡\/街口"
            },
            "geometry": {
                "type": "Point",
                "coordinates": [
                    120.201033,
                    22.986393
                ]
            }
        },
        {
            "type": "Feature",
            "properties": {
                "shop": "趐夫餐廚",
                "category": "餐飲",
                "area": "中西區",
                "market_address": "臺南市中西區赤嵌里西門路２段３３６號１樓",
                "pay_list": "台灣pay"
            },
            "geometry": {
                "type": "Point",
                "coordinates": [
                    120.200619,
                    22.997779
                ]
            }
        },
        {
            "type": "Feature",
            "properties": {
                "shop": "赤崁禧樓文創事業",
                "category": "餐飲",
                "area": "中西區",
                "market_address": "臺南市中西區赤嵌里西門路２段３７２巷１０號１樓",
                "pay_list": "信用卡"
            },
            "geometry": {
                "type": "Point",
                "coordinates": [
                    120.200985,
                    22.998083
                ]
            }
        },
        {
            "type": "Feature",
            "properties": {
                "shop": "元智壽司店",
                "category": "餐飲",
                "area": "中西區",
                "market_address": "臺南市中西區赤嵌里赤崁東街７８號１樓",
                "pay_list": "台灣pay"
            },
            "geometry": {
                "type": "Point",
                "coordinates": [
                    120.203532,
                    22.997491
                ]
            }
        },
        {
            "type": "Feature",
            "properties": {
                "shop": "銀河宮飲品店",
                "category": "餐飲",
                "area": "中西區",
                "market_address": "臺南市中西區南美里民權路２段２０５號１樓",
                "pay_list": "信用卡"
            },
            "geometry": {
                "type": "Point",
                "coordinates": [
                    120.202128,
                    22.995204
                ]
            }
        },
        {
            "type": "Feature",
            "properties": {
                "shop": "向陽茶飲店",
                "category": "餐飲",
                "area": "中西區",
                "market_address": "臺南市中西區南美里西門路２段１０８號１樓",
                "pay_list": "iPASS 一卡通\/信用卡\/悠遊付\/icash pay"
            },
            "geometry": {
                "type": "Point",
                "coordinates": [
                    120.198876,
                    22.993075
                ]
            }
        },
        {
            "type": "Feature",
            "properties": {
                "shop": "潮碳吉食堂",
                "category": "餐飲",
                "area": "中西區",
                "market_address": "臺南市中西區赤嵌里民族路２段１１２之３號",
                "pay_list": "台灣pay\/信用卡"
            },
            "geometry": {
                "type": "Point",
                "coordinates": [
                    120.205629,
                    22.995926
                ]
            }
        },
        {
            "type": "Feature",
            "properties": {
                "shop": "宏宏商行",
                "category": "餐飲",
                "area": "中西區",
                "market_address": "臺南市中西區淺草里民生路２段５１號１樓",
                "pay_list": "街口"
            },
            "geometry": {
                "type": "Point",
                "coordinates": [
                    120.197737,
                    22.994793
                ]
            }
        },
        {
            "type": "Feature",
            "properties": {
                "shop": "春宮居酒屋",
                "category": "餐飲",
                "area": "中西區",
                "market_address": "臺南市中西區郡王里建業街７２號１樓",
                "pay_list": "台灣pay\/信用卡"
            },
            "geometry": {
                "type": "Point",
                "coordinates": [
                    120.205074,
                    22.987926
                ]
            }
        },
        {
            "type": "Feature",
            "properties": {
                "shop": "鄭家養生飲坊",
                "category": "餐飲",
                "area": "中西區",
                "market_address": "臺南市中西區南美里忠義路２段１４１號",
                "pay_list": "台灣pay\/信用卡"
            },
            "geometry": {
                "type": "Point",
                "coordinates": [
                    120.203385,
                    22.994743
                ]
            }
        },
        {
            "type": "Feature",
            "properties": {
                "shop": "源醴酣西班牙餐酒館",
                "category": "餐飲",
                "area": "中西區",
                "market_address": "臺南市中西區赤嵌里忠義路２段２４８號１樓",
                "pay_list": "台灣pay"
            },
            "geometry": {
                "type": "Point",
                "coordinates": [
                    120.204848,
                    22.997971
                ]
            }
        },
        {
            "type": "Feature",
            "properties": {
                "shop": "汐谷商行",
                "category": "餐飲",
                "area": "中西區",
                "market_address": "臺南市中西區小西門里府前路１段４１３號",
                "pay_list": "台灣pay"
            },
            "geometry": {
                "type": "Point",
                "coordinates": [
                    120.198414,
                    22.990068
                ]
            }
        },
        {
            "type": "Feature",
            "properties": {
                "shop": "忠義京享小吃店",
                "category": "餐飲",
                "area": "中西區",
                "market_address": "臺南市中西區南美里忠義路２段７５號１樓",
                "pay_list": "台灣pay"
            },
            "geometry": {
                "type": "Point",
                "coordinates": [
                    120.202763,
                    22.992464
                ]
            }
        },
        {
            "type": "Feature",
            "properties": {
                "shop": "郭記食店",
                "category": "餐飲",
                "area": "中西區",
                "market_address": "臺南市中西區城隍里青年路５號１樓",
                "pay_list": "Pi 拍錢包"
            },
            "geometry": {
                "type": "Point",
                "coordinates": [
                    120.205663,
                    22.992509
                ]
            }
        },
        {
            "type": "Feature",
            "properties": {
                "shop": "新悅商行安平店",
                "category": "餐飲",
                "area": "中西區",
                "market_address": "臺南市中西區大涼里中華西路２段１６號２樓",
                "pay_list": "信用卡"
            },
            "geometry": {
                "type": "Point",
                "coordinates": [
                    120.187181,
                    22.987915
                ]
            }
        },
        {
            "type": "Feature",
            "properties": {
                "shop": "浪島飲食店",
                "category": "餐飲",
                "area": "中西區",
                "market_address": "臺南市中西區赤嵌里西門路２段３００巷２９號１樓",
                "pay_list": "台灣pay"
            },