{
    "type": "FeatureCollection",
    "features": [
        {
            "type": "Feature",
            "properties": {
                "shop": "賓寶麵包店",
                "category": "糕餅",
                "area": "七股區",
                "market_address": "臺南市七股區三股里３０之５號",
                "pay_list": "LINE Pay Money"
            },
            "geometry": {
                "type": "Point",
                "coordinates": [
                    120.117103,
                    23.098936
                ]
            }
        },
        {
            "type": "Feature",
            "properties": {
                "shop": "和明織品文化館",
                "category": "觀光工廠",
                "area": "七股區",
                "market_address": "台南市七股區大埕里大埕189號",
                "pay_list": "信用卡"
            },
            "geometry": {
                "type": "Point",
                "coordinates": [
                    120.145405,
                    23.146321
                ]
            }
        },
        {
            "type": "Feature",
            "properties": {
                "shop": "琦程實業有限公司",
                "category": "餐飲",
                "area": "七股區",
                "market_address": "臺南市七股區竹橋里竹橋６６號１樓",
                "pay_list": "LINE Pay Money"
            },
            "geometry": {
                "type": "Point",
                "coordinates": [
                    120.161311,
                    23.101977
                ]
            }
        },
        {
            "type": "Feature",
            "properties": {
                "shop": "府城小巴行動餐車",
                "category": "餐飲\/夜市\/市場攤販",
                "area": "下營區",
                "market_address": "臺南市下營區開化里７３號",
                "pay_list": "台灣pay"
            },
            "geometry": {
                "type": "Point",
                "coordinates": [
                    120.273191,
                    23.214115
                ]
            }
        },
        {
            "type": "Feature",
            "properties": {
                "shop": "下營公有零售市場-青果",
                "category": "夜市\/市場攤販",
                "area": "下營區",
                "market_address": "臺南市下營區中山路二段39號",
                "pay_list": "信用卡"
            },
            "geometry": {
                "type": "Point",
                "coordinates": [
                    120.261326,
                    23.233871
                ]
            }
        },
        {
            "type": "Feature",
            "properties": {
                "shop": "下營公有零售市場-百貨",
                "category": "夜市\/市場攤販",
                "area": "下營區",
                "market_address": "臺南市下營區中山路二段39號",
                "pay_list": "信用卡"
            },
            "geometry": {
                "type": "Point",
                "coordinates": [
                    120.261326,
                    23.233871
                ]
            }
        },
        {
            "type": "Feature",
            "properties": {
                "shop": "亞諾囍餅蛋糕",
                "category": "糕餅",
                "area": "下營區",
                "market_address": "臺南市下營區下營里中正南路９號１樓",
                "pay_list": "台灣pay\/信用卡"
            },
            "geometry": {
                "type": "Point",
                "coordinates": [
                    120.262919,
                    23.234922
                ]
            }
        },
        {
            "type": "Feature",
            "properties": {
                "shop": "震泰商行",
                "category": "餐飲",
                "area": "下營區",
                "market_address": "臺南市下營區下營里７鄰中山路１段１６１號１樓",
                "pay_list": "台灣pay\/信用卡\/LINE Pay Money"
            },
            "geometry": {
                "type": "Point",
                "coordinates": [
                    120.264967,
                    23.236118
                ]
            }
        },
        {
            "type": "Feature",
            "properties": {
                "shop": "阿婆米苔目老店",
                "category": "餐飲",
                "area": "下營區",
                "market_address": "臺南市下營區營前里００５鄰中山路二段８５號１樓",
                "pay_list": "台灣pay"
            },
            "geometry": {
                "type": "Point",
                "coordinates": [
                    120.261961,
                    23.232831
                ]
            }
        },
        {
            "type": "Feature",
            "properties": {
                "shop": "洲子鵝湖餐飲事業有限公司門市部",
                "category": "餐飲",
                "area": "下營區",
                "market_address": "臺南市下營區新興里中興南路２１號",
                "pay_list": "台灣pay\/信用卡\/悠遊卡\/街口\/LINE Pay Money\/歐付寶"
            },
            "geometry": {
                "type": "Point",
                "coordinates": [
                    120.274476,
                    23.239971
                ]
            }
        },
        {
            "type": "Feature",
            "properties": {
                "shop": "水莊茶行",
                "category": "餐飲",
                "area": "下營區",
                "market_address": "臺南市下營區營前里中山路２段４３號１樓",
                "pay_list": "LINE Pay Money"
            },
            "geometry": {
                "type": "Point",
                "coordinates": [
                    120.261386,
                    23.233712
                ]
            }
        },
        {
            "type": "Feature",
            "properties": {
                "shop": "文太商行",
                "category": "餐飲",
                "area": "下營區",
                "market_address": "臺南市下營區下營里中山路一段８０號１樓",
                "pay_list": "LINE Pay Money"
            },
            "geometry": {
                "type": "Point",
                "coordinates": [
                    120.262906,
                    23.235166
                ]
            }
        },
        {
            "type": "Feature",
            "properties": {
                "shop": "慧縉小吃",
                "category": "餐飲",
                "area": "下營區",
                "market_address": "臺南市下營區紅甲里紅毛厝７４―３１號１樓",
                "pay_list": "台灣pay"
            },
            "geometry": {
                "type": "Point",
                "coordinates": [
                    120.26831729604,
                    23.246419896327
                ]
            }
        },
        {
            "type": "Feature",
            "properties": {
                "shop": "府城小巴行動餐車",
                "category": "餐飲\/夜市\/市場攤販",
                "area": "下營區",
                "market_address": "臺南市下營區開化里７３號",
                "pay_list": "台灣pay"
            },
            "geometry": {
                "type": "Point",
                "coordinates": [
                    120.273191,
                    23.214115
                ]
            }
        },
        {
            "type": "Feature",
            "properties": {
                "shop": "吉宸生技企業有限公司",
                "category": "餐飲",
                "area": "下營區",
                "market_address": "臺南市下營區營前里中山路２段１５９號１樓",
                "pay_list": "台灣pay\/街口\/LINE Pay Money"
            },
            "geometry": {
                "type": "Point",
                "coordinates": [
                    120.263124,
                    23.230798
                ]
            }
        },
        {
            "type": "Feature",
            "properties": {
                "shop": "億萱茶行",
                "category": "餐飲",
                "area": "下營區",
                "market_address": "臺南市下營區下營里中山路１段７６號１樓",
                "pay_list": "台灣pay\/悠遊付\/悠遊卡\/街口\/LINE Pay Money"
            },
            "geometry": {
                "type": "Point",
                "coordinates": [
                    120.262635,
                    23.235091
                ]
            }
        },
        {
            "type": "Feature",
            "properties": {
                "shop": "陳大民餐飲",
                "category": "餐飲\/夜市\/市場攤販",
                "area": "中西區",
                "market_address": "臺南市中西區淺草里海安路２段６９號",
                "pay_list": "LINE Pay Money"
            },
            "geometry": {
                "type": "Point",
                "coordinates": [
                    120.196231,
                    22.994679
                ]
            }
        },
        {
            "type": "Feature",
            "properties": {
                "shop": "陳佳慧",
                "category": "夜市\/市場攤販",
                "area": "中西區",
                "market_address": "臺南市中西區國華街２段１６４號前面",
                "pay_list": "LINE Pay Money"
            },
            "geometry": {
                "type": "Point",
                "coordinates": [
                    120.197117,
                    22.991629
                ]
            }
        },
        {
            "type": "Feature",
            "properties": {
                "shop": "西門淺草公有零售市場-C007",
                "category": "夜市\/市場攤販",
                "area": "中西區",
                "market_address": "臺南市中西區國華街3段26號",
                "pay_list": "LINE Pay Money"
            },
            "geometry": {
                "type": "Point",
                "coordinates": [
                    120.19766562535,
                    22.99382605841
                ]
            }
        },
        {
            "type": "Feature",
            "properties": {
                "shop": "西門淺草公有零售市場-C002",
                "category": "夜市\/市場攤販",
                "area": "中西區",
                "market_address": "臺南市中西區國華街3段26號",
                "pay_list": "信用卡"
            },
            "geometry": {
                "type": "Point",
                "coordinates": [
                    120.19766562535,
                    22.99382605841
                ]
            }
        },
        {
            "type": "Feature",
            "properties": {
                "shop": "西門淺草公有零售市場-B038",
                "category": "夜市\/市場攤販",
                "area": "中西區",
                "market_address": "臺南市中西區國華街3段26號",
                "pay_list": "LINE Pay Money"
            },
            "geometry": {
                "type": "Point",
                "coordinates": [
                    120.19766562535,
                    22.99382605841
                ]
            }
        },
        {
            "type": "Feature",
            "properties": {
                "shop": "西門淺草公有零售市場-B033",
                "category": "夜市\/市場攤販",
                "area": "中西區",
                "market_address": "臺南市中西區國華街3段26號",
                "pay_list": "信用卡"
            },
            "geometry": {
                "type": "Point",
                "coordinates": [
                    120.19766562535,
                    22.99382605841
                ]
            }
        },
        {
            "type": "Feature",
            "properties": {
                "shop": "西門淺草公有零售市場-B023",
                "category": "夜市\/市場攤販",
                "area": "中西區",
                "market_address": "臺南市中西區國華街3段26號",
                "pay_list": "信用卡"
            },
            "geometry": {
                "type": "Point",
                "coordinates": [
                    120.19766562535,
                    22.99382605841
                ]
            }
        },
        {
            "type": "Feature",
            "properties": {
                "shop": "西門淺草公有零售市場-B004",
                "category": "夜市\/市場攤販",
                "area": "中西區",
                "market_address": "臺南市中西區國華街3段26號",
                "pay_list": "信用卡"
            },
            "geometry": {
                "type": "Point",
                "coordinates": [
                    120.19766562535,
                    22.99382605841
                ]
            }
        },
        {
            "type": "Feature",
            "properties": {
                "shop": "西門淺草公有零售市場-A008",
                "category": "夜市\/市場攤販",
                "area": "中西區",
                "market_address": "臺南市中西區國華街3段26號",
                "pay_list": "台灣pay"
            },
            "geometry": {
                "type": "Point",
                "coordinates": [
                    120.19766562535,
                    22.99382605841
                ]
            }
        },
        {
            "type": "Feature",
            "properties": {
                "shop": "西門淺草公有零售市場-A006",
                "category": "夜市\/市場攤販",
                "area": "中西區",
                "market_address": "臺南市中西區國華街3段26號",
                "pay_list": "街口"
            },
            "geometry": {
                "type": "Point",
                "coordinates": [
                    120.19766562535,
                    22.99382605841
                ]
            }
        },
        {
            "type": "Feature",
            "properties": {
                "shop": "西門淺草公有零售市場-A002",
                "category": "夜市\/市場攤販",
                "area": "中西區",
                "market_address": "臺南市中西區國華街3段26號",
                "pay_list": "LINE Pay Money"
            },
            "geometry": {
                "type": "Point",
                "coordinates": [
                    120.19766562535,
                    22.99382605841
                ]
            }
        },
        {
            "type": "Feature",
            "properties": {
                "shop": "西門公有零售市場-300",
                "category": "夜市\/市場攤販",
                "area": "中西區",
                "market_address": "台南市中西區西門路2段177號",
                "pay_list": "街口"
            },
            "geometry": {
                "type": "Point",
                "coordinates": [
                    120.19923809217,
                    22.994180771447
                ]
            }
        },
        {
            "type": "Feature",
            "properties": {
                "shop": "西門公有零售市場-300",
                "category": "夜市\/市場攤販",
                "area": "中西區",
                "market_address": "台南市中西區西門路2段177號",
                "pay_list": "街口"
            },
            "geometry": {
                "type": "Point",
                "coordinates": [
                    120.19923809217,
                    22.994180771447
                ]
            }
        },
        {
            "type": "Feature",
            "properties": {
                "shop": "西門公有零售市場-291",
                "category": "夜市\/市場攤販",
                "area": "中西區",
                "market_address": "台南市中西區西門路2段177號",
                "pay_list": "街口"
            },
            "geometry": {
                "type": "Point",
                "coordinates": [
                    120.19923809217,
                    22.994180771447
                ]
            }
        },
        {
            "type": "Feature",
            "properties": {
                "shop": "西門公有零售市場-291",
                "category": "夜市\/市場攤販",
                "area": "中西區",
                "market_address": "台南市中西區西門路2段177號",
                "pay_list": "街口"
            },
            "geometry": {
                "type": "Point",
                "coordinates": [
                    120.19923809217,
                    22.994180771447
                ]
            }
        },
        {
            "type": "Feature",
            "properties": {
                "shop": "西門公有零售市場-231",
                "category": "夜市\/市場攤販",
                "area": "中西區",
                "market_address": "台南市中西區西門路2段177號",
                "pay_list": "信用卡"
            },
            "geometry": {
                "type": "Point",
                "coordinates": [
                    120.19923809217,
                    22.994180771447
                ]
            }
        },
        {
            "type": "Feature",
            "properties": {
                "shop": "西門公有零售市場-231",
                "category": "夜市\/市場攤販",
                "area": "中西區",
                "market_address": "台南市中西區西門路2段177號",
                "pay_list": "信用卡"
            },
            "geometry": {
                "type": "Point",
                "coordinates": [
                    120.19923809217,
                    22.994180771447
                ]
            }
        },
        {
            "type": "Feature",
            "properties": {
                "shop": "西門公有零售市場-209",
                "category": "夜市\/市場攤販",
                "area": "中西區",
                "market_address": "台南市中西區西門路2段177號",
                "pay_list": "信用卡"
            },
            "geometry": {
                "type": "Point",
                "coordinates": [
                    120.19923809217,
                    22.994180771447
                ]
            }
        },
        {
            "type": "Feature",
            "properties": {
                "shop": "芙瑞實業",
                "category": "餐飲\/夜市\/市場攤販",
                "area": "中西區",
                "market_address": "臺南市中西區南廠里大仁街７０號１樓",
                "pay_list": "LINE Pay Money"
            },
            "geometry": {
                "type": "Point",
                "coordinates": [
                    120.193,
                    22.990645
                ]
            }
        },
        {
            "type": "Feature",
            "properties": {
                "shop": "美味求真股份有限公司－鷲嶺營業處",
                "category": "夜市\/市場攤販",
                "area": "中西區",
                "market_address": "臺南市中西區赤嵌里忠義路二段８４巷１８號",
                "pay_list": "信用卡\/街口\/LINE Pay Money"
            },
            "geometry": {
                "type": "Point",
                "coordinates": [
                    120.20411501648,
                    22.993748062123
                ]
            }
        },
        {
            "type": "Feature",
            "properties": {
                "shop": "紅中發財煎餅店",
                "category": "夜市\/市場攤販",
                "area": "中西區",
                "market_address": "臺南市中西區府前里國華街２段１４０號１樓",
                "pay_list": "LINE Pay Money\/街口"
            },
            "geometry": {
                "type": "Point",
                "coordinates": [
                    120.19695659925,
                    22.991009311037
                ]
            }
        },
        {
            "type": "Feature",
            "properties": {
                "shop": "第一小康公有零售市場-22",
                "category": "夜市\/市場攤販",
                "area": "中西區",
                "market_address": "臺南市中西區文賢路197號",
                "pay_list": "街口"
            },
            "geometry": {
                "type": "Point",
                "coordinates": [
                    120.193503,
                    23.003518
                ]
            }
        },
        {
            "type": "Feature",
            "properties": {
                "shop": "第一小康公有零售市場-10",
                "category": "夜市\/市場攤販",
                "area": "中西區",
                "market_address": "臺南市中西區文賢路197號",
                "pay_list": "街口"
            },
            "geometry": {
                "type": "Point",
                "coordinates": [
                    120.193503,
                    23.003518
                ]
            }
        },
        {
            "type": "Feature",
            "properties": {
                "shop": "第一小康公有零售市場-1",
                "category": "夜市\/市場攤販",
                "area": "中西區",
                "market_address": "臺南市中西區文賢路197號",
                "pay_list": "街口"
            },
            "geometry": {
                "type": "Point",
                "coordinates": [
                    120.193503,
                    23.003518
                ]
            }
        },
        {
            "type": "Feature",
            "properties": {
                "shop": "第一小康公有零售市場-0048",
                "category": "夜市\/市場攤販",
                "area": "中西區",
                "market_address": "臺南市中西區文賢路197號",
                "pay_list": "信用卡"
            },
            "geometry": {
                "type": "Point",
                "coordinates": [
                    120.193503,
                    23.003518
                ]
            }
        },
        {
            "type": "Feature",
            "properties": {
                "shop": "第一小康公有零售市場-0022",
                "category": "夜市\/市場攤販",
                "area": "中西區",
                "market_address": "臺南市中西區文賢路197號",
                "pay_list": "街口"
            },
            "geometry": {
                "type": "Point",
                "coordinates": [
                    120.193503,
                    23.003518
                ]
            }
        },
        {
            "type": "Feature",
            "properties": {
                "shop": "第一小康公有零售市場-0010",
                "category": "夜市\/市場攤販",
                "area": "中西區",
                "market_address": "臺南市中西區文賢路197號",
                "pay_list": "街口"
            },
            "geometry": {
                "type": "Point",
                "coordinates": [
                    120.193503,
                    23.003518
                ]
            }
        },
        {
            "type": "Feature",
            "properties": {
                "shop": "第一小康公有零售市場-0001",
                "category": "夜市\/市場攤販",
                "area": "中西區",
                "market_address": "臺南市中西區文賢路197號",
                "pay_list": "街口"
            },
            "geometry": {
                "type": "Point",
                "coordinates": [
                    120.193503,
                    23.003518
                ]
            }
        },
        {
            "type": "Feature",
            "properties": {
                "shop": "王家庄狀元粿",
                "category": "餐飲\/夜市\/市場攤販",
                "area": "中西區",
                "market_address": "臺南市中西區淺草里正興街６４號１樓",
                "pay_list": "LINE Pay Money"
            },
            "geometry": {
                "type": "Point",
                "coordinates": [
                    120.197575,
                    22.994385
                ]
            }
        },
        {
            "type": "Feature",
            "properties": {
                "shop": "沙卡里巴公有零售市場-226",
                "category": "夜市\/市場攤販",
                "area": "中西區",
                "market_address": "臺南市友愛街206巷6號",
                "pay_list": "信用卡"
            },
            "geometry": {
                "type": "Point",
                "coordinates": [
                    120.19647935531,
                    22.992641163342
                ]
            }
        },
        {
            "type": "Feature",
            "properties": {
                "shop": "沙卡里巴公有零售市場-226",
                "category": "夜市\/市場攤販",
                "area": "中西區",
                "market_address": "臺南市友愛街206巷6號",
                "pay_list": "信用卡"
            },
            "geometry": {
                "type": "Point",
                "coordinates": [
                    120.19647935531,
                    22.992641163342
                ]
            }
        },
        {
            "type": "Feature",
            "properties": {
                "shop": "沙卡里巴公有零售市場-222",
                "category": "夜市\/市場攤販",
                "area": "中西區",
                "market_address": "臺南市友愛街206巷6號",
                "pay_list": "信用卡"
            },
            "geometry": {
                "type": "Point",
                "coordinates": [
                    120.19647935531,
                    22.992641163342
                ]
            }
        },
        {
            "type": "Feature",
            "properties": {
                "shop": "沙卡里巴公有零售市場-180",
                "category": "夜市\/市場攤販",
                "area": "中西區",
                "market_address": "臺南市友愛街206巷6號",
                "pay_list": "信用卡"
            },
            "geometry": {
                "type": "Point",
                "coordinates": [
                    120.19647935531,
                    22.992641163342
                ]
            }
        },
        {
            "type": "Feature",
            "properties": {
                "shop": "沙卡里巴公有零售市場-180",
                "category": "夜市\/市場攤販",
                "area": "中西區",
                "market_address": "臺南市友愛街206巷6號",
                "pay_list": "信用卡"
            },
            "geometry": {
                "type": "Point",
                "coordinates": [
                    120.19647935531,
                    22.992641163342
                ]
            }
        },
        {
            "type": "Feature",
            "properties": {
                "shop": "沙卡里巴公有零售市場-170",
                "category": "夜市\/市場攤販",
                "area": "中西區",
                "market_address": "臺南市友愛街206巷6號",
                "pay_list": "台灣pay\/街口"
            },
            "geometry": {
                "type": "Point",
                "coordinates": [
                    120.19647935531,
                    22.992641163342
                ]
            }
        },
        {
            "type": "Feature",
            "properties": {
                "shop": "沙卡里巴公有零售市場-170",
                "category": "夜市\/市場攤販",
                "area": "中西區",
                "market_address": "臺南市友愛街206巷6號",
                "pay_list": "台灣pay\/街口"
            },
            "geometry": {
                "type": "Point",
                "coordinates": [
                    120.19647935531,
                    22.992641163342
                ]
            }
        },
        {
            "type": "Feature",
            "properties": {
                "shop": "沙卡里巴公有零售市場-169",
                "category": "夜市\/市場攤販",
                "area": "中西區",
                "market_address": "臺南市友愛街206巷6號",
                "pay_list": "台灣Pay\/街口"
            },
            "geometry": {
                "type": "Point",
                "coordinates": [
                    120.19647935531,
                    22.992641163342
                ]
            }
        },
        {
            "type": "Feature",
            "properties": {
                "shop": "沙卡里巴公有零售市場-169",
                "category": "夜市\/市場攤販",
                "area": "中西區",
                "market_address": "臺南市友愛街206巷6號",
                "pay_list": "台灣pay\/街口"
            },
            "geometry": {
                "type": "Point",
                "coordinates": [
                    120.19647935531,
                    22.992641163342
                ]
            }
        },
        {
            "type": "Feature",
            "properties": {
                "shop": "沙卡里巴公有零售市場-168",
                "category": "夜市\/市場攤販",
                "area": "中西區",
                "market_address": "臺南市友愛街206巷6號",
                "pay_list": "台灣pay\/街口"
            },
            "geometry": {
                "type": "Point",
                "coordinates": [
                    120.19647935531,
                    22.992641163342
                ]
            }
        },
        {
            "type": "Feature",
            "properties": {
                "shop": "沙卡里巴公有零售市場-168",
                "category": "夜市\/市場攤販",
                "area": "中西區",
                "market_address": "臺南市友愛街206巷6號",
                "pay_list": "台灣pay\/街口"
            },
            "geometry": {
                "type": "Point",
                "coordinates": [
                    120.19647935531,
                    22.992641163342
                ]
            }
        },
        {
            "type": "Feature",
            "properties": {
                "shop": "沙卡里巴公有零售市場-164",
                "category": "夜市\/市場攤販",
                "area": "中西區",
                "market_address": "臺南市友愛街206巷6號",
                "pay_list": "台灣pay\/街口"
            },
            "geometry": {
                "type": "Point",
                "coordinates": [
                    120.19647935531,
                    22.992641163342
                ]
            }
        },
        {
            "type": "Feature",
            "properties": {
                "shop": "沙卡里巴公有零售市場-164",
                "category": "夜市\/市場攤販",
                "area": "中西區",
                "market_address": "臺南市友愛街206巷6號",
                "pay_list": "台灣pay\/街口"
            },
            "geometry": {
                "type": "Point",
                "coordinates": [
                    120.19647935531,
                    22.992641163342
                ]
            }
        },
        {
            "type": "Feature",
            "properties": {
                "shop": "永樂公有零售市場-199",
                "category": "夜市\/市場攤販",
                "area": "中西區",
                "market_address": "台南市國華街3段1234-234號",
                "pay_list": "信用卡"
            },
            "geometry": {
                "type": "Point",
                "coordinates": [
                    120.19984293439,
                    22.999972046938
                ]
            }
        },
        {
            "type": "Feature",
            "properties": {
                "shop": "永樂公有零售市場-103",
                "category": "夜市\/市場攤販",
                "area": "中西區",
                "market_address": "台南市國華街3段1234-234號",
                "pay_list": "LINE Pay Money"
            },
            "geometry": {
                "type": "Point",
                "coordinates": [
                    120.19984293439,
                    22.999972046938
                ]
            }
        },
        {
            "type": "Feature",
            "properties": {
                "shop": "永樂公有零售市場-103",
                "category": "夜市\/市場攤販",
                "area": "中西區",
                "market_address": "台南市國華街3段1234-234號",
                "pay_list": "LINE Pay Money"
            },
            "geometry": {
                "type": "Point",
                "coordinates": [
                    120.19984293439,
                    22.999972046938
                ]
            }
        },
        {
            "type": "Feature",
            "properties": {
                "shop": "永樂公有零售市場-0038",
                "category": "夜市\/市場攤販",
                "area": "中西區",
                "market_address": "台南市國華街3段1234-234號",
                "pay_list": "LINE Pay Money"
            },
            "geometry": {
                "type": "Point",
                "coordinates": [
                    120.19984293439,
                    22.999972046938
                ]
            }
        },
        {
            "type": "Feature",
            "properties": {
                "shop": "永樂公有零售市場-0038",
                "category": "夜市\/市場攤販",
                "area": "中西區",
                "market_address": "台南市國華街3段1234-234號",
                "pay_list": "LINE Pay Money"
            },
            "geometry": {
                "type": "Point",
                "coordinates": [
                    120.19984293439,
                    22.999972046938
                ]
            }
        },
        {
            "type": "Feature",
            "properties": {
                "shop": "永樂公有零售市場-0037",
                "category": "夜市\/市場攤販",
                "area": "中西區",
                "market_address": "台南市國華街3段1234-234號",
                "pay_list": "LINE Pay Money"
            },
            "geometry": {
                "type": "Point",
                "coordinates": [
                    120.19984293439,
                    22.999972046938
                ]
            }
        },
        {
            "type": "Feature",
            "properties": {
                "shop": "永樂公有零售市場-0037",
                "category": "夜市\/市場攤販",
                "area": "中西區",
                "market_address": "台南市國華街3段1234-234號",
                "pay_list": "LINE Pay Money"
            },
            "geometry": {
                "type": "Point",
                "coordinates": [
                    120.19984293439,
                    22.999972046938
                ]
            }
        },
        {
            "type": "Feature",
            "properties": {
                "shop": "水仙宮公有零售市場-0145-1",
                "category": "夜市\/市場攤販",
                "area": "中西區",
                "market_address": "臺南市中西區海安路2段230號",
                "pay_list": "信用卡"
            },
            "geometry": {
                "type": "Point",
                "coordinates": [
                    120.197483,
                    22.996967
                ]
            }
        },
        {
            "type": "Feature",
            "properties": {
                "shop": "東菜市公有零售市場-0302",
                "category": "夜市\/市場攤販",
                "area": "中西區",
                "market_address": "台南市中西區青年路164巷26號",
                "pay_list": "台灣pay"
            },
            "geometry": {
                "type": "Point",
                "coordinates": [
                    120.20999273256,
                    22.991256356067
                ]
            }
        },
        {
            "type": "Feature",
            "properties": {
                "shop": "東菜市公有零售市場-0288",
                "category": "夜市\/市場攤販",
                "area": "中西區",
                "market_address": "台南市中西區青年路164巷26號",
                "pay_list": "街口"
            },
            "geometry": {
                "type": "Point",
                "coordinates": [
                    120.20999273256,
                    22.991256356067
                ]
            }
        },
        {
            "type": "Feature",
            "properties": {
                "shop": "東菜市公有零售市場-0288",
                "category": "夜市\/市場攤販",
                "area": "中西區",
                "market_address": "台南市中西區青年路164巷26號",
                "pay_list": "街口"
            },
            "geometry": {
                "type": "Point",
                "coordinates": [
                    120.20999273256,
                    22.991256356067
                ]
            }
        },
        {
            "type": "Feature",
            "properties": {
                "shop": "東菜市公有零售市場-0278",
                "category": "夜市\/市場攤販",
                "area": "中西區",
                "market_address": "台南市中西區青年路164巷26號",
                "pay_list": "街口"
            },
            "geometry": {
                "type": "Point",
                "coordinates": [
                    120.20999273256,
                    22.991256356067
                ]
            }
        },
        {
            "type": "Feature",
            "properties": {
                "shop": "東菜市公有零售市場-0278",
                "category": "夜市\/市場攤販",
                "area": "中西區",
                "market_address": "台南市中西區青年路164巷26號",
                "pay_list": "街口"
            },
            "geometry": {
                "type": "Point",
                "coordinates": [
                    120.20999273256,
                    22.991256356067
                ]
            }
        },
        {
            "type": "Feature",
            "properties": {
                "shop": "東菜市公有零售市場-0275",
                "category": "夜市\/市場攤販",
                "area": "中西區",
                "market_address": "台南市中西區青年路164巷26號",
                "pay_list": "台灣pay"
            },
            "geometry": {
                "type": "Point",
                "coordinates": [
                    120.20999273256,
                    22.991256356067
                ]
            }
        },
        {
            "type": "Feature",
            "properties": {
                "shop": "東菜市公有零售市場-0263",
                "category": "夜市\/市場攤販",
                "area": "中西區",
                "market_address": "台南市中西區青年路164巷26號",
                "pay_list": "台灣pay"
            },
            "geometry": {
                "type": "Point",
                "coordinates": [
                    120.20999273256,
                    22.991256356067
                ]
            }
        },
        {
            "type": "Feature",
            "properties": {
                "shop": "東菜市公有零售市場-0263",
                "category": "夜市\/市場攤販",
                "area": "中西區",
                "market_address": "台南市中西區青年路164巷26號",
                "pay_list": "台灣pay"
            },
            "geometry": {
                "type": "Point",
                "coordinates": [
                    120.20999273256,
                    22.991256356067
                ]
            }
        },
        {
            "type": "Feature",
            "properties": {
                "shop": "東菜市公有零售市場-0256",
                "category": "夜市\/市場攤販",
                "area": "中西區",
                "market_address": "台南市中西區青年路164巷26號",
                "pay_list": "台灣pay"
            },
            "geometry": {
                "type": "Point",
                "coordinates": [
                    120.20999273256,
                    22.991256356067
                ]
            }
        },
        {
            "type": "Feature",
            "properties": {
                "shop": "東菜市公有零售市場-0256",
                "category": "夜市\/市場攤販",
                "area": "中西區",
                "market_address": "台南市中西區青年路164巷26號",
                "pay_list": "台灣Pay\/信用卡"
            },
            "geometry": {
                "type": "Point",
                "coordinates": [
                    120.20999273256,
                    22.991256356067
                ]
            }
        },
        {
            "type": "Feature",
            "properties": {
                "shop": "東菜市公有零售市場-0255",
                "category": "夜市\/市場攤販",
                "area": "中西區",
                "market_address": "台南市中西區青年路164巷26號",
                "pay_list": "台灣pay"
            },
            "geometry": {
                "type": "Point",
                "coordinates": [
                    120.20999273256,
                    22.991256356067
                ]
            }
        },
        {
            "type": "Feature",
            "properties": {
                "shop": "東菜市公有零售市場-0240",
                "category": "夜市\/市場攤販",
                "area": "中西區",
                "market_address": "台南市中西區青年路164巷26號",
                "pay_list": "信用卡"
            },
            "geometry": {
                "type": "Point",
                "coordinates": [
                    120.20999273256,
                    22.991256356067
                ]
            }
        },
        {
            "type": "Feature",
            "properties": {
                "shop": "東菜市公有零售市場-0201",
                "category": "夜市\/市場攤販",
                "area": "中西區",
                "market_address": "台南市中西區青年路164巷26號",
                "pay_list": "信用卡"
            },
            "geometry": {
                "type": "Point",
                "coordinates": [
                    120.20999273256,
                    22.991256356067
                ]
            }
        },
        {
            "type": "Feature",
            "properties": {
                "shop": "東菜市公有零售市場-0201",
                "category": "夜市\/市場攤販",
                "area": "中西區",
                "market_address": "台南市中西區青年路164巷26號",
                "pay_list": "信用卡"
            },
            "geometry": {
                "type": "Point",
                "coordinates": [
                    120.20999273256,
                    22.991256356067
                ]
            }
        },
        {
            "type": "Feature",
            "properties": {
                "shop": "東菜市公有零售市場-0122",
                "category": "夜市\/市場攤販",
                "area": "中西區",
                "market_address": "台南市中西區青年路164巷26號",
                "pay_list": "LINE Pay Money\/街口"
            },
            "geometry": {
                "type": "Point",
                "coordinates": [
                    120.20999273256,
                    22.991256356067
                ]
            }
        },
        {
            "type": "Feature",
            "properties": {
                "shop": "東菜市公有零售市場-0122",
                "category": "夜市\/市場攤販",
                "area": "中西區",
                "market_address": "台南市中西區青年路164巷26號",
                "pay_list": "LINE Pay Money\/街口"
            },
            "geometry": {
                "type": "Point",
                "coordinates": [
                    120.20999273256,
                    22.991256356067
                ]
            }
        },
        {
            "type": "Feature",
            "properties": {
                "shop": "東菜市公有零售市場-0112",
                "category": "夜市\/市場攤販",
                "area": "中西區",
                "market_address": "台南市中西區青年路164巷26號",
                "pay_list": "信用卡"
            },
            "geometry": {
                "type": "Point",
                "coordinates": [
                    120.20999273256,
                    22.991256356067
                ]
            }
        },
        {
            "type": "Feature",
            "properties": {
                "shop": "東菜市公有零售市場-0110",
                "category": "夜市\/市場攤販",
                "area": "中西區",
                "market_address": "台南市中西區青年路164巷26號",
                "pay_list": "台灣Pay\/街口"
            },
            "geometry": {
                "type": "Point",
                "coordinates": [
                    120.20999273256,
                    22.991256356067
                ]
            }
        },
        {
            "type": "Feature",
            "properties": {
                "shop": "東菜市公有零售市場-0110",
                "category": "夜市\/市場攤販",
                "area": "中西區",
                "market_address": "台南市中西區青年路164巷26號",
                "pay_list": "台灣pay\/街口"
            },
            "geometry": {
                "type": "Point",
                "coordinates": [
                    120.20999273256,
                    22.991256356067
                ]
            }
        },
        {
            "type": "Feature",
            "properties": {
                "shop": "東菜市公有零售市場-0060",
                "category": "夜市\/市場攤販",
                "area": "中西區",
                "market_address": "台南市中西區青年路164巷26號",
                "pay_list": "台灣pay"
            },
            "geometry": {
                "type": "Point",
                "coordinates": [
                    120.20999273256,
                    22.991256356067
                ]
            }
        },
        {
            "type": "Feature",
            "properties": {
                "shop": "東菜市公有零售市場-0049",
                "category": "夜市\/市場攤販",
                "area": "中西區",
                "market_address": "台南市中西區青年路164巷26號",
                "pay_list": "台灣pay"
            },
            "geometry": {
                "type": "Point",
                "coordinates": [
                    120.20999273256,
                    22.991256356067
                ]
            }
        },
        {
            "type": "Feature",
            "properties": {
                "shop": "東菜市公有零售市場-0045",
                "category": "夜市\/市場攤販",
                "area": "中西區",
                "market_address": "台南市中西區青年路164巷26號",
                "pay_list": "台灣pay"
            },
            "geometry": {
                "type": "Point",
                "coordinates": [
                    120.20999273256,
                    22.991256356067
                ]
            }
        },
        {
            "type": "Feature",
            "properties": {
                "shop": "東菜市公有零售市場-0013",
                "category": "夜市\/市場攤販",
                "area": "中西區",
                "market_address": "台南市中西區青年路164巷26號",
                "pay_list": "街口"
            },
            "geometry": {
                "type": "Point",
                "coordinates": [
                    120.20999273256,
                    22.991256356067
                ]
            }
        },
        {
            "type": "Feature",
            "properties": {
                "shop": "東菜市公有零售市場-0013",
                "category": "夜市\/市場攤販",
                "area": "中西區",
                "market_address": "台南市中西區青年路164巷26號",
                "pay_list": "街口"
            },
            "geometry": {
                "type": "Point",
                "coordinates": [
                    120.20999273256,
                    22.991256356067
                ]
            }
        },
        {
            "type": "Feature",
            "properties": {
                "shop": "東菜市公有零售市場-0007",
                "category": "夜市\/市場攤販",
                "area": "中西區",
                "market_address": "台南市中西區青年路164巷26號",
                "pay_list": "信用卡"
            },
            "geometry": {
                "type": "Point",
                "coordinates": [
                    120.20999273256,
                    22.991256356067
                ]
            }
        },
        {
            "type": "Feature",
            "properties": {
                "shop": "東菜市公有零售市場-0007",
                "category": "夜市\/市場攤販",
                "area": "中西區",
                "market_address": "台南市中西區青年路164巷26號",
                "pay_list": "信用卡"
            },
            "geometry": {
                "type": "Point",
                "coordinates": [
                    120.20999273256,
                    22.991256356067
                ]
            }
        },
        {
            "type": "Feature",
            "properties": {
                "shop": "朱熹漢堡",
                "category": "餐飲\/夜市\/市場攤販",
                "area": "中西區",
                "market_address": "臺南市中西區永華里開山路１４號１樓",
                "pay_list": "街口"
            },
            "geometry": {
                "type": "Point",
                "coordinates": [
                    120.205563,
                    22.991796
                ]
            }
        },
        {
            "type": "Feature",
            "properties": {
                "shop": "忠義干鍋店",
                "category": "餐飲\/夜市\/市場攤販",
                "area": "中西區",
                "market_address": "臺南市中西區南美里忠義路２段１３９號１樓",
                "pay_list": "台灣pay"
            },
            "geometry": {
                "type": "Point",
                "coordinates": [
                    120.20336974429,
                    22.994709366481
                ]
            }
        },
        {
            "type": "Feature",
            "properties": {
                "shop": "復興公有零售市場-0076",
                "category": "夜市\/市場攤販",
                "area": "中西區",
                "market_address": "台南市中西區府前路一段31號",
                "pay_list": "LINE Pay Money"
            },
            "geometry": {
                "type": "Point",
                "coordinates": [
                    120.21016993128,
                    22.989046930289
                ]
            }
        },
        {
            "type": "Feature",
            "properties": {
                "shop": "復興公有零售市場-0076",
                "category": "夜市\/市場攤販",
                "area": "中西區",
                "market_address": "台南市中西區府前路一段31號",
                "pay_list": "LINE Pay Money"
            },
            "geometry": {
                "type": "Point",
                "coordinates": [
                    120.21016993128,
                    22.989046930289
                ]
            }
        },
        {
            "type": "Feature",
            "properties": {
                "shop": "復興公有零售市場-0045",
                "category": "夜市\/市場攤販",
                "area": "中西區",
                "market_address": "台南市中西區府前路一段31號",
                "pay_list": "LINE Pay Money"
            },
            "geometry": {
                "type": "Point",
                "coordinates": [
                    120.21016993128,
                    22.989046930289
                ]
            }
        },
        {
            "type": "Feature",
            "properties": {
                "shop": "復興公有零售市場-0045",
                "category": "夜市\/市場攤販",
                "area": "中西區",
                "market_address": "台南市中西區府前路一段31號",
                "pay_list": "LINE Pay Money"
            },
            "geometry": {
                "type": "Point",
                "coordinates": [
                    120.21016993128,
                    22.989046930289
                ]
            }
        },
        {
            "type": "Feature",
            "properties": {
                "shop": "保安公有零售市場-2230",
                "category": "夜市\/市場攤販",
                "area": "中西區",
                "market_address": "臺南市中西區郡西路35號",
                "pay_list": "街口"
            },
            "geometry": {
                "type": "Point",
                "coordinates": [
                    120.194166,
                    22.988486
                ]
            }
        },
        {
            "type": "Feature",
            "properties": {
                "shop": "保安公有零售市場-2230",
                "category": "夜市\/市場攤販",
                "area": "中西區",
                "market_address": "臺南市中西區郡西路35號",
                "pay_list": "街口"
            },
            "geometry": {
                "type": "Point",
                "coordinates": [
                    120.194166,
                    22.988486
                ]
            }
        },
        {
            "type": "Feature",
            "properties": {
                "shop": "保安公有零售市場-1122",
                "category": "夜市\/市場攤販",
                "area": "中西區",
                "market_address": "臺南市中西區郡西路35號",
                "pay_list": "街口"
            },
            "geometry": {
                "type": "Point",
                "coordinates": [
                    120.194166,
                    22.988486
                ]
            }
        },
        {
            "type": "Feature",
            "properties": {
                "shop": "保安公有零售市場-1122",
                "category": "夜市\/市場攤販",
                "area": "中西區",
                "market_address": "臺南市中西區郡西路35號",
                "pay_list": "街口"
            },
            "geometry": {
                "type": "Point",
                "coordinates": [
                    120.194166,
                    22.988486
                ]
            }
        },
        {
            "type": "Feature",
            "properties": {
                "shop": "保安公有零售市場-1103",
                "category": "夜市\/市場攤販",
                "area": "中西區",
                "market_address": "臺南市中西區郡西路35號",
                "pay_list": "街口"
            },
            "geometry": {
                "type": "Point",
                "coordinates": [
                    120.194166,
                    22.988486
                ]
            }
        },
        {
            "type": "Feature",
            "properties": {
                "shop": "保安公有零售市場-1103",
                "category": "夜市\/市場攤販",
                "area": "中西區",
                "market_address": "臺南市中西區郡西路35號",
                "pay_list": "街口"
            },
            "geometry": {
                "type": "Point",
                "coordinates": [
                    120.194166,
                    22.988486
                ]
            }
        },
        {
            "type": "Feature",
            "properties": {
                "shop": "二囍麻辣串",
                "category": "夜市\/市場攤販",
                "area": "中西區",
                "market_address": "臺南市中西區南廠里建安街５６號",
                "pay_list": "台灣pay"
            },
            "geometry": {
                "type": "Point",
                "coordinates": [
                    120.195329,
                    22.988768
                ]
            }
        },
        {
            "type": "Feature",
            "properties": {
                "shop": "遠百大台南公園店",
                "category": "百貨美食街",
                "area": "中西區",
                "market_address": "臺南市中西區赤嵌里公園路６０號地下２樓至地上４樓",
                "pay_list": "信用卡\/有錢卡"
            },
            "geometry": {
                "type": "Point",
                "coordinates": [
                    120.205827,
                    22.995359
                ]
            }
        },
        {
            "type": "Feature",
            "properties": {
                "shop": "比漾廣場Beyond Plaza台南分店",
                "category": "百貨美食街",
                "area": "中西區",
                "market_address": "臺南市中西區正興街７７巷１０號１樓",
                "pay_list": "LINE Pay Money\/信用卡\/悠遊卡"
            },
            "geometry": {
                "type": "Point",
                "coordinates": [
                    120.19676,
                    22.993812
                ]
            }
        },
        {
            "type": "Feature",
            "properties": {
                "shop": "新光三越台南新天地二館",
                "category": "百貨美食街",
                "area": "中西區",
                "market_address": "臺南市中西區西門路１段６５８之１號１樓、地下１～３樓、永福路１段１８９號地下４樓及和意路３號１樓",
                "pay_list": "LINE Pay Money\/信用卡\/悠遊卡"
            },
            "geometry": {
                "type": "Point",
                "coordinates": [
                    120.198947,
                    22.986943
                ]
            }
        },
        {
            "type": "Feature",
            "properties": {
                "shop": "新光三越台南新天地",
                "category": "百貨美食街",
                "area": "中西區",
                "market_address": "臺南市中西區小西門里西門路１段６５８號",
                "pay_list": "LINE Pay Money\/信用卡\/悠遊卡"
            },
            "geometry": {
                "type": "Point",
                "coordinates": [
                    120.198867,
                    22.98673
                ]
            }
        },
        {
            "type": "Feature",
            "properties": {
                "shop": "新光三越台南中山店",
                "category": "百貨美食街",
                "area": "中西區",
                "market_address": "臺南市中西區城隍里中山路１６２號",
                "pay_list": "LINE Pay Money\/信用卡\/悠遊卡"
            },
            "geometry": {
                "type": "Point",
                "coordinates": [
                    120.209898,
                    22.995462
                ]
            }
        },
        {
            "type": "Feature",
            "properties": {
                "shop": "FOCUS時尚流行館臺南美術館門市",
                "category": "百貨美食街",
                "area": "中西區",
                "market_address": "臺南市中西區南美里忠義路２段１號",
                "pay_list": "LINE Pay Money\/信用卡"
            },
            "geometry": {
                "type": "Point",
                "coordinates": [
                    120.201804,
                    22.990297
                ]
            }
        },
        {
            "type": "Feature",
            "properties": {
                "shop": "FOCUS時尚流行館",
                "category": "百貨美食街",
                "area": "中西區",
                "market_address": "臺南市中西區中山路１６６號",
                "pay_list": "LINE Pay Money\/Pi 拍錢包\/台灣Pay\/信用卡\/街口"
            },
            "geometry": {
                "type": "Point",
                "coordinates": [
                    120.21016704795,
                    22.995629891827
                ]
            }
        },
        {
            "type": "Feature",
            "properties": {
                "shop": "馨茂國際有限公司",
                "category": "餐飲\/糕餅",
                "area": "中西區",
                "market_address": "臺南市中西區赤嵌里民族路二段２２０號",
                "pay_list": "信用卡\/悠遊卡\/街口\/LINE Pay Money"
            },
            "geometry": {
                "type": "Point",
                "coordinates": [
                    120.201958,
                    22.997191
                ]
            }
        },
        {
            "type": "Feature",
            "properties": {
                "shop": "順展食品行",
                "category": "糕餅",
                "area": "中西區",
                "market_address": "臺南市中西區赤嵌里民族路二段４０７號",
                "pay_list": "LINE Pay Money"
            },
            "geometry": {
                "type": "Point",
                "coordinates": [
                    120.200935,
                    22.997226
                ]
            }
        },
        {
            "type": "Feature",
            "properties": {
                "shop": "靚遠國際股份有限公司",
                "category": "糕餅",
                "area": "中西區",
                "market_address": "臺南市中西區大涼里中華西路２段１２巷３０號１樓",
                "pay_list": "台灣pay\/信用卡\/LINE Pay Money"
            },
            "geometry": {
                "type": "Point",
                "coordinates": [
                    120.187244,
                    22.987248
                ]
            }
        },
        {
            "type": "Feature",
            "properties": {
                "shop": "阿茂烘焙坊",
                "category": "糕餅",
                "area": "中西區",
                "market_address": "臺南市中西區府前里友愛街２６４號１樓",
                "pay_list": "信用卡\/歐付寶"
            },
            "geometry": {
                "type": "Point",
                "coordinates": [
                    120.195341,
                    22.992401
                ]
            }
        },
        {
            "type": "Feature",
            "properties": {
                "shop": "阿爸的情人商行",
                "category": "糕餅",
                "area": "中西區",
                "market_address": "臺南市中西區永華里府中街１０５號１樓",
                "pay_list": "信用卡"
            },
            "geometry": {
                "type": "Point",
                "coordinates": [
                    120.205933,
                    22.990088
                ]
            }
        },
        {
            "type": "Feature",
            "properties": {
                "shop": "阿吽坊咖啡",
                "category": "餐飲\/糕餅",
                "area": "中西區",
                "market_address": "臺南市中西區南廠里國華街二段７３號",
                "pay_list": "信用卡\/悠遊卡\/街口\/LINE Pay Money"
            },
            "geometry": {
                "type": "Point",
                "coordinates": [
                    120.19649,
                    22.98963
                ]
            }
        },
        {
            "type": "Feature",
            "properties": {
                "shop": "長生本舖",
                "category": "糕餅",
                "area": "中西區",
                "market_address": "臺南市中西區城隍里北門路１段１１３號１樓",
                "pay_list": "信用卡\/LINE Pay Money"
            },
            "geometry": {
                "type": "Point",
                "coordinates": [
                    120.211676,
                    22.994665
                ]
            }
        },
        {
            "type": "Feature",
            "properties": {
                "shop": "金宏明食品有限公司",
                "category": "餐飲\/糕餅",
                "area": "中西區",
                "market_address": "臺南市中西區青年路２２８號",
                "pay_list": "台灣pay\/信用卡\/街口\/LINE Pay Money"
            },
            "geometry": {
                "type": "Point",
                "coordinates": [
                    120.211249,
                    22.991465
                ]
            }
        },
        {
            "type": "Feature",
            "properties": {
                "shop": "財團法人喜憨兒社會福利基金會生機好鍋台南南門店",
                "category": "糕餅\/餐飲",
                "area": "中西區",
                "market_address": "臺南市中西區郡王里南門路１９１號",
                "pay_list": "信用卡\/悠遊卡\/街口"
            },
            "geometry": {
                "type": "Point",
                "coordinates": [
                    120.20428,
                    22.985413
                ]
            }
        },
        {
            "type": "Feature",
            "properties": {
                "shop": "豆胖餐飲",
                "category": "糕餅",
                "area": "中西區",
                "market_address": "臺南市中西區民權路２段１７６號",
                "pay_list": "悠遊卡\/LINE Pay Money"
            },
            "geometry": {
                "type": "Point",
                "coordinates": [
                    120.202378,
                    22.995304
                ]
            }
        },
        {
            "type": "Feature",
            "properties": {
                "shop": "蘇格蕾有限公司",
                "category": "糕餅",
                "area": "中西區",
                "market_address": "臺南市中西區赤嵌里慈音街２０號",
                "pay_list": "信用卡"
            },
            "geometry": {
                "type": "Point",
                "coordinates": [
                    120.205928,
                    22.996804
                ]
            }
        },
        {
            "type": "Feature",
            "properties": {
                "shop": "蒔蒔商店",
                "category": "糕餅",
                "area": "中西區",
                "market_address": "臺南市中西區南美里永福路２段５９之１號",
                "pay_list": "信用卡"
            },
            "geometry": {
                "type": "Point",
                "coordinates": [
                    120.200575,
                    22.991772
                ]
            }
        },
        {
            "type": "Feature",
            "properties": {
                "shop": "華姸國際有限公司台南忠義店",
                "category": "餐飲\/糕餅",
                "area": "中西區",
                "market_address": "臺南市中西區南美里忠義路２段６７號",
                "pay_list": "信用卡\/LINE Pay Money"
            },
            "geometry": {
                "type": "Point",
                "coordinates": [
                    120.202712,
                    22.992221
                ]
            }
        },
        {
            "type": "Feature",
            "properties": {
                "shop": "艾塔菲食品有限公司皇上不上朝門市",
                "category": "糕餅",
                "area": "中西區",
                "market_address": "臺南市中西區城隍里中山路８２巷８號",
                "pay_list": "LINE Pay Money"
            },
            "geometry": {
                "type": "Point",
                "coordinates": [
                    120.207517,
                    22.993711
                ]
            }
        },
        {
            "type": "Feature",
            "properties": {
                "shop": "艾塔菲食品有限公司台南民族門市",
                "category": "糕餅",
                "area": "中西區",
                "market_address": "臺南市中西區民族路２段７２之１號",
                "pay_list": "信用卡\/LINE Pay Money"
            },
            "geometry": {
                "type": "Point",
                "coordinates": [
                    120.209438,
                    22.994661
                ]
            }
        },
        {
            "type": "Feature",
            "properties": {
                "shop": "米多尼商業有限公司",
                "category": "糕餅",
                "area": "中西區",
                "market_address": "臺南市中西區南廠里永華路１段３６號６樓之１３",
                "pay_list": "悠遊卡\/LINE Pay Money"
            },
            "geometry": {
                "type": "Point",
                "coordinates": [
                    120.196208,
                    22.987752
                ]
            }
        },
        {
            "type": "Feature",
            "properties": {
                "shop": "米唐家個人工作室",
                "category": "糕餅",
                "area": "中西區",
                "market_address": "臺南市中西區南美里府前路１段３０４巷１１號１樓",
                "pay_list": "LINE Pay Money"
            },
            "geometry": {
                "type": "Point",
                "coordinates": [
                    120.198912,
                    22.9908
                ]
            }
        },
        {
            "type": "Feature",
            "properties": {
                "shop": "福樂國際烘焙坊",
                "category": "糕餅",
                "area": "中西區",
                "market_address": "臺南市中西區南美里忠義路２段１１３號１樓",
                "pay_list": "台灣pay\/信用卡\/LINE Pay Money"
            },
            "geometry": {
                "type": "Point",
                "coordinates": [
                    120.203205,
                    22.994167
                ]
            }
        },
        {
            "type": "Feature",
            "properties": {
                "shop": "神秘手作烘焙坊",
                "category": "糕餅",
                "area": "中西區",
                "market_address": "臺南市中西區赤嵌里新美街１８８號１樓",
                "pay_list": "LINE Pay Money"
            },
            "geometry": {
                "type": "Point",
                "coordinates": [
                    120.201382,
                    22.997757
                ]
            }
        },
        {
            "type": "Feature",
            "properties": {
                "shop": "町之戶工作坊",
                "category": "餐飲\/糕餅",
                "area": "中西區",
                "market_address": "臺南市中西區城隍里民族路２段５７巷１號３樓",
                "pay_list": "歐付寶"
            },
            "geometry": {
                "type": "Point",
                "coordinates": [
                    120.210154,
                    22.993983
                ]
            }
        },
        {
            "type": "Feature",
            "properties": {
                "shop": "珊懿商行",
                "category": "糕餅",
                "area": "中西區",
                "market_address": "臺南市中西區藥王里大新街７２巷１８號１樓",
                "pay_list": "LINE Pay Money"
            },
            "geometry": {
                "type": "Point",
                "coordinates": [
                    120.192739,
                    22.999307
                ]
            }
        },
        {
            "type": "Feature",
            "properties": {
                "shop": "橘香合烘焙坊西門店",
                "category": "糕餅",
                "area": "中西區",
                "market_address": "臺南市中西區西門路１段７１２號１樓",
                "pay_list": "LINE Pay Money"
            },
            "geometry": {
                "type": "Point",
                "coordinates": [
                    120.197795,
                    22.989795
                ]
            }
        },
        {
            "type": "Feature",
            "properties": {
                "shop": "橘香合烘焙坊",
                "category": "糕餅",
                "area": "中西區",
                "market_address": "臺南市中西區光賢里和善街１２５巷３４弄４號",
                "pay_list": "悠遊卡\/街口\/LINE Pay Money"
            },
            "geometry": {
                "type": "Point",
                "coordinates": [
                    120.191059,
                    23.003634
                ]
            }
        },
        {
            "type": "Feature",
            "properties": {
                "shop": "方云云麵包店",
                "category": "糕餅",
                "area": "中西區",
                "market_address": "臺南市中西區城隍里中山路８巷３－１號１樓",
                "pay_list": "LINE Pay Money"
            },
            "geometry": {
                "type": "Point",
                "coordinates": [
                    120.205996,
                    22.992723
                ]
            }
        },
        {
            "type": "Feature",
            "properties": {
                "shop": "新葡吉喜餅蛋糕",
                "category": "糕餅",
                "area": "中西區",
                "market_address": "臺南市中西區赤嵌里成功路２５３號",
                "pay_list": "信用卡"
            },
            "geometry": {
                "type": "Point",
                "coordinates": [
                    120.202241,
                    22.999148
                ]
            }
        },
        {
            "type": "Feature",
            "properties": {
                "shop": "摩耳冷飲店",
                "category": "餐飲\/糕餅",
                "area": "中西區",
                "market_address": "臺南市中西區赤嵌里赤嵌街４７號",
                "pay_list": "LINE Pay Money"
            },
            "geometry": {
                "type": "Point",
                "coordinates": [
                    120.202462,
                    22.998514
                ]
            }
        },
        {
            "type": "Feature",
            "properties": {
                "shop": "拾柒號手感烘焙坊",
                "category": "餐飲\/糕餅",
                "area": "中西區",
                "market_address": "臺南市中西區西湖里湖美二街６２巷４號１樓",
                "pay_list": "台灣pay\/信用卡\/街口\/LINE Pay Money"
            },
            "geometry": {
                "type": "Point",
                "coordinates": [
                    120.182215,
                    23.00164
                ]
            }
        },
        {
            "type": "Feature",
            "properties": {
                "shop": "拾參馬卡龍烘焙坊",
                "category": "糕餅",
                "area": "中西區",
                "market_address": "臺南市中西區淺草里正興街６３號１樓",
                "pay_list": "台灣pay\/街口\/LINE Pay Money"
            },
            "geometry": {
                "type": "Point",
                "coordinates": [
                    120.197194,
                    22.994201
                ]
            }
        },
        {
            "type": "Feature",
            "properties": {
                "shop": "恒耀食品股份有限公司南門營業所",
                "category": "糕餅",
                "area": "中西區",
                "market_address": "臺南市中西區永華里南門路２５號",
                "pay_list": "LINE Pay Money"
            },
            "geometry": {
                "type": "Point",
                "coordinates": [
                    120.205057,
                    22.991854
                ]
            }
        },
        {
            "type": "Feature",
            "properties": {
                "shop": "帕莎蒂娜國際有限公司台南官邸分公司",
                "category": "餐飲\/糕餅",
                "area": "中西區",
                "market_address": "臺南市中西區郡王里南門路２３９號",
                "pay_list": "信用卡"
            },
            "geometry": {
                "type": "Point",
                "coordinates": [
                    120.204058,
                    22.983044
                ]
            }
        },
        {
            "type": "Feature",
            "properties": {
                "shop": "巴哈迪印象甜品工房",
                "category": "糕餅",
                "area": "中西區",
                "market_address": "臺南市中西區南美里民生路一段１５７巷２號１樓",
                "pay_list": "LINE Pay Money"
            },
            "geometry": {
                "type": "Point",
                "coordinates": [
                    120.200526,
                    22.993827
                ]
            }
        },
        {
            "type": "Feature",
            "properties": {
                "shop": "就是甜點",
                "category": "糕餅",
                "area": "中西區",
                "market_address": "臺南市中西區南廠里大智街１４１號１樓",
                "pay_list": "台灣pay\/悠遊卡\/街口\/LINE Pay Money"
            },
            "geometry": {
                "type": "Point",
                "coordinates": [
                    120.192977,
                    22.988916
                ]
            }
        },
        {
            "type": "Feature",
            "properties": {
                "shop": "小草堂",
                "category": "餐飲\/糕餅",
                "area": "中西區",
                "market_address": "臺南市中西區赤嵌里新美街１８９號１樓",
                "pay_list": "信用卡\/街口\/LINE Pay Money"
            },
            "geometry": {
                "type": "Point",
                "coordinates": [
                    120.201511,
                    22.998519
                ]
            }
        },
        {
            "type": "Feature",
            "properties": {
                "shop": "小桔商行",
                "category": "糕餅",
                "area": "中西區",
                "market_address": "臺南市中西區南廠里保安路１２７號",
                "pay_list": "台灣pay"
            },
            "geometry": {
                "type": "Point",
                "coordinates": [
                    120.194802,
                    22.990556
                ]
            }
        },
        {
            "type": "Feature",
            "properties": {
                "shop": "安妮菓子工房股份有限公司台南中正店",
                "category": "糕餅",
                "area": "中西區",
                "market_address": "臺南市中西區淺草里中正路２０８號",
                "pay_list": "信用卡"
            },
            "geometry": {
                "type": "Point",
                "coordinates": [
                    120.197627,
                    22.993077
                ]
            }
        },
        {
            "type": "Feature",
            "properties": {
                "shop": "安堤生烘焙麵包坊",
                "category": "糕餅",
                "area": "中西區",
                "market_address": "臺南市中西區南門里南門路４６－１５號１樓",
                "pay_list": "信用卡\/LINE Pay Money\/台灣pay"
            },
            "geometry": {
                "type": "Point",
                "coordinates": [
                    120.20398,
                    22.984856
                ]
            }
        },
        {
            "type": "Feature",
            "properties": {
                "shop": "喬郁實業股份有限公司",
                "category": "餐飲\/糕餅",
                "area": "中西區",
                "market_address": "臺南市中西區北門路１段４９號１樓",
                "pay_list": "台灣pay\/信用卡"
            },
            "geometry": {
                "type": "Point",
                "coordinates": [
                    120.211401,
                    22.990164
                ]
            }
        },
        {
            "type": "Feature",
            "properties": {
                "shop": "品軒烘焙坊",
                "category": "糕餅",
                "area": "中西區",
                "market_address": "臺南市中西區赤嵌里民族路二段２６８號",
                "pay_list": "LINE Pay Money"
            },
            "geometry": {
                "type": "Point",
                "coordinates": [
                    120.200946,
                    22.997506
                ]
            }
        },
        {
            "type": "Feature",
            "properties": {
                "shop": "台灣阿信農場股份有限公司台南營業處",
                "category": "餐飲\/糕餅",
                "area": "中西區",
                "market_address": "臺南市中西區永華里０１２鄰南門路５１號１樓",
                "pay_list": "信用卡\/LINE Pay Money"
            },
            "geometry": {
                "type": "Point",
                "coordinates": [
                    120.204853,
                    22.990129
                ]
            }
        },
        {
            "type": "Feature",
            "properties": {
                "shop": "南房狀元趣味手作實驗工房",
                "category": "糕餅",
                "area": "中西區",
                "market_address": "臺南市中西區赤崁里赤嵌里１鄰中山路７９巷１６號１樓",
                "pay_list": "台灣pay\/LINE Pay Money"
            },
            "geometry": {
                "type": "Point",
                "coordinates": [
                    120.207176,
                    22.994327
                ]
            }
        },
        {
            "type": "Feature",
            "properties": {
                "shop": "克林姆之屋",
                "category": "糕餅",
                "area": "中西區",
                "market_address": "臺南市中西區南廠里西門路１段７１３號１樓",
                "pay_list": "LINE Pay Money"
            },
            "geometry": {
                "type": "Point",
                "coordinates": [
                    120.197194,
                    22.988838
                ]
            }
        },
        {
            "type": "Feature",
            "properties": {
                "shop": "五吉堂麵包店",
                "category": "糕餅",
                "area": "中西區",
                "market_address": "臺南市中西區開山里府前路１段８５巷２弄２號",
                "pay_list": "LINE Pay Money"
            },
            "geometry": {
                "type": "Point",
                "coordinates": [
                    120.209191,
                    22.988703
                ]
            }
        },
        {
            "type": "Feature",
            "properties": {
                "shop": "三希堂食品有限公司",
                "category": "糕餅",
                "area": "中西區",
                "market_address": "臺南市中西區南美里永福路２段１９０號１樓",
                "pay_list": "台灣pay"
            },
            "geometry": {
                "type": "Point",
                "coordinates": [
                    120.202083,
                    22.995978
                ]
            }
        },
        {
            "type": "Feature",
            "properties": {
                "shop": "Starbucks星巴克台南市第三分公司",
                "category": "餐飲\/糕餅",
                "area": "中西區",
                "market_address": "臺南市中西區西湖里中華西路２段８６５號",
                "pay_list": "LINE Pay Money"
            },
            "geometry": {
                "type": "Point",
                "coordinates": [
                    120.185592,
                    23.006153
                ]
            }
        },
        {
            "type": "Feature",
            "properties": {
                "shop": "85度C 台南成功店",
                "category": "餐飲\/糕餅",
                "area": "中西區",
                "market_address": "臺南市中西區兌悅里成功路５１５號１，２樓",
                "pay_list": "Pi 拍錢包\/台灣pay\/信用卡\/悠遊付\/街口\/LINE Pay Money"
            },
            "geometry": {
                "type": "Point",
                "coordinates": [
                    120.194739,
                    23.002174
                ]
            }
        },
        {
            "type": "Feature",
            "properties": {
                "shop": "ＪＪ虹吸咖啡",
                "category": "餐飲",
                "area": "中西區",
                "market_address": "臺南市中西區國華街３段２６號Ａ８",
                "pay_list": "台灣pay\/街口"
            },
            "geometry": {
                "type": "Point",
                "coordinates": [
                    120.197666,
                    22.993825
                ]
            }
        },
        {
            "type": "Feature",
            "properties": {
                "shop": "龍鳳北平烤鴨",
                "category": "餐飲",
                "area": "中西區",
                "market_address": "臺南市中西區南廠里金華路３段５１號１樓",
                "pay_list": "LINE Pay Money"
            },
            "geometry": {
                "type": "Point",
                "coordinates": [
                    120.192154,
                    22.989512
                ]
            }
        },
        {
            "type": "Feature",
            "properties": {
                "shop": "黑浮國際餐飲有限公司萬昌店",
                "category": "餐飲",
                "area": "中西區",
                "market_address": "臺南市中西區萬昌街１３５號",
                "pay_list": "信用卡"
            },
            "geometry": {
                "type": "Point",
                "coordinates": [
                    120.21059324013,
                    22.993559237138
                ]
            }
        },
        {
            "type": "Feature",
            "properties": {
                "shop": "麻豆助碗粿",
                "category": "餐飲",
                "area": "中西區",
                "market_address": "臺南市中西區小西門里西門路１段７０４號１樓",
                "pay_list": "悠遊卡\/LINE Pay Money"
            },
            "geometry": {
                "type": "Point",
                "coordinates": [
                    120.197762,
                    22.98965
                ]
            }
        },
        {
            "type": "Feature",
            "properties": {
                "shop": "麻寶商行",
                "category": "餐飲",
                "area": "中西區",
                "market_address": "臺南市中西區府前里友愛街１６８號１樓",
                "pay_list": "LINE Pay Money"
            },
            "geometry": {
                "type": "Point",
                "coordinates": [
                    120.197289,
                    22.992031
                ]
            }
        },
        {
            "type": "Feature",
            "properties": {
                "shop": "麵家宇味餐館",
                "category": "餐飲",
                "area": "中西區",
                "market_address": "臺南市中西區五條港里西門路２段４２９號１樓",
                "pay_list": "悠遊卡\/LINE Pay Money"
            },
            "geometry": {
                "type": "Point",
                "coordinates": [
                    120.200971,
                    22.99943
                ]
            }
        },
        {
            "type": "Feature",
            "properties": {
                "shop": "麥當勞台南西門路分公司",
                "category": "餐飲",
                "area": "中西區",
                "market_address": "臺南市中西區南美里西門路２段９６號１至３樓",
                "pay_list": "信用卡\/LINE Pay Money"
            },
            "geometry": {
                "type": "Point",
                "coordinates": [
                    120.19881407549,
                    22.992894272671
                ]
            }
        },
        {
            "type": "Feature",
            "properties": {
                "shop": "麥當勞台南民族分公司",
                "category": "餐飲",
                "area": "中西區",
                "market_address": "臺南市中西區城隍里西華南街６５號",
                "pay_list": "信用卡\/LINE Pay Money"
            },
            "geometry": {
                "type": "Point",
                "coordinates": [
                    120.20952060194,
                    22.994683649676
                ]
            }
        },
        {
            "type": "Feature",
            "properties": {
                "shop": "麥當勞台南健康分公司",
                "category": "餐飲",
                "area": "中西區",
                "market_address": "臺南市中西區法華里健康路１段４８號１、２樓",
                "pay_list": "信用卡\/LINE Pay Money"
            },
            "geometry": {
                "type": "Point",
                "coordinates": [
                    120.21049348968,
                    22.98140551105
                ]
            }
        },
        {
            "type": "Feature",
            "properties": {
                "shop": "麥玖德冷飲店",
                "category": "餐飲",
                "area": "中西區",
                "market_address": "臺南市中西區赤嵌里民權路２段２２８號１樓",
                "pay_list": "LINE Pay Money"
            },
            "geometry": {
                "type": "Point",
                "coordinates": [
                    120.201041,
                    22.995829
                ]
            }
        },
        {
            "type": "Feature",
            "properties": {
                "shop": "麗心園茶飲專賣店",
                "category": "餐飲",
                "area": "中西區",
                "market_address": "臺南市中西區南美里永福路２段９９號１樓",
                "pay_list": "台灣pay\/信用卡\/LINE Pay Money"
            },
            "geometry": {
                "type": "Point",
                "coordinates": [
                    120.20096157209,
                    22.993289892355
                ]
            }
        },
        {
            "type": "Feature",
            "properties": {
                "shop": "鹽埕碳烤三明治",
                "category": "餐飲",
                "area": "中西區",
                "market_address": "臺南市中西區南美里民族路２段２８７號１樓",
                "pay_list": "LINE Pay Money\/街口"
            },
            "geometry": {
                "type": "Point",
                "coordinates": [
                    120.20345573692,
                    22.996411436864
                ]
            }
        },
        {
            "type": "Feature",
            "properties": {
                "shop": "鴻品品味屋",
                "category": "餐飲",
                "area": "中西區",
                "market_address": "臺南市中西區大涼里中華西路２段５０號１樓",
                "pay_list": "信用卡"
            },
            "geometry": {
                "type": "Point",
                "coordinates": [
                    120.187006,
                    22.993497
                ]
            }
        },
        {
            "type": "Feature",
            "properties": {
                "shop": "鴨霸東山鴨頭",
                "category": "餐飲",
                "area": "中西區",
                "market_address": "臺南市中西區兌悅里金華路４段１５９號１樓",
                "pay_list": "LINE Pay Money"
            },
            "geometry": {
                "type": "Point",
                "coordinates": [
                    120.195725,
                    23.000978
                ]
            }
        },
        {
            "type": "Feature",
            "properties": {
                "shop": "鳳張日式餐館",
                "category": "餐飲",
                "area": "中西區",
                "market_address": "臺南市中西區兌悅里信義街３７號",
                "pay_list": "信用卡"
            },
            "geometry": {
                "type": "Point",
                "coordinates": [
                    120.195676,
                    22.999915
                ]
            }
        },
        {
            "type": "Feature",
            "properties": {
                "shop": "鳥燒芙蓉居酒屋",
                "category": "餐飲",
                "area": "中西區",
                "market_address": "臺南市中西區赤嵌里赤嵌街３１號",
                "pay_list": "信用卡"
            },
            "geometry": {
                "type": "Point",
                "coordinates": [
                    120.20225287435,
                    22.998037850168
                ]
            }
        },
        {
            "type": "Feature",
            "properties": {
                "shop": "鮮自然企業有限公司台南第５２營運處",
                "category": "餐飲",
                "area": "中西區",
                "market_address": "臺南市中西區兌悅里１０鄰文賢路２００號１樓",
                "pay_list": "LINE Pay Money\/悠遊付"
            },
            "geometry": {
                "type": "Point",
                "coordinates": [
                    120.19390090748,
                    23.003195736263
                ]
            }
        },
        {
            "type": "Feature",
            "properties": {
                "shop": "鮮爵鐵板燒",
                "category": "餐飲",
                "area": "中西區",
                "market_address": "臺南市中西區南廠里金華路３段９２號１樓",
                "pay_list": "台灣pay"
            },
            "geometry": {
                "type": "Point",
                "coordinates": [
                    120.19279,
                    22.99085
                ]
            }
        },
        {
            "type": "Feature",
            "properties": {
                "shop": "高青開發股份有限公司",
                "category": "餐飲",
                "area": "中西區",
                "market_address": "臺南市中西區城隍里中山路１６６號",
                "pay_list": "LINE Pay Money"
            },
            "geometry": {
                "type": "Point",
                "coordinates": [
                    120.210167,
                    22.995629
                ]
            }
        },
        {
            "type": "Feature",
            "properties": {
                "shop": "高青生活股份有限公司",
                "category": "餐飲",
                "area": "中西區",
                "market_address": "臺南市中西區城隍里中山路１６６號",
                "pay_list": "LINE Pay Money"
            },
            "geometry": {
                "type": "Point",
                "coordinates": [
                    120.210167,
                    22.995629
                ]
            }
        },
        {
            "type": "Feature",
            "properties": {
                "shop": "騰薪有限公司",
                "category": "餐飲",
                "area": "中西區",
                "market_address": "臺南市中西區赤嵌里中山路１１５號１樓",
                "pay_list": "LINE Pay Money"
            },
            "geometry": {
                "type": "Point",
                "coordinates": [
                    120.2081,
                    22.994671
                ]
            }
        },
        {
            "type": "Feature",
            "properties": {
                "shop": "馨茂國際有限公司",
                "category": "餐飲\/糕餅",
                "area": "中西區",
                "market_address": "臺南市中西區赤嵌里民族路二段２２０號",
                "pay_list": "信用卡\/悠遊卡\/街口\/LINE Pay Money"
            },
            "geometry": {
                "type": "Point",
                "coordinates": [
                    120.201958,
                    22.997191
                ]
            }
        },
        {
            "type": "Feature",
            "properties": {
                "shop": "香茅魚泰式料理餐廳",
                "category": "餐飲",
                "area": "中西區",
                "market_address": "臺南市中西區五條港里民權路３段８７號２樓",
                "pay_list": "台灣pay\/信用卡"
            },
            "geometry": {
                "type": "Point",
                "coordinates": [
                    120.19742713685,
                    22.996715031375
                ]
            }
        },
        {
            "type": "Feature",
            "properties": {
                "shop": "餓男食堂",
                "category": "餐飲",
                "area": "中西區",
                "market_address": "臺南市中西區南廠里南華街２２號１樓",
                "pay_list": "LINE Pay Money"
            },
            "geometry": {
                "type": "Point",
                "coordinates": [
                    120.191287,
                    22.989115
                ]
            }
        },
        {
            "type": "Feature",
            "properties": {
                "shop": "飲饕有限公司",
                "category": "餐飲",
                "area": "中西區",
                "market_address": "臺南市中西區忠義路２段１５７號１樓",
                "pay_list": "信用卡\/LINE Pay Money"
            },
            "geometry": {
                "type": "Point",
                "coordinates": [
                    120.20384,
                    22.995949
                ]
            }
        },
        {
            "type": "Feature",
            "properties": {
                "shop": "飲食客廚房",
                "category": "餐飲",
                "area": "中西區",
                "market_address": "臺南市中西區開山里府前路１段６８號１樓、２樓",
                "pay_list": "街口\/LINE Pay Money"
            },
            "geometry": {
                "type": "Point",
                "coordinates": [
                    120.209427,
                    22.989121
                ]
            }
        },
        {
            "type": "Feature",
            "properties": {
                "shop": "飲覓手作冷飲店",
                "category": "餐飲",
                "area": "中西區",
                "market_address": "臺南市中西區光賢里中華西路２段６６６號１樓",
                "pay_list": "信用卡"
            },
            "geometry": {
                "type": "Point",
                "coordinates": [
                    120.186629,
                    23.00619
                ]
            }
        },
        {
            "type": "Feature",
            "properties": {
                "shop": "飯正香小吃",
                "category": "餐飲",
                "area": "中西區",
                "market_address": "臺南市中西區南門里府前路１段２６５號１樓",
                "pay_list": "台灣pay"
            },
            "geometry": {
                "type": "Point",
                "coordinates": [
                    120.202526,
                    22.989391
                ]
            }
        },
        {
            "type": "Feature",
            "properties": {
                "shop": "食譯企業社",
                "category": "餐飲",
                "area": "中西區",
                "market_address": "臺南市中西區郡王里慶中街１９６號１樓",
                "pay_list": "LINE Pay Money"
            },
            "geometry": {
                "type": "Point",
                "coordinates": [
                    120.205667,
                    22.984359
                ]
            }
        },
        {
            "type": "Feature",
            "properties": {
                "shop": "食物說餐飲店",
                "category": "餐飲",
                "area": "中西區",
                "market_address": "臺南市中西區赤嵌里忠義路２段１９３號",
                "pay_list": "台灣pay\/信用卡\/LINE Pay Money"
            },
            "geometry": {
                "type": "Point",
                "coordinates": [
                    120.204288,
                    22.99714
                ]
            }
        },
        {
            "type": "Feature",
            "properties": {
                "shop": "食彩餐飲商行",
                "category": "餐飲",
                "area": "中西區",
                "market_address": "臺南市中西區南廠里永華路１段２４４號１樓",
                "pay_list": "台灣pay\/LINE Pay Money"
            },
            "geometry": {
                "type": "Point",
                "coordinates": [
                    120.19067,
                    22.988561
                ]
            }
        },
        {
            "type": "Feature",
            "properties": {
                "shop": "飛鳥啤酒屋",
                "category": "餐飲",
                "area": "中西區",
                "market_address": "臺南市中西區南美里民權路２段１９２號１樓",
                "pay_list": "信用卡"
            },
            "geometry": {
                "type": "Point",
                "coordinates": [
                    120.202063,
                    22.995408
                ]
            }
        },
        {
            "type": "Feature",
            "properties": {
                "shop": "風華絕色餐飲店",
                "category": "餐飲",
                "area": "中西區",
                "market_address": "臺南市中西區府前里海安路１段２０９號１樓",
                "pay_list": "台灣pay\/街口\/LINE Pay Money"
            },
            "geometry": {
                "type": "Point",
                "coordinates": [
                    120.195813,
                    22.993023
                ]
            }
        },
        {
            "type": "Feature",
            "properties": {
                "shop": "頂津小吃店",
                "category": "餐飲",
                "area": "中西區",
                "market_address": "臺南市中西區法華里大同路１段１８８號１樓",
                "pay_list": "台灣pay\/悠遊卡"
            },
            "geometry": {
                "type": "Point",
                "coordinates": [
                    120.210956,
                    22.983269
                ]
            }
        },
        {
            "type": "Feature",
            "properties": {
                "shop": "音樂廚房美食館",
                "category": "餐飲",
                "area": "中西區",
                "market_address": "臺南市中西區永華里城隍街２３號２樓",
                "pay_list": "信用卡\/LINE Pay Money"
            },
            "geometry": {
                "type": "Point",
                "coordinates": [
                    120.20801661862,
                    22.989788753926
                ]
            }
        },
        {
            "type": "Feature",
            "properties": {
                "shop": "靡靡閣冷飲店",
                "category": "餐飲",
                "area": "中西區",
                "market_address": "臺南市中西區府前里尊王路１７９號１樓",
                "pay_list": "台灣pay\/信用卡"
            },
            "geometry": {
                "type": "Point",
                "coordinates": [
                    120.19207924429,
                    22.992265888213
                ]
            }
        },
        {
            "type": "Feature",
            "properties": {
                "shop": "靝溢國際股份有限公司中正分店",
                "category": "餐飲",
                "area": "中西區",
                "market_address": "臺南市中西區中正路２２０號１樓",
                "pay_list": "悠遊卡\/街口\/LINE Pay Money"
            },
            "geometry": {
                "type": "Point",
                "coordinates": [
                    120.19732292061,
                    22.993175056426
                ]
            }
        },
        {
            "type": "Feature",
            "properties": {
                "shop": "青鳥日式酒吧",
                "category": "餐飲",
                "area": "中西區",
                "market_address": "臺南市中西區赤嵌里成功路２６９號",
                "pay_list": "信用卡"
            },
            "geometry": {
                "type": "Point",
                "coordinates": [
                    120.201901,
                    22.999247
                ]
            }
        },
        {
            "type": "Feature",
            "properties": {
                "shop": "青山茶行",
                "category": "餐飲",
                "area": "中西區",
                "market_address": "臺南市中西區淺草里民生路２段１１７號１樓",
                "pay_list": "台灣pay"
            },
            "geometry": {
                "type": "Point",
                "coordinates": [
                    120.19618962843,
                    22.995284345444
                ]
            }
        },
        {
            "type": "Feature",
            "properties": {
                "shop": "霜花喫茶亭",
                "category": "餐飲",
                "area": "中西區",
                "market_address": "臺南市中西區赤嵌里公園路１１３號１樓",
                "pay_list": "台灣pay"
            },
            "geometry": {
                "type": "Point",
                "coordinates": [
                    120.20603145955,
                    22.996531555696
                ]
            }
        },
        {
            "type": "Feature",
            "properties": {
                "shop": "震洋商號",
                "category": "餐飲",
                "area": "中西區",
                "market_address": "臺南市中西區城隍里青年路９５號１樓",
                "pay_list": "信用卡"
            },
            "geometry": {
                "type": "Point",
                "coordinates": [
                    120.20832263119,
                    22.992190495539
                ]
            }
        },
        {
            "type": "Feature",
            "properties": {
                "shop": "雲象泰式餐廳股份有限公司",
                "category": "餐飲",
                "area": "中西區",
                "market_address": "臺南市中西區西湖里頂美一街３號",
                "pay_list": "信用卡\/LINE Pay Money\/悠遊付"
            },
            "geometry": {
                "type": "Point",
                "coordinates": [
                    120.18341839934,
                    22.999313995819
                ]
            }
        },
        {
            "type": "Feature",
            "properties": {
                "shop": "雲煬商號",
                "category": "餐飲",
                "area": "中西區",
                "market_address": "臺南市中西區府前里府前路２段８２號１樓",
                "pay_list": "台灣pay"
            },
            "geometry": {
                "type": "Point",
                "coordinates": [
                    120.195869,
                    22.991018
                ]
            }
        },
        {
            "type": "Feature",
            "properties": {
                "shop": "雞不可失雞排店",
                "category": "餐飲",
                "area": "中西區",
                "market_address": "臺南市中西區淺草里中正路２１０號",
                "pay_list": "LINE Pay Money"
            },
            "geometry": {
                "type": "Point",
                "coordinates": [
                    120.197613,
                    22.993079
                ]
            }
        },
        {
            "type": "Feature",
            "properties": {
                "shop": "雛菊餐飲有限公司",
                "category": "餐飲",
                "area": "中西區",
                "market_address": "臺南市中西區大涼里府前路２段３７８號",
                "pay_list": "信用卡"
            },
            "geometry": {
                "type": "Point",
                "coordinates": [
                    120.18736860492,
                    22.992852140746
                ]
            }
        },
        {
            "type": "Feature",
            "properties": {
                "shop": "雅軒印度餐廳有限公司台南分公司",
                "category": "餐飲",
                "area": "中西區",
                "market_address": "臺南市中西區小西門里永福路１段１１５號",
                "pay_list": "台灣pay\/信用卡\/悠遊卡\/街口\/LINE Pay Money"
            },
            "geometry": {
                "type": "Point",
                "coordinates": [
                    120.19998322199,
                    22.984372845014
                ]
            }
        },
        {
            "type": "Feature",
            "properties": {
                "shop": "雅客樂餐館",
                "category": "餐飲",
                "area": "中西區",
                "market_address": "臺南市中西區兌悅里海安路２段３４５號",
                "pay_list": "LINE Pay Money"
            },
            "geometry": {
                "type": "Point",
                "coordinates": [
                    120.197685,
                    22.998578
                ]
            }
        },