{
    "type": "FeatureCollection",
    "features": [
        {
            "type": "Feature",
            "properties": {
                "shop": "魚之鄉魚麵行",
                "category": "糕餅",
                "area": "北竿鄉",
                "market_address": "連江縣北竿鄉塘岐村１４９號",
                "pay_list": "悠遊卡"
            },
            "geometry": {
                "type": "Point",
                "coordinates": [
                    119.997294,
                    26.222978
                ]
            }
        },
        {
            "type": "Feature",
            "properties": {
                "shop": "北竿塘海鮮樓",
                "category": "餐飲",
                "area": "北竿鄉",
                "market_address": "連江縣北竿鄉塘岐村８０號",
                "pay_list": "台灣pay\/信用卡"
            },
            "geometry": {
                "type": "Point",
                "coordinates": [
                    119.997923,
                    26.22392
                ]
            }
        },
        {
            "type": "Feature",
            "properties": {
                "shop": "饌食地方小吃館",
                "category": "餐飲",
                "area": "北竿鄉",
                "market_address": "連江縣北竿鄉塘岐村９０號",
                "pay_list": "街口\/信用卡\/台灣pay"
            },
            "geometry": {
                "type": "Point",
                "coordinates": [
                    119.997682,
                    26.223666
                ]
            }
        },
        {
            "type": "Feature",
            "properties": {
                "shop": "龍和閩東風味館",
                "category": "餐飲",
                "area": "北竿鄉",
                "market_address": "連江縣北竿鄉塘岐村８８號",
                "pay_list": "信用卡\/悠遊卡\/台灣pay\/街口"
            },
            "geometry": {
                "type": "Point",
                "coordinates": [
                    119.99775,
                    26.223721
                ]
            }
        },
        {
            "type": "Feature",
            "properties": {
                "shop": "韓上樓飲食店",
                "category": "餐飲",
                "area": "北竿鄉",
                "market_address": "連江縣北竿鄉塘岐村７５號",
                "pay_list": "悠遊卡"
            },
            "geometry": {
                "type": "Point",
                "coordinates": [
                    119.99822,
                    26.223811
                ]
            }
        },
        {
            "type": "Feature",
            "properties": {
                "shop": "芹沃咖啡烘焙館",
                "category": "餐飲",
                "area": "北竿鄉",
                "market_address": "連江縣北竿鄉芹壁村１１號（５３之１號）",
                "pay_list": "信用卡\/悠遊卡\/台灣pay"
            },
            "geometry": {
                "type": "Point",
                "coordinates": [
                    119.983711,
                    26.225048
                ]
            }
        },
        {
            "type": "Feature",
            "properties": {
                "shop": "誼客閣咖啡烘焙館",
                "category": "餐飲\/糕餅",
                "area": "南竿鄉",
                "market_address": "連江縣南竿鄉清水村８４－１１號",
                "pay_list": "Pi 拍錢包\/悠遊付\/信用卡\/台灣pay\/街口"
            },
            "geometry": {
                "type": "Point",
                "coordinates": [
                    119.939848,
                    26.146597
                ]
            }
        },
        {
            "type": "Feature",
            "properties": {
                "shop": "林義和工坊",
                "category": "糕餅",
                "area": "南竿鄉",
                "market_address": "連江縣南竿鄉四維村７２號",
                "pay_list": "信用卡\/悠遊卡"
            },
            "geometry": {
                "type": "Point",
                "coordinates": [
                    119.918036,
                    26.16958
                ]
            }
        },
        {
            "type": "Feature",
            "properties": {
                "shop": "八方雲集餐飲股份有限公司鉑客馬祖店",
                "category": "餐飲",
                "area": "南竿鄉",
                "market_address": "連江縣南竿鄉介壽村２０５號２樓",
                "pay_list": "悠遊卡"
            },
            "geometry": {
                "type": "Point",
                "coordinates": [
                    119.952116,
                    26.15625
                ]
            }
        },
        {
            "type": "Feature",
            "properties": {
                "shop": "馬祖天后會舘",
                "category": "餐飲",
                "area": "南竿鄉",
                "market_address": "連江縣南竿鄉馬祖村１０２－６號",
                "pay_list": "信用卡"
            },
            "geometry": {
                "type": "Point",
                "coordinates": [
                    119.918287,
                    26.159783
                ]
            }
        },
        {
            "type": "Feature",
            "properties": {
                "shop": "誼客閣咖啡烘焙館",
                "category": "餐飲\/糕餅",
                "area": "南竿鄉",
                "market_address": "連江縣南竿鄉清水村８４－１１號",
                "pay_list": "Pi 拍錢包\/悠遊付\/信用卡\/台灣pay\/街口"
            },
            "geometry": {
                "type": "Point",
                "coordinates": [
                    119.939848,
                    26.146597
                ]
            }
        },
        {
            "type": "Feature",
            "properties": {
                "shop": "海浪花餐廳",
                "category": "餐飲",
                "area": "南竿鄉",
                "market_address": "連江縣南竿鄉仁愛村６４號",
                "pay_list": "信用卡"
            },
            "geometry": {
                "type": "Point",
                "coordinates": [
                    119.924536,
                    26.141787
                ]
            }
        },
        {
            "type": "Feature",
            "properties": {
                "shop": "錢鍋飲食店",
                "category": "餐飲",
                "area": "南竿鄉",
                "market_address": "連江縣南竿鄉介壽村４７－２號",
                "pay_list": "台灣pay"
            },
            "geometry": {
                "type": "Point",
                "coordinates": [
                    119.95218,
                    26.158761
                ]
            }
        },
        {
            "type": "Feature",
            "properties": {
                "shop": "依嬤的店",
                "category": "餐飲",
                "area": "南竿鄉",
                "market_address": "連江縣南竿鄉復興村７２－１號",
                "pay_list": "信用卡"
            },
            "geometry": {
                "type": "Point",
                "coordinates": [
                    119.952931,
                    26.163537
                ]
            }
        },
        {
            "type": "Feature",
            "properties": {
                "shop": "和田屋麵館",
                "category": "餐飲",
                "area": "南竿鄉",
                "market_address": "連江縣南竿鄉馬祖村７８號",
                "pay_list": "悠遊卡"
            },
            "geometry": {
                "type": "Point",
                "coordinates": [
                    119.919039,
                    26.159835
                ]
            }
        },
        {
            "type": "Feature",
            "properties": {
                "shop": "力安複合式餐坊",
                "category": "餐飲",
                "area": "南竿鄉",
                "market_address": "連江縣南竿鄉馬祖村１１號３樓",
                "pay_list": "悠遊卡"
            },
            "geometry": {
                "type": "Point",
                "coordinates": [
                    119.91969,
                    26.16025
                ]
            }
        },
        {
            "type": "Feature",
            "properties": {
                "shop": "儷儐飲食店",
                "category": "餐飲",
                "area": "南竿鄉",
                "market_address": "連江縣南竿鄉清水村１０７號",
                "pay_list": "信用卡"
            },
            "geometry": {
                "type": "Point",
                "coordinates": [
                    119.938125,
                    26.152775
                ]
            }
        },
        {
            "type": "Feature",
            "properties": {
                "shop": "四號義廚坊",
                "category": "餐飲",
                "area": "南竿鄉",
                "market_address": "連江縣南竿鄉馬祖村８２號",
                "pay_list": "悠遊卡"
            },
            "geometry": {
                "type": "Point",
                "coordinates": [
                    119.91904,
                    26.159934
                ]
            }
        },
        {
            "type": "Feature",
            "properties": {
                "shop": "好食無菜單料理餐廳",
                "category": "餐飲",
                "area": "南竿鄉",
                "market_address": "連江縣南竿鄉清水村１０４號",
                "pay_list": "信用卡"
            },
            "geometry": {
                "type": "Point",
                "coordinates": [
                    119.938021,
                    26.152626
                ]
            }
        },
        {
            "type": "Feature",
            "properties": {
                "shop": "蝦寮食堂",
                "category": "餐飲",
                "area": "南竿鄉",
                "market_address": "連江縣南竿鄉復興村１１０－１號",
                "pay_list": "悠遊卡"
            },
            "geometry": {
                "type": "Point",
                "coordinates": [
                    119.953025,
                    26.163668
                ]
            }
        },
        {
            "type": "Feature",
            "properties": {
                "shop": "馬啡祖茶館",
                "category": "餐飲",
                "area": "南竿鄉",
                "market_address": "連江縣南竿鄉馬祖村５５號",
                "pay_list": "台灣pay"
            },
            "geometry": {
                "type": "Point",
                "coordinates": [
                    119.91853,
                    26.159597
                ]
            }
        },
        {
            "type": "Feature",
            "properties": {
                "shop": "神辳居海鮮餐廳",
                "category": "餐飲",
                "area": "南竿鄉",
                "market_address": "連江縣南竿鄉清水村８６－３號",
                "pay_list": "台灣pay"
            },
            "geometry": {
                "type": "Point",
                "coordinates": [
                    119.938687,
                    26.149084
                ]
            }
        },
        {
            "type": "Feature",
            "properties": {
                "shop": "馬祖藍灣景觀餐廳",
                "category": "餐飲",
                "area": "南竿鄉",
                "market_address": "連江縣南竿鄉珠螺村４鄰５２號",
                "pay_list": "街口\/悠遊卡\/台灣pay"
            },
            "geometry": {
                "type": "Point",
                "coordinates": [
                    119.930206,
                    26.158718
                ]
            }
        },
        {
            "type": "Feature",
            "properties": {
                "shop": "萬家香二店",
                "category": "餐飲",
                "area": "南竿鄉",
                "market_address": "連江縣南竿鄉介壽村１６２號",
                "pay_list": "台灣pay\/悠遊卡"
            },
            "geometry": {
                "type": "Point",
                "coordinates": [
                    119.952226,
                    26.155584
                ]
            }
        },
        {
            "type": "Feature",
            "properties": {
                "shop": "枕戈待旦特產行",
                "category": "餐飲",
                "area": "南竿鄉",
                "market_address": "連江縣南竿鄉福沃村１３９號",
                "pay_list": "悠遊付\/信用卡"
            },
            "geometry": {
                "type": "Point",
                "coordinates": [
                    119.940068,
                    26.155933
                ]
            }
        },
        {
            "type": "Feature",
            "properties": {
                "shop": "八方雲集餐飲股份有限公司馬祖店",
                "category": "餐飲",
                "area": "南竿鄉",
                "market_address": "連江縣南竿鄉介壽村２０５號１樓",
                "pay_list": "悠遊卡"
            },
            "geometry": {
                "type": "Point",
                "coordinates": [
                    119.952116,
                    26.15625
                ]
            }
        },
        {
            "type": "Feature",
            "properties": {
                "shop": "朝露麵小吃店",
                "category": "餐飲",
                "area": "東引鄉",
                "market_address": "連江縣東引鄉中柳村８７號",
                "pay_list": "街口"
            },
            "geometry": {
                "type": "Point",
                "coordinates": [
                    120.488425,
                    26.367532
                ]
            }
        },
        {
            "type": "Feature",
            "properties": {
                "shop": "國境之北",
                "category": "餐飲",
                "area": "東引鄉",
                "market_address": "連江縣東引鄉樂華村１０６號",
                "pay_list": "街口"
            },
            "geometry": {
                "type": "Point",
                "coordinates": [
                    120.4869,
                    26.367051
                ]
            }
        },
        {
            "type": "Feature",
            "properties": {
                "shop": "頂紅風味小火鍋",
                "category": "餐飲",
                "area": "東引鄉",
                "market_address": "連江縣東引鄉樂華村１２１號",
                "pay_list": "街口"
            },
            "geometry": {
                "type": "Point",
                "coordinates": [
                    120.488433,
                    26.367422
                ]
            }
        },
        {
            "type": "Feature",
            "properties": {
                "shop": "今友緣餐廳",
                "category": "餐飲",
                "area": "東引鄉",
                "market_address": "連江縣東引鄉樂華村９５號",
                "pay_list": "信用卡\/悠遊卡\/街口"
            },
            "geometry": {
                "type": "Point",
                "coordinates": [
                    120.489566,
                    26.367031
                ]
            }
        },
        {
            "type": "Feature",
            "properties": {
                "shop": "東引飲茶店",
                "category": "餐飲",
                "area": "東引鄉",
                "market_address": "連江縣東引鄉樂華村９０號",
                "pay_list": "悠遊卡"
            },
            "geometry": {
                "type": "Point",
                "coordinates": [
                    120.489089,
                    26.366945
                ]
            }
        }
    ]
}